property_id,airbnb_property_id,vrbo_property_id,listing_type,bedrooms,bathrooms,accommodates,rating,reviews,title,revenue_ltm,revenue_potential_ltm,occupancy_rate_ltm,average_daily_rate_ltm,days_available_ltm,market_id,market_name,currency,address_match_confidence,lat,lng,section
abnb_1131524078057625960,1131524078057625960,,entire_place,8,5.0,16.0,4.8,5.0,Two Penthouses/the best zone/30mt Unicentro Mall/P,319254449.76,335097934.68,78.51,1165162.27,349,12,Bogotá,cop,Medium,4.6996,-74.042,141029
vrbo_3499361,,3499361,entire_place,7,7.5,16.0,5.0,,"♛Casa de Heroes. Artsy & Authentic nearby Zona T♛
",258795288.18,325812811.03,79.31,1125196.97,290,12,Bogotá,cop,Low,4.687297,-74.05168,141029
abnb_568844993254715064,568844993254715064,,entire_place,4,4.0,10.0,5.0,71.0,Brand New Luxury home! Best location of Bogota!,237210892.02,244847809.65,44.54,1530392.85,348,12,Bogotá,cop,Low,4.69474,-74.04155,141029
abnb_1222766271077298627,1222766271077298627,4375821,entire_place,4,4.5,10.0,5.0,25.0,Grand Prix of Bogotá!,212519315.88,221653724.71,37.79,1634763.94,344,12,Bogotá,cop,Medium,4.6988,-74.036,141029
abnb_1057491952337085754,1057491952337085754,,entire_place,3,3.0,8.0,5.0,23.0,Luxury and Style Bogota,210403632.24,332465235.45,57.72,1481715.72,246,12,Bogotá,cop,Low,4.69448,-74.04189,141029
abnb_943752655017237363,943752655017237363,,entire_place,5,4.0,16.0,5.0,33.0,°Chalet Suizo + BBQ~ Chimney (1 floor) Luxury Stay,168230022.12,175955142.38,75.36,639657.89,349,12,Bogotá,cop,Medium,4.7037,-74.0375,141029
abnb_1231497606942137531,1231497606942137531,,entire_place,5,4.0,16.0,4.9,18.0,°400m2 Wonderful Swiss Chalet ~ Fireplace and BBQ,165222360.36,171951450.67,75.78,621136.7,351,12,Bogotá,cop,High,4.7038,-74.0373,141029
abnb_40077720,40077720,,entire_place,3,3.5,8.0,4.7,96.0,"Exclusive penthouse in Chico, Bogotá",159785716.86,167781710.97,73.78,624162.94,347,12,Bogotá,cop,Low,4.68591,-74.05047,141029
abnb_1252234392373888041,1252234392373888041,,entire_place,3,3.5,6.0,4.0,1.0,Elegant Penthouse in an exclusive area of Bogotá,158842136.7,167437230.49,75.36,610931.3,345,12,Bogotá,cop,High,4.686395928,-74.050563343,141029
abnb_1313338784762436882,1313338784762436882,11750512ha,entire_place,4,2.5,8.0,,,Unique Penthouse less than 1 block from Unicentro,157235101.74,299113694.39,51.97,1321303.41,229,12,Bogotá,cop,Medium,4.6997,-74.0421,141029
abnb_1266866072069507799,1266866072069507799,,entire_place,6,4.5,16.0,4.9,28.0,*400m2 Magnífico Cottage Urbano “New York Style”,149476366.44,151964100.79,70.2,593160.18,359,12,Bogotá,cop,High,4.6933,-74.0362,141029
abnb_1304479832732682526,1304479832732682526,,entire_place,3,4.0,8.0,,,Luxury PentHouse Duplex | Private Giant Terrace,139826784.96,151361094.09,85.58,501171.29,326,12,Bogotá,cop,Medium,4.7099,-74.0505,141029
abnb_1063224496947993498,1063224496947993498,,entire_place,5,5.0,16.0,4.9,36.0,"Majestic ""Swiss Chalet"" + BBQ & Gym ~ Fireplace",136509510.96,144093647.07,64.27,612150.28,347,12,Bogotá,cop,Medium,4.7036,-74.0374,141029
abnb_1137285452795443355,1137285452795443355,4057918,entire_place,3,2.5,6.0,4.8,30.0,NOK Classy 3BR Apartment in Usaquén,132053306.22,135288901.56,74.65,498314.38,355,12,Bogotá,cop,High,4.7035,-74.0519,141029
abnb_52773942,52773942,,entire_place,2,3.0,6.0,4.6,89.0,"Penthouse with Terrace, Turkish Jacuzzi and Private BBQ",127921457.16,132389088.07,64.2,566024.18,352,12,Bogotá,cop,Low,4.71449,-74.03449,141029
abnb_991985271372648120,991985271372648120,4057911,entire_place,3,2.5,6.0,4.8,38.0,NOK Unique 3 BR Apartment in Usaquén,125223407.64,132719156.83,78.89,465514.53,341,12,Bogotá,cop,High,4.7035,-74.0519,141029
abnb_1137291362928130992,1137291362928130992,4057900,entire_place,3,2.5,6.0,4.6,21.0,NOK Fantastic 3BR in Usaquén,123734320.2,124678932.4,80.11,426670.07,362,12,Bogotá,cop,High,4.7035,-74.0519,141029
abnb_1137257611579167690,1137257611579167690,4057930,entire_place,3,3.5,6.0,4.8,50.0,NOK Magnificent 3 BR in Usaquén,122617504.62,125743924.79,78.65,437919.66,356,12,Bogotá,cop,High,4.7035,-74.0519,141029
abnb_1137293428210269822,1137293428210269822,4057936,entire_place,3,3.5,6.0,4.7,48.0,NOK Modern 3BR in Usaquén,122403724.74,124692570.08,77.65,440301.15,358,12,Bogotá,cop,High,4.7035,-74.0519,141029
abnb_900055010067081719,900055010067081719,,entire_place,2,2.0,6.0,4.9,112.0,*ML F@miliar Luxury Terrace Priv @Usaquén Medical Zone,120350700.72,124082117.95,82.44,413576.29,353,12,Bogotá,cop,Low,4.70156,-74.02898,141029
abnb_1056093036975699109,1056093036975699109,,entire_place,1,1.0,4.0,5.0,50.0,Luxury apto PrivateTerrace Jacuzzi & Fireplace,118345592.88,121374632.63,61.65,545371.38,352,12,Bogotá,cop,High,4.68822,-74.05194,141029
abnb_810931583487787173,810931583487787173,,entire_place,3,3.5,8.0,5.0,17.0,Exclusive top floor apartment Chico Norte,116082474.84,123127001.05,73.47,460644.74,343,12,Bogotá,cop,Low,4.68719,-74.05041,141029
abnb_1336278442776171756,1336278442776171756,,entire_place,4,3.0,12.0,5.0,4.0,"12people Big house Wifi, Parking, Pet at Bogota",115680716.1,119982999.33,78.08,444925.84,333,12,Bogotá,cop,Medium,4.7314,-74.0464,141029
abnb_841300845433023535,841300845433023535,11911980ha,entire_place,1,1.0,4.0,4.8,125.0,Máster suite private tub+spapool in clubhouse,114077367.0,121357714.53,82.51,403100.25,343,12,Bogotá,cop,Medium,4.6858,-74.0472,141029
abnb_810923237038113348,810923237038113348,,entire_place,3,3.5,8.0,4.8,25.0,"Beautiful duplex apartment in Chico Norte, Bogotá",113598205.2,120336620.73,74.13,445483.18,344,12,Bogotá,cop,Low,4.68559,-74.04901,141029
abnb_1040090738576223837,1040090738576223837,,entire_place,1,1.5,2.0,4.9,133.0,"*LUXE High Rise* City & Mnt. Views, Pool & Parking",113141158.56,121161073.9,75.0,443690.82,340,12,Bogotá,cop,High,4.6858,-74.0472,141029
abnb_1166092109497389024,1166092109497389024,,entire_place,1,1.5,4.0,5.0,55.0,Usaquén Luxury loft - Jacuzzi on private terrace,112802059.44,122090058.05,57.61,584466.64,335,12,Bogotá,cop,Low,4.70491,-74.04672,141029
abnb_40037616,40037616,,entire_place,3,3.5,8.0,4.6,191.0,Luxury duplex in Chico 503: Views and Comfort,110922270.84,117742549.33,72.01,449078.03,343,12,Bogotá,cop,Low,4.68727,-74.04947,141029
abnb_41985392,41985392,,entire_place,3,3.5,8.0,4.6,89.0,Modern top floor - in the exclusive Chico neighborhood,110866982.94,117369356.0,72.97,441701.13,344,12,Bogotá,cop,Low,4.68738,-74.0501,141029
abnb_40428890,40428890,,entire_place,3,3.5,8.0,4.7,175.0,Elegant Duplex in Chico  Space and Comfort 504,106875196.56,110885154.23,68.09,447176.55,351,12,Bogotá,cop,Low,4.6873,-74.04939,141029
abnb_939379103292227150,939379103292227150,,entire_place,2,2.0,4.0,4.7,35.0,"2 Bedroom Luxury Condo With Pool, Spa, Parking",103716414.54,104265755.11,80.72,353980.94,363,12,Bogotá,cop,Medium,4.6857,-74.0474,141029
abnb_1136278676660323700,1136278676660323700,3979588,entire_place,2,2.0,6.0,4.9,65.0,Top 5% on Airbnb,103030844.58,103624931.49,86.5,328123.7,363,12,Bogotá,cop,Low,4.69351,-74.05086,141029
abnb_810864443266058644,810864443266058644,,entire_place,3,3.5,8.0,4.5,13.0,Great Duplex Apartment Chico Norte,100528145.64,105388173.2,64.94,444814.82,348,12,Bogotá,cop,Low,4.68733,-74.05064,141029
abnb_1137229008545119349,1137229008545119349,20155134ha,entire_place,3,2.5,6.0,4.8,27.0,NOK Cozy 3 Br Apartment in Usaquen,99824146.38,111591401.86,77.56,412496.46,312,12,Bogotá,cop,High,4.7035,-74.0519,141029
abnb_1119116188992836782,1119116188992836782,,entire_place,3,2.5,6.0,5.0,87.0,Spacious and exclusive apartment in the new country,97170327.18,102519873.81,80.06,350795.42,346,12,Bogotá,cop,Low,4.71662,-74.0419,141029
abnb_26871604,26871604,,entire_place,4,3.5,8.0,4.9,107.0,202 Cozy Apartment for business families Unicentro,97166641.32,97569800.69,82.09,326062.56,363,12,Bogotá,cop,Medium,4.7056,-74.0422,141029
abnb_53384497,53384497,,entire_place,1,2.0,4.0,4.9,127.0,Amazing apartment +2 Fireplace on Private Terrace,97067123.1,100585239.61,72.44,380655.39,352,12,Bogotá,cop,Low,4.68709,-74.04867,141029
abnb_638545214177184332,638545214177184332,11750302ha,entire_place,4,2.5,8.0,4.8,74.0,Penthouse/MountainView/90feetUnicentro Mall/P,96831228.06,98699000.76,62.57,432282.27,358,12,Bogotá,cop,Medium,4.6996,-74.042,141029
abnb_849167721586850367,849167721586850367,,entire_place,2,2.5,5.0,4.8,61.0,*ML large private terrace gastronomy art@calle 109,96510558.24,97226905.13,82.6,322777.8,362,12,Bogotá,cop,Low,4.69642,-74.04897,141029
abnb_940202628361003340,940202628361003340,11749079ha,entire_place,4,2.5,8.0,4.5,50.0,Penthouse/Best zone/Less than 30m UnicentroMall/P,96407354.16,99799082.53,61.47,444273.51,353,12,Bogotá,cop,High,4.69963,-74.04198,141029
abnb_1084717523372835255,1084717523372835255,3900040,entire_place,2,2.0,6.0,4.8,68.0,Private terrace in family apartment,95887647.9,96109684.11,87.36,301533.48,364,12,Bogotá,cop,Low,4.69439,-74.05161,141029
abnb_1022793562931722162,1022793562931722162,11499163ha,entire_place,2,2.5,4.0,,,Luxury Unicentro Elegant Apartment,93274373.16,96077543.41,89.27,295172.05,354,12,Bogotá,cop,Medium,4.6872,-74.0546,141029
abnb_47492482,47492482,10832028ha,entire_place,3,2.5,5.0,4.8,141.0,Penthouse Bogotá from the sky,92666206.26,94921842.0,52.38,495541.21,357,12,Bogotá,cop,Low,4.6984,-74.03135,141029
abnb_808215170884571228,808215170884571228,,entire_place,2,2.5,6.0,4.9,93.0,*ML Charming 2BR for groups and families @Chico,92500342.56,93926622.95,88.52,292722.62,357,12,Bogotá,cop,Medium,4.6968125,-74.049578,141029
abnb_1137274629824716760,1137274629824716760,4057928,entire_place,2,2.5,4.0,4.6,19.0,NOK Designer 2BR in Usaquén,90727443.9,93863889.61,70.45,365836.48,352,12,Bogotá,cop,High,4.7035,-74.0519,141029
abnb_1100302848179975842,1100302848179975842,11499160ha,entire_place,3,4.0,6.0,3.4,5.0,"Spacious, central, small 3 bedrooms.",89643801.06,91952734.34,85.39,294880.93,356,12,Bogotá,cop,Medium,4.6872,-74.0546,141029
abnb_1015269621817473395,1015269621817473395,3900045,entire_place,2,2.0,6.0,4.8,63.0,Modern Apartment with 24-hour Security,89389476.72,90514216.9,85.0,292122.49,360,12,Bogotá,cop,Low,4.69493,-74.05105,141029
abnb_1137251525361843823,1137251525361843823,4028071,entire_place,4,4.5,7.0,4.0,16.0,NOK Luxury 4BR in Usaquén,88538043.06,126441989.81,40.08,931979.39,237,12,Bogotá,cop,Medium,4.7035,-74.0519,141029
abnb_550016106663194032,550016106663194032,3047477,entire_place,2,2.5,4.0,4.8,82.0,Incredible RELAX Loft PH Duplex in Usaquen (2BR + 3BA),88250545.98,88761037.59,69.7,348816.37,363,12,Bogotá,cop,Low,4.69369,-74.0394,141029
abnb_1259620320796556057,1259620320796556057,3979590,entire_place,2,2.0,6.0,4.8,37.0,New Cozy Apartment,87631321.5,88139233.01,82.09,294064.83,363,12,Bogotá,cop,Low,4.692941932,-74.0510197,141029
abnb_16214289,16214289,,entire_place,4,2.5,8.0,5.0,190.0,502 Cozy apartment for families business Unicentro,87170589.0,88638482.75,70.2,345915.03,359,12,Bogotá,cop,Medium,4.7059,-74.0422,141029
abnb_929715388150670192,929715388150670192,,entire_place,2,2.0,6.0,4.9,76.0,Chic & Cozy 2BR Oasis | Bogotá City Escape 104,85290800.4,86932556.16,74.51,320642.1,357,12,Bogotá,cop,High,4.6886,-74.0458,141029
abnb_1060103873776896165,1060103873776896165,,entire_place,1,1.5,3.0,4.8,156.0,"Modern Loft. Terrace, private Jacuzzi.",84948015.42,87112757.86,73.6,324229.07,356,12,Bogotá,cop,High,4.6858,-74.0472,141029
abnb_1244394243223969334,1244394243223969334,,entire_place,3,2.5,5.0,4.0,1.0,Luxury Apartment in El Chico,84748978.98,87677615.9,78.06,309302.85,351,12,Bogotá,cop,Medium,4.6929,-74.0439,141029
abnb_1114594520377558232,1114594520377558232,11527714ha,entire_place,3,4.5,5.0,4.8,15.0,Spacious and comfortable apartment in Santa Barbara 116,84435680.88,84684476.43,75.36,321048.21,349,12,Bogotá,cop,Medium,4.6984,-74.0462,141029
abnb_594338674838515272,594338674838515272,,entire_place,3,3.5,6.0,4.8,88.0,Exclusive apartment located in the north zone.,84431995.02,87508140.06,62.36,389087.53,348,12,Bogotá,cop,Medium,4.6989,-74.0462,141029
abnb_49951919,49951919,10512306ha,entire_place,0,1.0,2.0,4.8,190.0,Loft + Private terrace jacuzzi fireplace & cinema,84417251.58,85694070.34,55.28,424207.3,360,12,Bogotá,cop,Low,4.69255,-74.0379,141029
abnb_1137282783769890938,1137282783769890938,4057907,entire_place,2,2.5,4.0,4.8,27.0,NOK Lovely 2BR in Usaquén,83857000.86,83968203.26,65.11,353827.01,364,12,Bogotá,cop,High,4.7035,-74.0519,141029
abnb_1338623736448653944,1338623736448653944,,entire_place,3,2.0,5.0,5.0,4.0,"Spacious apartment in Chico, ready to move in",83720624.04,85519876.6,86.79,289690.72,333,12,Bogotá,cop,Low,4.686719131,-74.054768504,141029
abnb_1161012680211872033,1161012680211872033,,entire_place,4,2.5,8.0,4.7,11.0,Spacious and comfortable house,83248833.96,86400281.12,53.75,465077.28,333,12,Bogotá,cop,High,4.6974,-74.0389,141029
abnb_1100169907762591489,1100169907762591489,,entire_place,3,3.5,6.0,4.7,6.0,"Spacious, very bright and comfortable",83064540.96,88168830.46,83.18,299871.99,333,12,Bogotá,cop,Low,4.68818,-74.05411,141029
abnb_1064131555743086625,1064131555743086625,,entire_place,3,0.0,6.0,4.6,10.0,Beautiful equipped duplex apartment.,82883933.82,85233780.15,74.86,312769.57,354,12,Bogotá,cop,Medium,4.6931,-74.0439,141029
abnb_1267454899942761069,1267454899942761069,,entire_place,3,5.0,8.0,4.0,8.0,|Ahead| Luxury Penthouse with private amenities,82832331.78,181574715.11,70.45,890670.23,132,12,Bogotá,cop,Low,4.72167,-74.05035,141029
abnb_847055758142939367,847055758142939367,3900043,entire_place,2,2.0,6.0,4.8,102.0,Elegant and cozy family suite,82659096.36,83093180.09,74.38,306144.8,363,12,Bogotá,cop,Low,4.69313,-74.05027,141029
abnb_715129993049691605,715129993049691605,,entire_place,2,2.0,4.0,,,Spacious apartment in Chico to premiere luxurious 2 bedrooms,82452688.2,85787691.19,74.29,317125.72,350,12,Bogotá,cop,Low,4.68664,-74.05411,141029
abnb_1132948674565382380,1132948674565382380,,entire_place,3,3.0,6.0,4.8,10.0,Top apartment with 3 bedrooms.,81350616.06,86169214.56,71.3,330693.55,345,12,Bogotá,cop,Medium,4.6872,-74.0546,141029
abnb_46296479,46296479,,entire_place,3,2.5,6.0,4.9,69.0,"Private house with fireplace, patio and parking.",81228982.68,85809990.64,67.83,347132.42,345,12,Bogotá,cop,Low,4.69776,-74.03773,141029
abnb_1362401266897326624,1362401266897326624,,entire_place,3,2.5,6.0,4.8,20.0,"_Unique Jacuzzi Exclusive Flat, Duplex Safest Area",80900941.14,86301868.66,78.98,347214.31,295,12,Bogotá,cop,Medium,4.6952,-74.051,141029
abnb_53025205,53025205,,entire_place,2,2.0,4.0,4.0,1.0,SPECTACULAR BRAND NEW APT WITH BALCONY,80742449.16,82120223.63,87.43,257963.09,358,12,Bogotá,cop,Low,4.69353,-74.05015,141029
abnb_1305889313809394944,1305889313809394944,,entire_place,4,3.0,12.0,4.9,33.0,Large 4BR House /Parking /WIFI/Cedritos Usaquen,80580271.32,83334456.49,79.32,287786.7,353,12,Bogotá,cop,Medium,4.7314,-74.0464,141029
abnb_1137281217581316946,1137281217581316946,20155135ha,entire_place,3,3.0,6.0,4.8,32.0,NOK Modern Apartment 4BR in Usaquien,80311203.54,96332568.06,82.06,373540.48,262,12,Bogotá,cop,High,4.7035,-74.0519,141029
abnb_1242206867136510363,1242206867136510363,,entire_place,2,2.0,5.0,5.0,3.0,Fantastic North Apartment.,79949989.26,81252166.74,81.28,274742.24,358,12,Bogotá,cop,Low,4.6989,-74.04167,141029
abnb_744883607735456189,744883607735456189,,entire_place,3,3.5,6.0,4.8,35.0,"Amplio apto, ideal para trabajo remoto, wifi 210 M",78855288.84,81641393.56,85.01,267306.05,347,12,Bogotá,cop,Low,4.68585,-74.04939,141029
abnb_1136948201279318015,1136948201279318015,,entire_place,3,3.5,6.0,4.8,40.0,Cozy apartment with an excellent location,78460901.82,79486234.35,86.39,252285.86,360,12,Bogotá,cop,Low,4.69408,-74.04584,141029
abnb_1066070319310844946,1066070319310844946,,entire_place,2,2.5,5.0,4.7,22.0,*ML Family Central and Comfortable in @Usaquén,77579981.28,78748362.04,88.58,243962.21,359,12,Bogotá,cop,Low,4.69607,-74.0486,141029
abnb_594740061016061211,594740061016061211,,entire_place,2,3.0,5.0,4.6,101.0,"Large apartment for 4 people, wi-fi.",77462033.76,79151595.13,81.46,267110.44,356,12,Bogotá,cop,Medium,4.6872,-74.0546,141029
abnb_1193378848589009084,1193378848589009084,,entire_place,2,2.0,5.0,1.0,1.0,"Apartment with 2 bedrooms, north-facing.",77403060.0,79973283.9,80.68,272546.0,352,12,Bogotá,cop,Low,4.69896,-74.04294,141029
abnb_747781256353193291,747781256353193291,,entire_place,2,2.0,4.0,,,Beautiful 2 bedroom apartment near Chico.,76352589.9,78684301.79,65.82,327693.52,354,12,Bogotá,cop,Low,4.687,-74.05513,141029
abnb_595469638291985397,595469638291985397,,entire_place,2,3.0,5.0,4.2,16.0,Luxury Chico 2 rooms new,75906600.84,77301625.13,80.45,263564.57,358,12,Bogotá,cop,Low,4.688,-74.05357,141029
abnb_1461212428990835679,1461212428990835679,,entire_place,5,5.0,16.0,5.0,7.0,Glorious Swiss Chalet & Chimney ~ Gym & BBQ,75884485.68,123556919.76,64.5,696187.96,169,12,Bogotá,cop,High,4.7036,-74.0374,141029
abnb_601349072686579896,601349072686579896,11041256ha,entire_place,2,3.0,4.0,,,SPECTACULAR SPACIOUS APT WITH EXCELLENT VIEWS,75707564.4,78243804.67,70.74,304046.44,352,12,Bogotá,cop,Low,4.6869,-74.05478,141029
abnb_1211546290123989555,1211546290123989555,4167208,entire_place,2,2.5,4.0,4.6,20.0,NOK Dreamy 2 BR in Usaquén,75700192.68,76764779.62,67.78,310246.7,360,12,Bogotá,cop,High,4.7036,-74.0519,141029
abnb_1183443897687116774,1183443897687116774,,entire_place,3,3.0,6.0,4.4,11.0,"Spacious, central, small 3 bedroom",75648590.64,78395809.53,72.08,299006.29,351,12,Bogotá,cop,Low,4.68823,-74.05371,141029
abnb_24121098,24121098,,entire_place,8,6.0,16.0,5.0,5.0,Spacious House  with Garden Large Groups Cedritos,75560130.0,83740859.41,47.31,858637.82,186,12,Bogotá,cop,Low,4.73466,-74.04759,141029
abnb_1466911432562731839,1466911432562731839,,entire_place,6,4.5,16.0,5.0,5.0,"*Boutique House ""NewYork Style"" Games Room Mansion",75526957.26,103030660.29,71.07,668380.18,159,12,Bogotá,cop,Low,4.693520439,-74.035298141,141029
abnb_1152883740149237047,1152883740149237047,,entire_place,2,2.5,4.0,,,Kappa apartment north of the city.,75221030.88,78246716.5,68.97,313420.95,348,12,Bogotá,cop,Low,4.68686,-74.05343,141029
abnb_591298630830598373,591298630830598373,,entire_place,2,3.0,4.0,,,SPECTACULAR 2 BEDROOM APARTMENT WITH BALCONY,74874560.04,80200922.61,75.15,301913.55,330,12,Bogotá,cop,High,4.68765,-74.05532,141029
abnb_37294386,37294386,,entire_place,2,2.0,4.0,4.0,1.0,Beautiful Apto 2   rooms Close to  unicentro,73831461.66,76128895.06,80.28,259057.76,355,12,Bogotá,cop,Low,4.69467,-74.04026,141029
abnb_1111920108160643575,1111920108160643575,,entire_place,2,3.0,5.0,2.0,1.0,Tranquility and comfort suitable for your family,73643482.8,79699461.36,75.78,301817.57,322,12,Bogotá,cop,Low,4.68816,-74.05421,141029
abnb_1453123852716467704,1453123852716467704,,entire_place,5,3.5,11.0,5.0,6.0,_ Historic Townhouse “Hacienda” ~ Private Garden,73455503.94,95340297.69,90.34,461984.29,176,12,Bogotá,cop,Medium,4.697,-74.0396,141029
abnb_569789149221184696,569789149221184696,,entire_place,3,3.5,4.0,5.0,24.0,Luxury apartment,73285954.38,74106500.53,47.62,523471.07,294,12,Bogotá,cop,Low,4.70421,-74.03009,141029
abnb_1136532258175904559,1136532258175904559,,entire_place,3,2.5,6.0,4.2,14.0,Top Duplex in Santa Barbara,73145891.7,75211410.79,66.38,311259.12,354,12,Bogotá,cop,Medium,4.6931,-74.0439,141029
abnb_1136304642494573535,1136304642494573535,,entire_place,3,4.5,8.0,4.3,12.0,A Giant and Cozy Penthouse with a Terrace,72828907.74,83522398.49,95.83,287861.3,264,12,Bogotá,cop,Medium,4.698,-74.0446,141029
abnb_913161552352120590,913161552352120590,,entire_place,1,1.5,2.0,4.8,41.0,Apt+WiFi+Gym+Tv+Laundry+Work Area+Cinema @Bogotá,72817850.16,73102656.56,62.36,320783.49,364,12,Bogotá,cop,Medium,4.7274,-74.0362,141029
abnb_1145985703774641640,1145985703774641640,,entire_place,3,2.0,6.0,,,comfortable three bedrooms,72615127.86,77436601.33,63.01,333096.92,346,12,Bogotá,cop,Low,4.68815,-74.05524,141029
abnb_1385573058847571297,1385573058847571297,,entire_place,3,2.0,6.0,5.0,1.0,"Spacious, very bright and comfortable",72600384.42,84581456.64,89.85,303767.28,266,12,Bogotá,cop,Low,4.687599612,-74.05362308,141029
abnb_37461014,37461014,,entire_place,2,2.0,4.0,4.7,6.0,Beautiful apartment near Fundación Santa Fe.,72504552.06,73267635.66,77.16,261749.28,359,12,Bogotá,cop,Low,4.69442,-74.042,141029
abnb_1372668741664018066,1372668741664018066,,entire_place,3,2.5,6.0,4.7,16.0,"_Marvelous Jacuzzi Exotic Retreat, Duplex Top Area",72180196.38,80111061.34,80.22,323678.03,278,12,Bogotá,cop,Medium,4.6952,-74.051,141029
abnb_52950069,52950069,,entire_place,2,2.0,4.0,4.0,2.0,SPECTACULAR BRAND NEW APT WITH BALCONY,71929557.9,79322803.32,85.85,257812.03,325,12,Bogotá,cop,Low,4.6941,-74.0522,141029
abnb_1122028673031118995,1122028673031118995,,entire_place,2,1.0,5.0,4.0,1.0,Spectacular apartment with a beautiful view.,71752636.62,75221141.46,69.59,301481.68,342,12,Bogotá,cop,Low,4.6881,-74.05347,141029
abnb_54065717,54065717,,entire_place,2,2.0,4.0,,,Beautiful 2 bedroom apartment near Santa Fe Clinic,71214501.06,74108601.47,78.16,261818.03,348,12,Bogotá,cop,Low,4.69563,-74.04029,141029
abnb_591289285982229921,591289285982229921,,entire_place,2,3.0,4.0,,,LUXURY APARTMENT NEAR UNICENTRO - TWO BEDROOMS,70960176.72,73700429.34,69.83,292017.2,348,12,Bogotá,cop,High,4.68699,-74.05547,141029
abnb_53679297,53679297,,entire_place,3,2.5,5.0,4.9,38.0,"Luxurious, spacious,  safe, exclusive location",70879087.8,74527868.05,64.39,326631.74,337,12,Bogotá,cop,Low,4.69651,-74.03906,141029
abnb_660923997025583756,660923997025583756,11129303ha,entire_place,2,2.0,5.0,5.0,4.0,New Boy Near Parque 93,70602648.3,72159776.72,67.79,291746.47,357,12,Bogotá,cop,Low,4.68678,-74.05506,141029
abnb_747796336615409530,747796336615409530,,entire_place,2,2.0,4.0,5.0,1.0,Lovely apartment kappa small area,70598962.44,71963172.94,61.17,322369.7,358,12,Bogotá,cop,Low,4.68757,-74.05347,141029
abnb_933992082098104829,933992082098104829,,entire_place,1,1.0,4.0,4.8,88.0,Loft in unique building +poolspa,70492072.5,70668772.63,94.78,204324.85,364,12,Bogotá,cop,Low,4.68536,-74.04769,141029
abnb_1055280371549038042,1055280371549038042,11508884ha,entire_place,0,0.0,3.0,4.9,134.0,"loft with private jacuzzi, fireplace and cinema",69729099.48,71629528.9,57.3,341809.3,356,12,Bogotá,cop,Low,4.69179,-74.03762,141029
abnb_1015538051593909178,1015538051593909178,11499270ha,entire_place,2,2.0,4.0,5.0,1.0,New apartment / parking / gym,69537434.76,72092509.77,66.57,301027.87,347,12,Bogotá,cop,High,4.6872,-74.0546,141029
abnb_53775224,53775224,,entire_place,2,2.0,4.0,5.0,28.0,"Cozy, well-lit apartment",69176220.48,70998730.82,88.17,221010.29,355,12,Bogotá,cop,Low,4.69739,-74.04112,141029
abnb_30479894,30479894,,entire_place,2,1.0,4.0,4.9,156.0,Balcon Calleja Reina Sofía Plus Cleaning 100%,69109875.0,70267972.21,94.17,203863.94,360,12,Bogotá,cop,Low,4.70685,-74.05083,141029
abnb_1113216167683931943,1113216167683931943,,entire_place,2,2.5,4.0,4.2,55.0,SkyLine Mountains|Sauna|Gym|Luxury Apto,68722859.7,71675380.99,76.0,258356.63,350,12,Bogotá,cop,High,4.7022408,-74.0320886,141029
abnb_1023521150539976886,1023521150539976886,,entire_place,2,2.0,4.0,,,"Great 2-bedroom apartment, parking in Chico",68494336.38,75785630.91,71.47,300413.77,319,12,Bogotá,cop,Medium,4.6872,-74.0546,141029
abnb_46122059,46122059,,entire_place,2,3.0,5.0,4.9,123.0,103 Cosy apartment Ideal for remote working family,68464849.5,69818960.75,73.18,261316.23,358,12,Bogotá,cop,Medium,4.7058,-74.0425,141029
abnb_993730806049518646,993730806049518646,,entire_place,5,4.0,11.0,,,Charming House with Indoor Garden Large groups,68018860.44,74870874.18,57.59,407298.55,290,12,Bogotá,cop,Low,4.73517,-74.04635,141029
abnb_956628735551475556,956628735551475556,,entire_place,2,2.0,4.0,4.8,26.0,Fascinating Apartment,67886169.48,69521880.43,88.76,214829.65,356,12,Bogotá,cop,High,4.70414,-74.0477,141029
abnb_1064112378320518620,1064112378320518620,,entire_place,3,2.0,6.0,4.2,8.0,Spacious and Comfortable Duplex / Parking,67447552.14,70055003.22,62.68,306579.77,351,12,Bogotá,cop,Medium,4.6931,-74.0439,141029
abnb_1006038696440522267,1006038696440522267,,entire_place,2,2.0,4.0,,,Suitable for your family,67359091.5,72548561.23,68.58,296736.09,331,12,Bogotá,cop,Medium,4.6872,-74.0546,141029
abnb_1145978406149586015,1145978406149586015,,entire_place,2,2.0,5.0,,,Experience great comfort and design,67259573.28,69529768.17,63.28,300265.97,354,12,Bogotá,cop,High,4.68808,-74.05352,141029
abnb_660699822811111885,660699822811111885,11499151ha,entire_place,2,3.0,4.0,4.4,11.0,SPECTACULAR APT IN UNICENTRO WITH EXCELLENT VIEWS,66688264.98,67718720.86,63.23,293780.92,359,12,Bogotá,cop,Medium,4.6872,-74.0546,141029
abnb_1072025858601404004,1072025858601404004,,entire_place,3,2.5,6.0,4.0,3.0,Beautiful family duplex apartment,66684579.12,69330252.57,57.67,328495.45,352,12,Bogotá,cop,Low,4.69391,-74.04365,141029
abnb_915455108613003342,915455108613003342,,entire_place,2,2.0,4.0,5.0,41.0,Comfortable and quiet apartment in Usaquén,66515029.56,66655313.39,81.87,223204.81,364,12,Bogotá,cop,Medium,4.6979,-74.039,141029
abnb_52427105,52427105,,entire_place,1,2.0,4.0,4.8,145.0,Beautiful Loft in the Best Area of Bogota,66411825.48,67603316.58,86.35,214231.69,359,12,Bogotá,cop,High,4.7037,-74.04581,141029
abnb_661796408125212294,661796408125212294,11499275ha,entire_place,2,2.0,5.0,4.4,3.0,"Small, spacious 2 bedrooms, 10 minutes from Parque 93.",66378652.74,68222356.77,73.16,256288.24,354,12,Bogotá,cop,Medium,4.6868,-74.0536,141029
abnb_905164038565114979,905164038565114979,,entire_place,2,2.0,4.0,4.7,3.0,A beautiful apartment near the Reina Sofia Clinic.,66253333.5,70566637.45,82.8,233286.39,343,12,Bogotá,cop,Low,4.70656,-74.04681,141029
abnb_53026031,53026031,,entire_place,2,2.0,4.0,3.5,4.0,SPECTACULAR BRAND NEW APT WITH BALCONY,66198045.6,67131710.8,73.18,252664.3,358,12,Bogotá,cop,Low,4.69423,-74.05028,141029
abnb_558159335212881023,558159335212881023,,entire_place,2,2.0,4.0,5.0,1.0,Beautiful apartment near the Sta Fe foundation.,65951092.98,68064528.25,73.5,255624.4,351,12,Bogotá,cop,Low,4.69607,-74.04033,141029
abnb_1307373387106433624,1307373387106433624,,entire_place,3,2.5,5.0,4.8,20.0,Closer to the Stars 504,65940035.4,66602384.44,81.11,225822.04,360,12,Bogotá,cop,Low,4.699144466,-74.046343788,141029
abnb_51556695,51556695,,entire_place,2,1.0,4.0,4.9,90.0,Balcony La Calleja 5 Reina Sofia Plus 100% Cleaning,65851574.76,67932169.01,79.66,233516.22,354,12,Bogotá,cop,Low,4.70701,-74.04989,141029
abnb_1217479783489769626,1217479783489769626,11442390ha,entire_place,1,1.5,3.0,4.8,28.0,Bright Luxurious Flat with Stunning View,65777857.56,66161076.42,74.93,241830.34,363,12,Bogotá,cop,High,4.68672,-74.04692,141029
abnb_1456656934280943454,1456656934280943454,,entire_place,3,3.0,9.0,4.9,10.0,Beautiful family apartment in Chicó,65567763.54,102558096.18,57.93,690186.94,164,12,Bogotá,cop,Low,4.68566,-74.04685,141029
abnb_619864889602789766,619864889602789766,,entire_place,2,2.5,4.0,4.9,164.0,Lovely 2 Bedroom Apartment 5th Floor Top Location,65372412.96,66763861.97,81.46,225422.11,356,12,Bogotá,cop,Low,4.7028,-74.03107,141029
abnb_595617568449804567,595617568449804567,11063105ha,entire_place,2,3.0,4.0,,,SPECTACULAR APT. WITH WONDERFUL VIEWS,65084915.88,79429840.7,71.38,299930.48,304,12,Bogotá,cop,High,4.687,-74.05567,141029
abnb_807295485551982540,807295485551982540,,entire_place,2,2.0,4.0,5.0,1.0,Beautiful apartment with a terrace.,64782675.36,69117136.14,77.26,244462.93,343,12,Bogotá,cop,Low,4.6979,-74.04384,141029
abnb_1065449847317476338,1065449847317476338,,entire_place,2,2.0,5.0,5.0,1.0,new  2 bedrooms  in chico,64679471.28,76777532.7,80.52,300834.77,267,12,Bogotá,cop,High,4.69287,-74.05071,141029
abnb_1354949522467753305,1354949522467753305,,entire_place,3,2.5,8.0,4.8,49.0,Closer to the Stars 402,64495178.28,70052165.11,75.57,277996.48,307,12,Bogotá,cop,Low,4.699002586,-74.046111401,141029
abnb_905301433247300768,905301433247300768,,entire_place,2,2.0,4.0,,,Apartment near the Reina Sofia Clinic.,64303513.56,73009920.32,83.23,239938.48,322,12,Bogotá,cop,Low,4.7069,-74.04895,141029
abnb_1142111611097157685,1142111611097157685,,entire_place,2,2.0,6.0,,,Nice apartment near 116th Street.,64185566.04,66397192.62,70.17,259860.58,352,12,Bogotá,cop,Low,4.69472,-74.04111,141029
abnb_1290857684639991046,1290857684639991046,,entire_place,4,4.0,10.0,4.0,15.0,Beautiful Penthouse for long term rent,64130278.14,65479229.18,52.79,339313.66,358,12,Bogotá,cop,High,4.7162491,-74.0373794,141029
abnb_747863507284335780,747863507284335780,,entire_place,2,3.0,4.0,4.5,2.0,Cozy apartment with spectacular views,63979157.88,71708627.45,68.07,283093.62,332,12,Bogotá,cop,Low,4.68753,-74.05559,141029
abnb_1365323609036329179,1365323609036329179,,entire_place,3,5.0,5.0,,,*ML Spacious & Family 3BR with Terrace Unicentro,63857524.5,74372251.04,91.84,283811.22,245,12,Bogotá,cop,Low,4.697528211,-74.036095934,141029
abnb_866530421268644604,866530421268644604,,entire_place,1,1.0,2.0,4.7,99.0,Holtz Luxurious Flat with Terrace & Jacuzzi,63603200.16,64741799.17,66.2,268367.95,358,12,Bogotá,cop,Low,4.68627,-74.04748,141029
abnb_1234965786411765441,1234965786411765441,,entire_place,2,2.0,4.0,4.9,18.0,"Spacious, comfortable and conveniently located apartment",63518425.38,65753125.44,82.03,224446.73,345,12,Bogotá,cop,Medium,4.6979,-74.039,141029
abnb_20995991,20995991,,entire_place,2,2.0,4.0,4.8,91.0,122 Spacious 5-star apartment. Full 2 bedrooms,63459451.62,64624183.38,60.96,292439.86,356,12,Bogotá,cop,Low,4.70395,-74.04226,141029
abnb_1064030429326262632,1064030429326262632,,entire_place,3,2.5,6.0,4.3,12.0,Perfecto Dúplex amoblado en Unicentro,63370990.98,66225026.1,57.88,313717.77,349,12,Bogotá,cop,Medium,4.6931,-74.0439,141029
abnb_866530581343309914,866530581343309914,,entire_place,1,1.5,3.0,4.7,46.0,"Holtz Luxury Flat, Great view of hills",63142467.66,63636114.89,79.01,220777.85,362,12,Bogotá,cop,Medium,4.6858,-74.0472,141029
abnb_917993801177389711,917993801177389711,,entire_place,2,2.5,5.0,4.3,3.0,"Spacious apartment in Chico, ready to move in",63024520.14,64031312.8,67.04,262602.17,358,12,Bogotá,cop,Low,4.68689,-74.05542,141029
abnb_1284989205155234258,1284989205155234258,,entire_place,1,1.0,2.0,5.0,120.0,Jacuzzi and View; North of Bogotá,63002404.98,63468260.83,73.48,236851.15,362,12,Bogotá,cop,Medium,4.7315,-74.0226,141029
abnb_1021981799169849092,1021981799169849092,,entire_place,2,3.0,4.0,5.0,1.0,luxurious 2 bedroom apartment with private balcony,62987661.54,65042491.63,59.04,301376.37,354,12,Bogotá,cop,Low,4.68745,-74.05391,141029
abnb_968050674479326730,968050674479326730,,entire_place,2,2.5,5.0,4.7,23.0,Central duplex in the capital,62729651.34,62729651.34,85.21,201703.06,365,12,Bogotá,cop,Medium,4.6886408,-74.0458248,141029
abnb_54364489,54364489,10898686ha,entire_place,3,2.5,6.0,4.5,4.0,SPECTACULAR DUPLEX APT - NEAR UNICENTRO,62637504.84,66865444.27,56.56,322873.74,343,12,Bogotá,cop,High,4.69345,-74.04467,141029
abnb_718758636282171054,718758636282171054,,entire_place,2,2.5,4.0,5.0,52.0,"Modern, spacious and beautiful apartment in Chicó",62519557.32,66467666.26,86.98,212651.56,338,12,Bogotá,cop,Low,4.69174,-74.05016,141029
abnb_50961142,50961142,,entire_place,2,2.0,4.0,4.9,41.0,Smart apartment with terrace and jacuzzi,62350007.76,62480487.2,92.31,185565.5,364,12,Bogotá,cop,Low,4.72797,-74.03724,141029
abnb_1269012399097039103,1269012399097039103,,entire_place,1,1.0,3.0,4.9,54.0,Glamour Suite with Private terrace,62243117.82,63450052.68,91.62,189765.6,358,12,Bogotá,cop,Medium,4.6858,-74.0472,141029
abnb_1207976254076242167,1207976254076242167,,entire_place,2,2.0,4.0,4.7,36.0,w* | Charming 2BR w/ Fantastic Deco in Unicentro,62217316.8,65284652.63,82.56,219075.06,344,12,Bogotá,cop,Medium,4.702,-74.0437,141029
abnb_1137759370366910883,1137759370366910883,,entire_place,3,2.5,7.0,4.6,35.0,Closer to the Stars 303,62150971.32,63544963.57,69.27,250608.76,358,12,Bogotá,cop,Low,4.69743,-74.04653,141029
abnb_1075619073135997957,1075619073135997957,,entire_place,3,2.0,6.0,5.0,64.0,NEW MAster Piece. Classy & local style PH Cedritos,62047767.24,63455470.89,63.31,274547.64,357,12,Bogotá,cop,Medium,4.7253,-74.045,141029
abnb_1135574172696441086,1135574172696441086,,entire_place,1,2.0,4.0,4.7,16.0,Serene Luxury Haven& Peace Oasis,62007222.78,62615537.11,75.62,227132.68,361,12,Bogotá,cop,Medium,4.6858,-74.0472,141029
abnb_1069827759095381469,1069827759095381469,,entire_place,3,2.5,6.0,4.0,3.0,Beautiful duplex apartment,61926133.86,64158474.97,54.7,322531.95,351,12,Bogotá,cop,Low,4.69393,-74.04308,141029
abnb_594389930328779324,594389930328779324,,entire_place,2,3.0,5.0,4.4,40.0,Spacious apartment in Chico,61771327.74,62582548.67,67.04,255253.43,361,12,Bogotá,cop,Medium,4.6872,-74.0546,141029
abnb_635542644879995730,635542644879995730,,entire_place,2,2.5,5.0,4.7,6.0,Luxurious 10 minutes Parque de la 93 Chico,61719725.7,65572444.58,68.5,260420.79,346,12,Bogotá,cop,Low,4.68673,-74.05494,141029
abnb_1008291717382858021,1008291717382858021,,entire_place,2,3.0,4.0,,,Elegant Apartment Near Parque de la 93,61517003.4,68554821.34,62.76,294339.73,333,12,Bogotá,cop,Medium,4.6872,-74.0546,141029
abnb_807220575918682165,807220575918682165,,entire_place,2,2.0,4.0,,,Nice apartment with a terrace.,61432228.62,67223156.98,77.54,237190.07,334,12,Bogotá,cop,Low,4.69848,-74.04378,141029
abnb_661112720635275536,661112720635275536,,entire_place,2,2.0,5.0,4.7,25.0,"Spacious apartment in Chico, brand new.",61421171.04,61573175.91,65.93,255921.55,364,12,Bogotá,cop,Medium,4.6872,-74.0546,141029
abnb_1044346289739727648,1044346289739727648,,entire_place,3,2.0,6.0,4.1,14.0,"Beautiful 3-bedroom duplex apartment, brand new",61144731.54,62936280.65,60.45,285723.04,354,12,Bogotá,cop,Low,4.69222,-74.04417,141029
abnb_868931749234857433,868931749234857433,3857455,entire_place,1,1.5,3.0,4.9,34.0,GH |New - Modern 1BR Flat with Terrace,60975181.98,60975181.98,80.56,213199.95,355,12,Bogotá,cop,High,4.7042,-74.0317,141029
abnb_889772756373735745,889772756373735745,,entire_place,2,2.0,5.0,4.2,6.0,Chico 2 bedrooms new,60942009.24,63774592.65,68.97,253925.05,348,12,Bogotá,cop,Low,4.69395,-74.05098,141029
abnb_596275561616539149,596275561616539149,,entire_place,2,3.0,5.0,4.6,37.0,Spacious apartment in Chico,60897778.92,62496410.12,66.57,256952.65,356,12,Bogotá,cop,Low,4.68802,-74.05343,141029
abnb_40616762,40616762,,entire_place,1,1.0,2.0,5.0,113.0,Modern Apartment ⚡ Fast 100mbps WiFi ✅ Parque 93,60820375.86,61157116.03,86.5,193695.47,363,12,Bogotá,cop,Medium,4.6836,-74.045,141029
abnb_42584588,42584588,,entire_place,2,2.0,6.0,5.0,1.0,Beautiful apartment near the Santa Fe Foundation.,60816690.0,63164029.94,69.63,250274.46,349,12,Bogotá,cop,Low,4.69462,-74.04236,141029
abnb_1085533118943350468,1085533118943350468,,entire_place,2,1.5,4.0,4.8,51.0,Closer to the Stars 703,60706114.2,63432102.54,73.43,236210.55,350,12,Bogotá,cop,Low,4.69866,-74.04654,141029
abnb_1362498385974941396,1362498385974941396,,entire_place,2,2.0,5.0,4.7,6.0,"Furnished 2 Rooms, Free WiFi & Parking, Unicentro",60702428.34,65916593.33,85.33,237118.86,300,12,Bogotá,cop,Low,4.698567665,-74.041286687,141029
abnb_662912294960762709,662912294960762709,,entire_place,2,2.0,5.0,4.4,18.0,"Large 2 bedrooms, parking, Wifi Chico.",60396501.96,61075584.81,63.31,267241.16,357,12,Bogotá,cop,Low,4.68671,-74.05304,141029
abnb_1213695659901353301,1213695659901353301,,entire_place,1,1.0,3.0,,,Luxury apto prívate jacuzzi & fireplace,60097947.3,66879634.83,61.2,536588.79,183,12,Bogotá,cop,Low,4.68707,-74.0537,141029
abnb_1137287013289788302,1137287013289788302,4057896,entire_place,1,1.5,2.0,4.8,32.0,NOK Amazing 1BR in Usaquén,60086889.72,60442833.22,89.53,184882.74,363,12,Bogotá,cop,High,4.7035,-74.0519,141029
abnb_716629835839519449,716629835839519449,11499321ha,entire_place,2,2.5,4.0,,,A beautiful apartment to premiere in a small area,59574555.18,63567410.46,59.33,307085.32,327,12,Bogotá,cop,Low,4.68759,-74.05481,141029
abnb_925978957990919699,925978957990919699,4856423,entire_place,3,2.0,6.0,4.6,90.0,Your true home in Bogota,59489780.4,61512543.51,73.37,229690.26,353,12,Bogotá,cop,Low,4.71546,-74.03764,141029
abnb_1314630635832337138,1314630635832337138,,entire_place,1,1.5,4.0,4.8,20.0,Lovely apartment with a pool,59430806.64,60770616.75,80.06,208529.15,356,12,Bogotá,cop,Low,4.685065052,-74.046221064,141029
abnb_1230693445700672903,1230693445700672903,,entire_place,1,1.5,4.0,4.7,22.0,Beautiful apartment with a heated pool,59353403.58,60592515.99,78.15,212736.21,357,12,Bogotá,cop,Medium,4.6859,-74.0473,141029
abnb_898537911473408619,898537911473408619,,entire_place,1,1.0,3.0,4.8,55.0,"Holtz Luxurious Flat, Top Design. Great View",59290743.96,60066728.07,76.11,216389.58,360,12,Bogotá,cop,Medium,4.6858,-74.0472,141029
abnb_704358592583676950,704358592583676950,,entire_place,2,2.5,4.0,4.5,2.0,Ideal location for working and tranquility,59261257.08,61203410.43,96.76,180674.55,339,12,Bogotá,cop,Low,4.6852,-74.0447,141029
abnb_1339402941677923359,1339402941677923359,,entire_place,2,2.0,5.0,5.0,2.0,"2 Hab  wifi, Parking",59194911.6,68528098.86,80.0,259626.82,285,12,Bogotá,cop,Medium,4.6929,-74.0516,141029
abnb_1171656787050007771,1171656787050007771,4850650,entire_place,2,2.0,4.0,4.9,67.0,Magnificent apartment,59172796.44,61015873.87,81.92,204044.12,354,12,Bogotá,cop,High,4.703,-74.0469,141029
abnb_592628906540250655,592628906540250655,,entire_place,2,3.0,5.0,4.6,23.0,"Luxury  2 Bedrooms New, Chico",59058534.78,59547279.82,65.19,250248.02,362,12,Bogotá,cop,Low,4.68652,-74.05356,141029
abnb_1193016663903076503,1193016663903076503,,entire_place,2,2.0,5.0,4.2,40.0,"Furnished 2 Bedrooms, Unicentro, Free Parking",58804210.44,59935916.89,78.99,208525.56,357,12,Bogotá,cop,Low,4.70087,-74.04085,141029
abnb_1106075265642628989,1106075265642628989,,entire_place,3,3.0,6.0,4.2,27.0,Cozy 3-bedroom duplex. Near Unicentro.,58726807.38,60097763.01,61.8,266940.04,356,12,Bogotá,cop,High,4.69334,-74.04347,141029
abnb_1359661356591446871,1359661356591446871,,entire_place,1,1.0,2.0,4.8,30.0,Holtz Flat with amaizing mountain view,58601488.14,61216716.39,67.32,284473.24,306,12,Bogotá,cop,Medium,4.6858,-74.0472,141029
abnb_1334254454794184724,1334254454794184724,,entire_place,2,2.0,6.0,4.3,18.0,Premium Loft in Usaquen with art,58572001.26,62266338.74,80.25,225276.93,324,12,Bogotá,cop,High,4.70138,-74.03239,141029
abnb_1393082313786184650,1393082313786184650,,entire_place,3,2.0,6.0,4.3,10.0,"Exclusive 3-Bedroom Duplex, Near Unicentro.",58516713.36,72355127.3,76.17,300085.69,256,12,Bogotá,cop,Low,4.692615516,-74.043020022,141029
abnb_753686122640992136,753686122640992136,,entire_place,2,2.5,7.0,4.9,57.0,NEW APT. Modern and ready for a great stay!,58494598.2,79660612.39,87.2,268323.84,250,12,Bogotá,cop,Low,4.70771,-74.03018,141029
abnb_841567359276822154,841567359276822154,,entire_place,1,1.0,4.0,4.8,118.0,Amazing modern In clubhouse+Pool 13,58358221.38,58358221.38,91.23,175249.92,365,12,Bogotá,cop,Medium,4.6858,-74.0472,141029
abnb_758955842155152070,758955842155152070,,entire_place,2,2.0,5.0,5.0,63.0,Modern Usaquén apartment with convenient location,58339792.08,59189603.96,51.7,320548.3,352,12,Bogotá,cop,Medium,4.7187,-74.0374,141029
abnb_52892888,52892888,,entire_place,2,2.0,5.0,4.4,7.0,To open 2 small rooms,58188671.82,63061821.04,72.53,247611.39,324,12,Bogotá,cop,Low,4.69343,-74.05001,141029
abnb_855768776968953886,855768776968953886,,entire_place,1,1.0,3.0,4.8,119.0,luxury Penthouse - The Luxx +  Pool,57993321.24,59677464.39,86.48,188903.32,355,12,Bogotá,cop,Medium,4.6858,-74.0472,141029
abnb_1136837923278530001,1136837923278530001,,entire_place,2,2.5,5.0,4.9,39.0,Modern apartment with an excellent location,57908546.46,62126165.48,67.45,251776.27,341,12,Bogotá,cop,Low,4.68762,-74.0491,141029
abnb_650644805375409698,650644805375409698,,entire_place,2,2.0,4.0,4.8,46.0,BEAUTIFUL APARTMENT IN THE BEST AREA OF BOGOTA,57820085.82,61155789.12,86.06,203591.85,330,12,Bogotá,cop,High,4.70394,-74.04724,141029
abnb_1050892615140708516,1050892615140708516,,entire_place,3,2.0,6.0,5.0,4.0,"Beautiful 3-bedroom duplex apartment, brand new",57761112.06,58361612.37,59.78,269911.73,358,12,Bogotá,cop,Low,4.69404,-74.04324,141029
abnb_37217898,37217898,3193295,entire_place,2,2.5,6.0,4.9,137.0,★Luxury and Fantastic 2 Bd Apt in Bogota★,57672651.42,58610149.91,65.92,244375.65,358,12,Bogotá,cop,Low,4.70286,-74.03284,141029
abnb_53050916,53050916,,entire_place,2,2.0,5.0,4.4,57.0,To open 2 small rooms,57621049.38,60050731.43,75.48,243126.81,314,12,Bogotá,cop,Low,4.69293,-74.05247,141029
abnb_24882432,24882432,7194956ha,entire_place,1,1.5,4.0,4.9,220.0,Spectacular Minimalist Apartment 116 Street,57458871.54,57458871.54,87.12,180688.27,365,12,Bogotá,cop,Medium,4.6983,-74.047,141029
abnb_1095776634781258113,1095776634781258113,,entire_place,3,4.0,6.0,4.3,26.0,ApartamentoKappadocia/Wifi/Parking/SalonSocial,57436756.38,58896467.52,53.24,303898.2,355,12,Bogotá,cop,Medium,4.6872,-74.0546,141029
abnb_860039325239669145,860039325239669145,,entire_place,4,2.0,12.0,5.0,4.0,Groups /900 Mb /CC Santa Fe / Clinics/Xcoli.,27655007.58,28854017.84,48.12,196134.8,293,12,Bogotá,cop,Low,4.76042,-74.0393,141029
abnb_1485714524698776003,1485714524698776003,,entire_place,4,4.0,12.0,4.5,4.0,Spacious Usaquén Apartment – Fireplace & Parking,27647635.86,41411558.57,78.29,273738.98,129,12,Bogotá,cop,Low,4.69491775,-74.034750627,141029
abnb_40161353,40161353,,entire_place,3,2.5,6.0,4.9,18.0,Brand New Apartment Charming & Cozy (Gym/Squash),27640264.14,38267335.69,88.35,125637.57,249,12,Bogotá,cop,Low,4.72159,-74.02906,141029
abnb_46765968,46765968,,entire_place,2,2.0,4.0,4.7,89.0,Bogotá Breakfast Loft – 2 Rooms | 4 Pax Usaquén,27632892.42,27980358.44,34.44,222845.92,360,12,Bogotá,cop,Medium,4.6944,-74.0386,141029
abnb_1450724052927500248,1450724052927500248,,entire_place,2,2.0,4.0,,,Your dream stay in a place full of style,27610777.26,41718885.57,55.81,287612.26,172,12,Bogotá,cop,Low,4.6878,-74.05075,141029
abnb_1182525359626072555,1182525359626072555,,entire_place,2,1.0,4.0,4.7,3.0,Stylish Loft in Usaquen,27599719.68,28184407.65,73.25,155054.61,243,12,Bogotá,cop,Medium,4.6873478,-74.0478731,141029
abnb_1285785405552234402,1285785405552234402,,entire_place,1,1.0,2.0,5.0,7.0,Sixth floor with a nice view,27592347.96,29807918.41,95.85,85425.22,337,12,Bogotá,cop,Medium,4.7252,-74.0415,141029
abnb_1352606746653347257,1352606746653347257,,entire_place,1,1.0,3.0,4.9,29.0,Your home loft in Usaquen park,27584976.24,29720047.5,71.52,122057.42,316,12,Bogotá,cop,Low,4.6982,-74.03398,141029
abnb_52387540,52387540,,entire_place,3,2.0,4.0,4.8,86.0,Apartment one block from the Cardio-Infantil WIFI,27570232.8,29766784.21,55.04,144346.77,347,12,Bogotá,cop,High,4.73826,-74.0349,141029
abnb_1357321263365505189,1357321263365505189,,entire_place,0,1.0,4.0,4.8,27.0,"500 Mb Stay in, Usaquen",27529688.34,29503282.08,67.87,132993.67,305,12,Bogotá,cop,Low,4.699500645,-74.031782857,141029
abnb_41817926,41817926,,entire_place,1,1.0,3.0,4.5,52.0,Stunning 1 BR Loft in Usaquen!,27503887.32,27743689.37,50.14,152799.37,359,12,Bogotá,cop,High,4.69965,-74.04919,141029
abnb_913837449268753256,913837449268753256,,entire_place,2,2.5,5.0,4.2,5.0,Beautiful Apartment With Balcony/Wifi/Smart TV/Gym/Parking,27496515.6,27703439.78,31.4,266956.46,328,12,Bogotá,cop,Medium,4.6872,-74.0546,141029
abnb_1207974447466153196,1207974447466153196,,entire_place,1,1.0,4.0,4.7,176.0,w* | Phenomenal Loft w/ Great balcony in Unicentro,27492829.74,28473379.08,40.51,192257.55,353,12,Bogotá,cop,Medium,4.702,-74.0437,141029
abnb_1304329422338795427,1304329422338795427,4328015,entire_place,1,1.0,3.0,4.8,6.0,Apto con coworking Usaquén cerca Fundación SantaFe,27441227.7,28020939.76,63.41,120886.46,358,12,Bogotá,cop,High,4.6971,-74.0321,141029
abnb_1370010387827126321,1370010387827126321,,entire_place,2,2.0,5.0,5.0,1.0,"Apartment in Usaquen, Bogota.",27437541.84,38342306.08,72.17,179330.34,212,12,Bogotá,cop,Medium,4.7455496,-74.0337441,141029
abnb_1311746703286693000,1311746703286693000,,entire_place,1,1.0,2.0,4.6,37.0,Modern Loft in the Country,27433855.98,29776957.18,76.32,111974.92,321,12,Bogotá,cop,Low,4.713737919,-74.035877372,141029
abnb_1182156031424388156,1182156031424388156,,entire_place,2,1.0,4.0,5.0,1.0,Awesome 2 Beds Apt in Usaquen,27430170.12,28227274.2,59.0,178117.99,261,12,Bogotá,cop,Medium,4.6873478,-74.0478731,141029
abnb_668903904726361682,668903904726361682,11500128ha,entire_place,2,3.0,5.0,4.3,10.0,Spectacular 2 hab in unicentro,27426484.26,27684715.61,30.33,271549.32,333,12,Bogotá,cop,Medium,4.6872,-74.0546,141029
abnb_1146603569383662631,1146603569383662631,4076418,entire_place,2,2.0,6.0,5.0,13.0,Cozy & Minimalist Apt-hosting capacity for up to 6,27408054.96,27728393.05,58.82,130514.54,357,12,Bogotá,cop,Low,4.72978,-74.02926,141029
abnb_584777362789285358,584777362789285358,,entire_place,1,1.0,2.0,4.8,20.0,Spectacular apartment 403 near the Santa Fe clinic,27393311.52,29322048.34,60.53,134280.94,337,12,Bogotá,cop,Medium,4.6944,-74.0386,141029
abnb_45191952,45191952,,entire_place,1,1.0,3.0,4.6,10.0,Nice apartment near the Santa Fe Foundation.,27378568.08,27448857.43,49.73,151262.8,364,12,Bogotá,cop,Low,4.69457,-74.04047,141029
abnb_53026225,53026225,10993184ha,entire_place,2,2.0,4.0,4.0,4.0,APTO PARA ESTRENAR DE DOS HAB CON BALCÓN,27345395.34,27345395.34,41.1,303837.73,219,12,Bogotá,cop,Low,4.69285,-74.05155,141029
abnb_1020417573461752337,1020417573461752337,,entire_place,2,1.0,4.0,5.0,27.0,Complete apartment AUTO NORT. Work area WiFi 900.,27330651.9,28417022.28,78.63,99024.1,351,12,Bogotá,cop,Low,4.748743684,-74.041979097,141029
abnb_1268186541900408379,1268186541900408379,,entire_place,2,2.0,5.0,4.6,5.0,Triple Balcony | Luxury Building | Terrace | Gym,27330651.9,27431312.74,27.39,317798.28,314,12,Bogotá,cop,Medium,4.6937,-74.0513,141029
abnb_20762526,20762526,,entire_place,2,2.0,4.0,4.9,23.0,Modern and safe penthouse in the north of Bogotá,27319594.32,34186720.09,80.97,136597.97,247,12,Bogotá,cop,Low,4.72212,-74.04204,141029
abnb_1386269555141895464,1386269555141895464,,entire_place,1,1.0,2.0,4.8,13.0,"Loft with Terrace, F. Santafe, Usaquen, Bogotá",27297479.16,30622272.31,72.26,137866.05,274,12,Bogotá,cop,High,4.69594533,-74.033028097,141029
abnb_1164828823764121796,1164828823764121796,,entire_place,1,1.0,2.0,5.0,1.0,Beautiful apartment 1 block from Uni,27275364.0,27427626.88,44.63,168366.44,363,12,Bogotá,cop,Low,4.70083,-74.04266,141029
abnb_681258494469927351,681258494469927351,,entire_place,1,1.0,2.0,4.8,51.0,Private and equipped loft in Usaquen,27249562.98,27385423.78,87.6,85690.45,363,12,Bogotá,cop,Low,4.70053,-74.03294,141029
abnb_12592017,12592017,,entire_place,2,1.0,4.0,4.6,18.0,Accommodation kids And pets are Welcome,27242191.26,27632081.53,63.27,125540.05,343,12,Bogotá,cop,Low,4.73508,-74.04833,141029
abnb_1004629104540488999,1004629104540488999,,entire_place,2,2.5,5.0,4.6,13.0,Elegant apartment in the heart of Chicó,27238505.4,32151793.64,36.58,249894.54,298,12,Bogotá,cop,Low,4.68607,-74.04917,141029
abnb_817558675691914545,817558675691914545,,entire_place,2,1.0,2.0,5.0,10.0,"Usaquen Cozy Apartment, View and Fast WiFi",27227447.82,27707715.38,95.81,79380.32,358,12,Bogotá,cop,Medium,4.725456,-74.0257663,141029
abnb_765976909469897130,765976909469897130,,entire_place,1,1.0,2.0,4.9,194.0,Cozy and bright apartment,27153730.62,27464411.76,71.47,105247.02,361,12,Bogotá,cop,Medium,4.72,-74.0477,141029
abnb_1414161972262434112,1414161972262434112,,entire_place,1,1.0,2.0,,,Aparta Suite Bogotá,27146358.9,34395855.78,85.46,139929.68,227,12,Bogotá,cop,Low,4.689459023,-74.041953871,141029
abnb_1002753499495831109,1002753499495831109,,entire_place,4,2.0,6.0,4.8,34.0,cozy excellent place,27138987.18,27358517.0,38.12,196659.33,362,12,Bogotá,cop,High,4.7276,-74.0348,141029
abnb_1353581426023766417,1353581426023766417,,entire_place,1,1.0,3.0,4.8,37.0,A charming studio apartment,27120557.88,30148012.71,92.18,95832.36,307,12,Bogotá,cop,Low,4.696552086,-74.032678723,141029
abnb_46707388,46707388,,entire_place,1,1.0,3.0,4.9,93.0,Studio apartment very close to Unicentro,27109500.3,27109500.3,86.58,85789.56,365,12,Bogotá,cop,Low,4.69793,-74.04288,141029
abnb_583608598744508726,583608598744508726,,entire_place,1,1.0,1.0,4.8,51.0,Safe and quiet in Bogota.,27102128.58,28388641.15,91.64,88280.55,335,12,Bogotá,cop,Low,4.71522,-74.04604,141029
abnb_14783487,14783487,,entire_place,1,2.5,2.0,4.7,43.0,Cool Loft Flat Unique view,27076327.56,31912397.03,76.0,129551.81,275,12,Bogotá,cop,Low,4.72116,-74.04159,141029
abnb_23359342,23359342,,entire_place,4,2.0,9.0,4.9,97.0,Nomad workers-Usaquen House-500mb Fiber Internet,27024725.52,46107417.92,66.0,204732.77,200,12,Bogotá,cop,Low,4.70782,-74.03139,141029
abnb_1156676530542202672,1156676530542202672,,entire_place,2,2.0,6.0,4.6,20.0,"Very bright, 6 people, 5 minutes from Unicentro.",27021039.66,27389441.37,39.61,221483.93,308,12,Bogotá,cop,Low,4.69596,-74.0404,141029
abnb_1022756119454476560,1022756119454476560,11033720ha,entire_place,2,2.5,4.0,5.0,1.0,Charming apt in Santa Barbara,26998924.5,34550772.48,40.5,333320.06,200,12,Bogotá,cop,High,4.68794,-74.05541,141029
abnb_1196558383190553581,1196558383190553581,,entire_place,2,1.0,4.0,4.9,14.0,Cozy 2 BR Apt in Usaquen,26980495.2,28034282.57,56.57,190003.49,251,12,Bogotá,cop,Medium,4.6873478,-74.0478731,141029
abnb_755223034721888001,755223034721888001,,entire_place,3,2.5,6.0,5.0,8.0,Family-friendly and cozy apartment with 3 bedrooms in Cedritos,26965751.76,28230554.62,80.0,129643.04,260,12,Bogotá,cop,Medium,4.7249,-74.0325,141029
abnb_1284204433338790665,1284204433338790665,,entire_place,1,1.0,2.0,4.6,14.0,"Luxurious Loft Panoramic View, Usaquen",26958380.04,32398746.26,70.08,145720.97,264,12,Bogotá,cop,Medium,4.697031079,-74.032236765,141029
abnb_782597587012648819,782597587012648819,,entire_place,1,1.0,2.0,4.8,5.0,Luxury apartment in Cedritos with incredible views,26917835.58,39452708.27,93.42,126374.82,228,12,Bogotá,cop,Low,4.71807,-74.03643,141029
abnb_976202353040055267,976202353040055267,11772519ha,entire_place,1,1.0,2.0,5.0,63.0,Beautiful LOFT in the north of Bogotá - King size bed.,26888348.7,26888348.7,71.3,113933.68,331,12,Bogotá,cop,Medium,4.72,-74.04769,141029
abnb_1074972435915753584,1074972435915753584,,entire_place,1,1.0,2.0,4.9,160.0,Modern loft in Cedritos  with great view and park,26869919.4,26869919.4,72.05,102167.0,365,12,Bogotá,cop,Low,4.72037,-74.04811,141029
abnb_1079765468363895285,1079765468363895285,,entire_place,2,2.0,4.0,,,"Entire central accommodation, near the Unicentro Shopping Center",26869919.4,27292761.26,58.3,206691.69,223,12,Bogotá,cop,Medium,4.705530508,-74.048043364,141029
abnb_971771901913157558,971771901913157558,,entire_place,1,1.5,3.0,4.8,5.0,Cozy apartment in a safe and quiet area,26855175.96,29286148.06,79.14,104089.83,326,12,Bogotá,cop,Medium,4.7023,-74.0323,141029
abnb_1005325491638746289,1005325491638746289,,entire_place,2,2.0,6.0,4.7,37.0,Comfy and spacious apartment in Usaquén Caffe,26847804.24,27116835.16,50.0,151682.51,354,12,Bogotá,cop,Medium,4.6961,-74.0283,141029
abnb_749126852166585010,749126852166585010,,entire_place,1,1.0,3.0,4.9,26.0,"3 blocks to the Fundación Santafé, Usaquén, new",26829374.94,27047319.84,71.83,105213.23,355,12,Bogotá,cop,Medium,4.6985,-74.0312,141029
abnb_664375035463901225,664375035463901225,,entire_place,2,2.0,4.0,4.5,43.0,"Z203 Apartment North 134, Free Wifi and Parking",26810945.64,27231797.13,71.39,104322.74,360,12,Bogotá,cop,Low,4.72031,-74.04715,141029
abnb_18468478,18468478,,entire_place,1,1.0,2.0,4.8,138.0,Modern Chic Apartment Bogota Usaquen 5/117 city vip,26807259.78,27400314.65,71.71,104715.86,357,12,Bogotá,cop,Low,4.6941,-74.0307,141029
abnb_633231546136466570,633231546136466570,,entire_place,1,1.0,3.0,4.8,50.0,Loft with sofa bed in Usaquén,26796202.2,26796202.2,63.84,115005.16,365,12,Bogotá,cop,High,4.701,-74.0327,141029
abnb_5254577,5254577,,entire_place,1,1.0,2.0,4.8,116.0,Apartamento en el Norte de Bogota,26792516.34,28230960.06,63.87,121233.11,346,12,Bogotá,cop,Low,4.71762,-74.03304,141029
abnb_26321030,26321030,,entire_place,2,2.0,6.0,4.7,12.0,Suitable for large families close to La Cardio,26781458.76,27267144.53,61.36,128757.02,339,12,Bogotá,cop,Low,4.73336,-74.0485,141029
abnb_1011701486717756314,1011701486717756314,,entire_place,2,2.0,4.0,5.0,3.0,Family Apartment near Reina Sofia Clinic,26740914.3,27413436.32,32.1,236645.26,352,12,Bogotá,cop,Low,4.70639,-74.04711,141029
abnb_1338064319234931536,1338064319234931536,,entire_place,1,1.0,2.0,4.8,26.0,Fascinating Loft in the Country,26737228.44,28542120.36,80.43,103232.55,322,12,Bogotá,cop,Low,4.71356,-74.03689,141029
abnb_43592938,43592938,,entire_place,2,2.0,5.0,4.6,20.0,Close to the Santa Fe Foundation Hospital,26733542.58,33690971.92,86.91,111855.83,275,12,Bogotá,cop,Low,4.69745,-74.03667,141029
abnb_685770037612011351,685770037612011351,,entire_place,1,1.0,2.0,4.7,36.0,Beautiful Studio Apartment,26700369.84,26700369.84,79.45,92070.24,365,12,Bogotá,cop,Low,4.69931,-74.04523,141029
abnb_1379935196731667153,1379935196731667153,,entire_place,2,2.5,5.0,4.8,18.0,A stylish apartment in an ideal location,26700369.84,39198863.09,48.18,251890.27,220,12,Bogotá,cop,Low,4.686159769,-74.048657886,141029
abnb_1246454775054297488,1246454775054297488,,entire_place,1,1.0,4.0,4.9,32.0,Country Loft Getaway,26696683.98,28065243.8,75.14,102679.56,346,12,Bogotá,cop,Low,4.71384,-74.03797,141029
abnb_893518488243256618,893518488243256618,,entire_place,1,1.0,3.0,4.5,40.0,"Luxury loft, country - illuminated",26648767.8,28712112.23,73.51,107889.75,336,12,Bogotá,cop,Medium,4.7145,-74.0372,141029
abnb_1374006178111600838,1374006178111600838,,entire_place,1,1.0,3.0,5.0,6.0,Smart Suite near Santa Fe Foundation,26645081.94,32292188.05,70.33,138776.47,273,12,Bogotá,cop,High,4.6971,-74.0328,141029
abnb_1278422352189914005,1278422352189914005,,entire_place,1,1.0,3.0,4.8,29.0,Cozy suite with pool,26641396.08,26749870.94,59.27,181233.98,248,12,Bogotá,cop,Medium,4.6858426,-74.0472027,141029
abnb_37088419,37088419,7923546ha,entire_place,1,1.0,2.0,4.7,10.0,Wonderful apartment nr Unicentro & green parks,26586108.18,26586108.18,74.84,113132.38,314,12,Bogotá,cop,Medium,4.7008,-74.0391,141029
abnb_922583429598849383,922583429598849383,,entire_place,1,1.0,3.0,4.5,12.0,Beautiful apartment near Unicentro.,26560307.16,26723590.76,50.14,145935.76,363,12,Bogotá,cop,Low,4.69507,-74.04078,141029
abnb_1079286542075504046,1079286542075504046,,entire_place,1,1.0,2.0,4.8,24.0,Sunny Loft Usaquen,26534506.14,26684704.94,90.86,80897.89,361,12,Bogotá,cop,Medium,4.7006,-74.0296,141029
abnb_743369683470490384,743369683470490384,,entire_place,1,1.0,2.0,4.9,165.0,Apartment with terrace,26523448.56,27436030.64,73.22,103204.08,351,12,Bogotá,cop,Medium,4.7199921,-74.0476951,141029
abnb_6102899,6102899,,entire_place,1,1.0,2.0,4.7,154.0,Bogota 116/5 Usaquen Modern Urban Secret Loft,26512390.98,27250853.03,73.52,101580.04,355,12,Bogotá,cop,Low,4.69403,-74.02919,141029
abnb_551546810000323623,551546810000323623,,entire_place,2,2.0,4.0,4.5,47.0,"L301 Apartment North 134, Wi-Fi and free parking",26501333.4,26741872.62,70.17,104335.96,362,12,Bogotá,cop,Low,4.71955,-74.04859,141029
abnb_1435487176755459130,1435487176755459130,,entire_place,2,2.0,4.0,4.9,29.0,Modern apartment next to La Cardio with a fabulous view,26468160.66,38547645.34,88.67,147045.34,203,12,Bogotá,cop,Medium,4.7412,-74.0356,141029
abnb_1193134470515776811,1193134470515776811,,entire_place,1,1.0,3.0,4.2,10.0,"A/* Loft half a block from Unicentro, fast wifi.",26453417.22,26949497.12,59.76,130957.5,338,12,Bogotá,cop,Medium,4.6996671,-74.0413813,141029
abnb_14707671,14707671,,entire_place,1,1.0,2.0,4.6,22.0,"Unicentro Bogotá, comfortable apto, 1 bedroom.",26398129.32,26398129.32,88.6,87122.54,342,12,Bogotá,cop,Medium,4.7012,-74.0335,141029
abnb_1182151866312902769,1182151866312902769,,entire_place,2,1.0,4.0,4.8,9.0,Beautiful 2 BR Apt in Usaquen,26313354.54,27836941.63,58.3,182731.63,247,12,Bogotá,cop,Medium,4.6873478,-74.0478731,141029
abnb_13314457,13314457,,entire_place,2,3.0,4.0,4.7,41.0,Fabulous 2 bedroom flat 90m2 (965sqf) in Chico,26243323.2,33100312.85,92.92,124968.21,226,12,Bogotá,cop,Low,4.68657,-74.046,141029
abnb_1381258396369077826,1381258396369077826,,entire_place,1,1.5,3.0,,,Fantastic north apartment.,26235951.48,31662680.02,63.12,147392.99,282,12,Bogotá,cop,Low,4.695955872,-74.041823445,141029
abnb_1286503285531838013,1286503285531838013,,entire_place,2,1.0,4.0,5.0,1.0,2 bedrooms near Unicentro,26202778.74,26276237.93,36.86,242618.31,293,12,Bogotá,cop,Low,4.698711168,-74.041777038,141029
abnb_1131142242724773632,1131142242724773632,,entire_place,2,1.0,4.0,4.6,9.0,Fabulous 2 BR Apt in Usaquen,26188035.3,27178647.03,61.32,175758.62,243,12,Bogotá,cop,Medium,4.6873554,-74.0478706,141029
abnb_36024865,36024865,,entire_place,2,2.0,4.0,5.0,14.0,Comfortable Apartment with Great View of Bogotá,26118003.96,41689804.14,84.32,167423.1,185,12,Bogotá,cop,Low,4.72305,-74.04061,141029
abnb_1238704233134708881,1238704233134708881,,entire_place,2,2.0,4.0,5.0,4.0,apartment bogota north,26099574.66,46006314.78,74.46,190507.84,184,12,Bogotá,cop,Low,4.733730079,-74.025983855,141029
abnb_38696107,38696107,,entire_place,1,1.0,3.0,4.5,78.0,***BOGOTÁ SUITE IN THE BEST LOCATION,26084831.22,26084831.22,66.56,126013.67,311,12,Bogotá,cop,Medium,4.6963,-74.045,141029
abnb_778125987393320437,778125987393320437,,entire_place,1,1.0,2.0,4.9,100.0,"Studio in Santa Fe clinic, unicenter",26081145.36,27483357.08,70.89,106020.91,347,12,Bogotá,cop,Medium,4.7005,-74.0296,141029
abnb_818856297659330990,818856297659330990,,entire_place,1,1.0,2.0,4.8,44.0,.1 cozy studio wifi parking,26073773.64,26073773.64,60.27,118517.15,365,12,Bogotá,cop,Low,4.68758,-74.05436,141029
abnb_612929636357900163,612929636357900163,,entire_place,1,1.0,2.0,4.9,93.0,Beautiful apartment (Los Cedros),26062716.06,26062716.06,85.48,83534.35,365,12,Bogotá,cop,Medium,4.72,-74.0477,141029
abnb_957397919936822600,957397919936822600,,entire_place,1,2.0,2.0,5.0,6.0,Beautiful Apartment Estilo Boho Usaquen 2,26062716.06,31832008.43,82.04,111857.15,284,12,Bogotá,cop,Low,4.72078,-74.04876,141029
abnb_1127628860179713303,1127628860179713303,,entire_place,2,1.0,4.0,4.7,3.0,Modern 2 BR Apt in Usaquen,26062716.06,26950013.14,58.1,177297.39,253,12,Bogotá,cop,Medium,4.68736,-74.04787,141029
abnb_46988214,46988214,,entire_place,1,1.0,2.0,4.7,30.0,"Cozy studio apartment, exclusive north sector",26022171.6,32360118.45,84.25,113139.88,273,12,Bogotá,cop,Low,4.68991,-74.04377,141029
abnb_877022603651706531,877022603651706531,11772520ha,entire_place,1,1.0,2.0,5.0,93.0,LOFT in exclusive area High-speed Internet,26003742.3,26077459.5,66.48,107453.48,364,12,Bogotá,cop,Medium,4.72,-74.0477,141029
abnb_33518698,33518698,,entire_place,1,1.0,3.0,4.7,186.0,.4 Studio near 93 park/high speed/security 24/7,25996370.58,25996370.58,58.36,122048.68,365,12,Bogotá,cop,Low,4.68758,-74.05252,141029
abnb_993553067402404969,993553067402404969,,entire_place,2,2.5,2.0,5.0,1.0,Luxury apartment in Bogotá,25977941.28,48673845.38,97.67,206174.14,129,12,Bogotá,cop,Medium,4.6925,-74.0433,141029
abnb_1166765904238896299,1166765904238896299,,entire_place,1,1.0,2.0,5.0,23.0,"Nice, functional and comfortable.",25977941.28,26305356.22,75.21,96214.6,359,12,Bogotá,cop,Medium,4.6902,-74.0319,141029
abnb_40118616,40118616,,entire_place,2,2.5,5.0,4.6,74.0,Luxury Apartment in Chico: Style and Comfort,25977941.28,30803653.48,36.24,249787.89,287,12,Bogotá,cop,Low,4.68602,-74.04917,141029
abnb_1256182507985207267,1256182507985207267,,entire_place,1,1.0,2.0,5.0,18.0,"Live North: Modern, Safe, Eats Nearby, Walk to All",25970569.56,26286116.03,67.97,106436.76,359,12,Bogotá,cop,High,4.698780506,-74.045079947,141029
abnb_1305189557209042283,1305189557209042283,,entire_place,1,2.0,2.0,5.0,17.0,Casa Regis independent mini apartment,25926339.24,26004221.46,73.46,114212.95,309,12,Bogotá,cop,Medium,4.699,-74.039,141029
abnb_49794715,49794715,,entire_place,1,2.5,2.0,4.8,31.0,Modern apt in Usaquén – panoramic views,25922653.38,28004979.99,86.85,91276.95,327,12,Bogotá,cop,Low,4.69728,-74.03297,141029
abnb_568573429545295560,568573429545295560,,entire_place,1,1.5,2.0,4.7,44.0,"C302 Apartment North 134, Free Wifi and Parking",25922653.38,25991800.11,80.33,89388.46,361,12,Bogotá,cop,Low,4.71966,-74.04909,141029
abnb_705364965264613372,705364965264613372,,entire_place,2,2.0,4.0,4.5,36.0,"L402 Apartment North 134, Free Wifi and Parking",25871051.34,26359390.93,69.3,105166.87,355,12,Bogotá,cop,Low,4.72048,-74.04914,141029
abnb_1132011719096527690,1132011719096527690,,entire_place,3,3.0,6.0,4.2,12.0,Spectacular Apartment 3 People/Smart TV/Wi-Fi/Parking,25848936.18,26694730.47,24.0,307725.45,350,12,Bogotá,cop,Low,4.68753,-74.05428,141029
abnb_1489384750445748728,1489384750445748728,,entire_place,3,2.0,10.0,4.7,3.0,3 Rooms  Best Location - King Size bed,25823135.16,56821291.48,76.61,271822.48,124,12,Bogotá,cop,Low,4.6854,-74.04844,141029
abnb_1404659264627141833,1404659264627141833,,entire_place,3,3.0,6.0,5.0,2.0,Cozy and Exclusive Apartment | Balcony | Gym | KP,25812077.58,33266508.28,31.02,339632.61,245,12,Bogotá,cop,Medium,4.6872,-74.0546,141029
abnb_1321300556663726670,1321300556663726670,,entire_place,1,1.0,4.0,5.0,9.0,"Loft, Queen Bed, On‑Site Coworking",25771533.12,27053917.53,70.78,109666.1,332,12,Bogotá,cop,High,4.73103,-74.02204,141029
abnb_1363984234911574213,1363984234911574213,,entire_place,2,2.0,4.0,4.0,8.0,"Z501 Apartment North 134, Free Wifi and Parking",25764161.4,27323906.78,79.67,106025.36,305,12,Bogotá,cop,Medium,4.7198,-74.0482,141029
abnb_1556581025673581016,1556581025673581016,,entire_place,6,5.0,12.0,,,Penthouse+Extra Apt/12 guests/90feetUnicentro Mall,25764161.4,75796946.5,78.05,805130.04,41,12,Bogotá,cop,Medium,4.6996,-74.0421,141029
abnb_595598781792352983,595598781792352983,,entire_place,2,3.0,5.0,4.2,33.0,Spectacular apartment with a good view,25760475.54,25941266.97,27.43,268338.3,350,12,Bogotá,cop,High,4.6872,-74.0546,141029
abnb_1235758076280692897,1235758076280692897,,entire_place,1,1.0,3.0,4.9,69.0,Apartment 206 Unicentro Bogotá,25690444.2,25690444.2,58.63,120048.81,365,12,Bogotá,cop,Medium,4.6997522,-74.0419583,141029
abnb_1196551144846354128,1196551144846354128,,entire_place,2,1.0,4.0,4.7,14.0,Cozy 2 BR Apt in Usaquen,25683072.48,28480935.09,59.92,180866.71,237,12,Bogotá,cop,Medium,4.6873478,-74.0478731,141029
abnb_16349207,16349207,,entire_place,2,2.0,4.0,4.7,200.0,Nice and cozy apartment,25679386.62,26693292.99,89.94,87048.77,328,12,Bogotá,cop,High,4.72729,-74.0358,141029
abnb_1067392867155602154,1067392867155602154,,entire_place,2,2.5,4.0,4.9,9.0,Lindo Apartamento Norte Bogotá.,25672014.9,46747356.94,77.87,270231.74,122,12,Bogotá,cop,Low,4.68753,-74.04661,141029
abnb_1197495758629621639,1197495758629621639,,entire_place,1,1.0,3.0,4.0,1.0,Stylish Loft in Usaquen,25653585.6,28333095.24,77.92,137184.94,240,12,Bogotá,cop,Medium,4.6873478,-74.0478731,141029
abnb_977404602756315045,977404602756315045,,entire_place,1,1.0,2.0,4.9,63.0,"ApartaStudio, Santa Barbara, Usaquén, Bogotá",25638842.16,26647993.77,81.71,92559.0,339,12,Bogotá,cop,Medium,4.7005,-74.0296,141029
abnb_1361891214817653359,1361891214817653359,,entire_place,1,1.0,3.0,4.9,19.0,Apartment in Bogotá,25638842.16,27767831.75,65.15,128194.21,307,12,Bogotá,cop,High,4.7316,-74.0225,141029
abnb_1164834449690674510,1164834449690674510,,entire_place,1,1.0,2.0,,,Beautiful apartment 1 block from Uni.,25616727.0,25824720.08,44.75,158127.94,362,12,Bogotá,cop,Low,4.69862,-74.04299,141029
abnb_1398633495100065729,1398633495100065729,,entire_place,1,1.0,2.0,4.5,2.0,Beautiful apartment on 116th,25613041.14,31654829.13,73.82,148913.02,233,12,Bogotá,cop,Low,4.699175964,-74.046879217,141029
abnb_745816020473008876,745816020473008876,,entire_place,1,1.0,2.0,4.8,60.0,Minimalist loft with high-speed Wi-Fi,25609355.28,25715876.63,84.62,83147.26,364,12,Bogotá,cop,Medium,4.7279,-74.0328,141029
abnb_768700303310172365,768700303310172365,,entire_place,1,1.0,2.0,4.4,20.0,Loft in Usaquén/Clinica Santa Fe,25609355.28,25609355.28,79.55,90173.78,357,12,Bogotá,cop,Medium,4.701,-74.0327,141029
abnb_1393051149495514542,1393051149495514542,11815599ha,entire_place,1,1.0,2.0,5.0,51.0,Luxury loft with private parking In Usaquen,25601983.56,25601983.56,84.27,113786.59,267,12,Bogotá,cop,High,4.6889,-74.0416,141029
abnb_1292782371033125544,1292782371033125544,,entire_place,1,1.0,2.0,4.7,16.0,Perfect Location Calle 116 Santa Barbara,25590925.98,25639689.91,80.22,87640.16,364,12,Bogotá,cop,Medium,4.6981,-74.0462,141029
abnb_1278957924346315793,1278957924346315793,,entire_place,1,1.0,4.0,4.8,137.0,w* | Glorious Loft w/ Great balcony in Unicentro,25543009.8,25876948.72,41.09,178622.45,348,12,Bogotá,cop,Medium,4.702,-74.0437,141029
abnb_31880618,31880618,,entire_place,1,1.0,2.0,5.0,17.0,"Cozy, pet friendly",25524580.5,26967041.81,89.5,83141.96,343,12,Bogotá,cop,Medium,4.7153,-74.0372,141029
abnb_963288460635747404,963288460635747404,3797849,entire_place,1,1.0,3.0,4.8,32.0,Cosy and confortable loft located in Usaquen,25517208.78,25517208.78,62.47,111917.58,365,12,Bogotá,cop,High,4.701,-74.0327,141029
abnb_871876611909735686,871876611909735686,,entire_place,1,1.0,2.0,4.8,23.0,4Loft minimalist fast wifi,25506151.2,25538623.63,92.03,76137.77,364,12,Bogotá,cop,Medium,4.728,-74.0328,141029
abnb_1461666071483821509,1461666071483821509,,entire_place,2,2.0,5.0,4.8,5.0,North Point - New 2 Bedroom Apartment,25472978.46,47963469.58,80.49,192977.11,164,12,Bogotá,cop,Low,4.730863789,-74.023553993,141029
abnb_1182175081295458600,1182175081295458600,,entire_place,2,1.0,4.0,5.0,3.0,Spectacular 2 BR in Usaquen,25472978.46,26895720.42,54.96,191526.15,242,12,Bogotá,cop,Medium,4.6873478,-74.0478731,141029
abnb_1051594050254248643,1051594050254248643,,entire_place,1,1.0,2.0,4.7,36.0,Studio apartment near Unicentro Shopping Center,25458235.02,25726491.91,45.4,156185.49,359,12,Bogotá,cop,Low,4.7006,-74.03237,141029
abnb_1004434288371590780,1004434288371590780,11428828ha,entire_place,1,1.0,2.0,4.8,58.0,Usaquen Apartment,25454549.16,25454549.16,73.56,99431.83,348,12,Bogotá,cop,Medium,4.7005,-74.0296,141029
abnb_1391400201384062961,1391400201384062961,11749009ha,entire_place,1,1.0,3.0,4.9,20.0,"Brand New Apt, Free Wifi & Parking, Unicentro Mall",25454549.16,25454549.16,69.66,136852.41,267,12,Bogotá,cop,Medium,4.6997,-74.0414,141029
abnb_1369697771172268285,1369697771172268285,,entire_place,1,1.0,3.0,4.8,6.0,1 BR Cozy Design Studio Usaquén,25443491.58,30776414.98,72.24,125337.39,281,12,Bogotá,cop,Medium,4.6881,-74.0459,141029
abnb_1182139596960279063,1182139596960279063,,entire_place,2,1.0,4.0,4.8,16.0,Splendid 2 BR Apt in Usaquen,25432434.0,25967842.02,56.52,177849.18,253,12,Bogotá,cop,Medium,4.6873683,-74.0473589,141029
abnb_1299281423783150621,1299281423783150621,,entire_place,1,1.0,4.0,4.7,19.0,Valmont elegance loft,25425062.28,26265954.38,69.69,103353.91,353,12,Bogotá,cop,Low,4.715143795,-74.038403465,141029
abnb_931883407575436090,931883407575436090,3682098,entire_place,1,1.0,2.0,4.4,12.0,Beautiful new apt Unicentro 122,25417690.56,25417690.56,75.67,111972.21,300,12,Bogotá,cop,Medium,4.6998981,-74.0486705,141029
abnb_1197108219928159914,1197108219928159914,,entire_place,2,1.0,4.0,4.9,12.0,Elegant Loft in Usaquen,25384517.82,26281582.43,60.47,165911.89,253,12,Bogotá,cop,Medium,4.6873478,-74.0478731,141029
abnb_980509744965230439,980509744965230439,,entire_place,1,1.0,2.0,5.0,1.0,"Close to Unicentro. Wifi, Smart TV and Parking",25351345.08,25351345.08,53.07,146539.57,326,12,Bogotá,cop,Low,4.69481,-74.04242,141029
abnb_31516645,31516645,,entire_place,1,1.5,2.0,4.6,22.0,Prime location Loft Studio San Patricio Bogota,25340287.5,26306461.98,87.83,85609.07,337,12,Bogotá,cop,Medium,4.692,-74.0454,141029
abnb_865351982820153474,865351982820153474,11314174ha,entire_place,1,1.0,2.0,4.7,34.0,Enjoy a quiet stay in Usaquén,25336601.64,25336601.64,73.15,94893.63,365,12,Bogotá,cop,Low,4.70154,-74.03319,141029
abnb_1382803713071100016,1382803713071100016,,entire_place,1,1.0,2.0,4.5,4.0,"Close to Unicentro, high-speed Wi-Fi",25336601.64,28956374.17,63.3,149920.72,267,12,Bogotá,cop,Low,4.696551728,-74.041102268,141029
abnb_28583914,28583914,,entire_place,2,2.0,4.0,4.9,11.0,Elegant 2 Bedroom Apartment in Santa Barbara,25325544.06,37215944.13,100.0,136158.84,186,12,Bogotá,cop,Low,4.69749,-74.03455,141029
abnb_1143329213220176707,1143329213220176707,,entire_place,1,1.0,3.0,4.8,12.0,Comfortable and pleasant studio apartment,25314486.48,25386692.48,78.3,88822.76,364,12,Bogotá,cop,High,4.6972,-74.0322,141029
abnb_695726682713173276,695726682713173276,,entire_place,1,1.0,2.0,4.8,56.0,w* | Comfy Loft In Country,25310800.62,25429964.47,58.13,119956.41,363,12,Bogotá,cop,Medium,4.7145,-74.0371,141029
abnb_27599172,27599172,7353730ha,entire_place,1,1.0,2.0,4.6,31.0,RentaElite Charming 1 room in Unicentro,25299743.04,25373202.23,56.88,139009.58,320,12,Bogotá,cop,Medium,4.7052,-74.0491,141029
abnb_1418263826292718605,1418263826292718605,4369554,entire_place,1,1.0,3.0,5.0,2.0,"AH/Natural Panoramic Loft, Coworking+Gym, Usaquén",25296057.18,25296057.18,78.23,109982.86,294,12,Bogotá,cop,High,4.73039955,-74.023802825,141029
abnb_1389380920905843542,1389380920905843542,4512818,entire_place,1,1.0,2.0,5.0,14.0,w* | Magical Loft in Santa Barbara,25270256.16,26638299.96,84.11,116452.8,258,12,Bogotá,cop,Medium,4.6971,-74.0328,141029
abnb_736957525353619209,736957525353619209,,entire_place,1,1.0,2.0,4.7,93.0,Elegant and comfortable loft in Usaquén,25214968.26,26169384.85,84.62,84898.88,351,12,Bogotá,cop,Medium,4.701,-74.0327,141029
abnb_1227784775470030622,1227784775470030622,,entire_place,1,1.5,3.0,4.2,25.0,"Excellent location, economical, parking. 20% monthly",25207596.54,25942557.02,56.57,127311.1,350,12,Bogotá,cop,Low,4.70505,-74.04874,141029
abnb_42645355,42645355,3900034,entire_place,1,1.5,3.0,4.8,78.0,Luxury Apartment in Exclusive Area!,25155994.5,46682743.81,93.21,166596.0,162,12,Bogotá,cop,High,4.70042,-74.03155,141029
abnb_1104530646661248754,1104530646661248754,,entire_place,1,1.5,2.0,4.7,26.0,"C502 Apartment North 134, Free Wifi and Parking",25133879.34,25263216.17,76.58,90409.63,363,12,Bogotá,cop,Low,4.71863,-74.04852,141029
abnb_1196560194487581937,1196560194487581937,,entire_place,2,1.0,4.0,4.9,8.0,Cozy 2BR Apt in Usaquen,25133879.34,25598776.86,58.37,167559.2,257,12,Bogotá,cop,Medium,4.6873478,-74.0478731,141029
abnb_53385904,53385904,,entire_place,1,1.5,3.0,4.7,22.0,Usaquen Apartment,25115450.04,29936481.2,80.27,104647.71,299,12,Bogotá,cop,Low,4.70036,-74.03252,141029
abnb_1460256335097849667,1460256335097849667,,entire_place,1,1.0,2.0,4.7,13.0,Loft overlooking the mountains,25104392.46,35566669.21,94.83,152147.84,174,12,Bogotá,cop,Low,4.686635878,-74.046305312,141029
abnb_13865961,13865961,,entire_place,2,1.0,4.0,4.8,21.0,Apartment near CardioInfantil access Indoor garden,25100706.6,25475595.42,60.23,120099.08,347,12,Bogotá,cop,Low,4.73417,-74.04731,141029
abnb_1369102588405071530,1369102588405071530,,entire_place,1,1.0,4.0,4.8,28.0,Apartment Suite with Panoramic View,25100706.6,29510543.22,58.08,148524.88,291,12,Bogotá,cop,Medium,4.6968,-74.0323,141029
abnb_22103910,22103910,7933102ha,entire_place,1,1.0,2.0,4.8,247.0,@5 Cozy studio apartment/parking/wifi/security,25082277.3,25082277.3,46.3,148415.84,365,12,Bogotá,cop,Low,4.68658,-74.05272,141029
abnb_47770741,47770741,,entire_place,3,2.0,7.0,4.9,24.0,*ML Family Duplex Terrace Medical Area Unicentro,25071219.72,60475195.07,84.07,263907.58,113,12,Bogotá,cop,Medium,4.704318,-74.046631,141029
abnb_1021701747094981162,1021701747094981162,,entire_place,2,0.0,4.0,5.0,1.0,Unique Apartment Near Unicentro,25067533.86,38898907.8,46.81,284858.34,188,12,Bogotá,cop,Low,4.6882,-74.05564,141029
abnb_1206877150152258625,1206877150152258625,,private_room,1,1.0,4.0,4.4,18.0,Comfortable room with two beds and a private bathroom,25052790.42,25779125.99,65.72,107986.16,353,12,Bogotá,cop,Low,4.69765,-74.03144,141029
abnb_35248868,35248868,,entire_place,1,1.0,2.0,4.5,32.0,Duplex with a private terrace and the best location,25049104.56,32531768.95,87.59,107506.88,266,12,Bogotá,cop,Low,4.69297,-74.04938,141029
abnb_52282512,52282512,,entire_place,1,1.0,2.0,4.8,33.0,Comfortable Studio Apartment Two Blocks from Unicentro,25049104.56,28541567.49,85.99,94882.97,307,12,Bogotá,cop,Low,4.69842,-74.04236,141029
abnb_1223832550747920006,1223832550747920006,,entire_place,1,1.0,3.0,4.8,4.0,"New Loft, Free WiFi & Parking, Unicentro Mall",25049104.56,25089538.44,49.73,138392.85,364,12,Bogotá,cop,Medium,4.7,-74.0413,141029
abnb_1010913793694861891,1010913793694861891,,entire_place,2,2.5,5.0,4.6,15.0,Luxury Unicentro Apartment 2 bedrooms,25026989.4,25940750.95,36.73,231731.38,294,12,Bogotá,cop,High,4.68679,-74.05422,141029
abnb_1444962924915197182,1444962924915197182,,entire_place,1,1.0,3.0,4.7,22.0,The Luxx Loft + Pool,25023303.54,36034699.71,83.77,156395.65,191,12,Bogotá,cop,Medium,4.6858,-74.0472,141029
abnb_4366314,4366314,,entire_place,1,1.5,2.0,4.6,26.0,"Remodeled Penthouse Apartment, Santa Barbara 1 Bedroom 2 Bathrooms",25001188.38,28745211.25,90.48,119622.91,231,12,Bogotá,cop,Low,4.70351,-74.05296,141029
abnb_550998643729603203,550998643729603203,,entire_place,1,1.5,2.0,5.0,2.0,Spectacular apartment for your stay,24990130.8,28086400.63,100.0,104125.54,240,12,Bogotá,cop,Low,4.723342043,-74.030944203,141029
abnb_52404582,52404582,,entire_place,2,2.0,4.0,4.3,36.0,"Z304 North Apartment 134, Free Wifi and Parking",24964329.78,25391742.11,69.82,105781.06,338,12,Bogotá,cop,Low,4.72005,-74.04863,141029
abnb_40050917,40050917,,entire_place,1,1.5,3.0,4.7,77.0,Cozy Apartment in Chico: Close to Everything,24853753.98,27529319.75,40.98,185475.78,327,12,Bogotá,cop,Low,4.68603,-74.05017,141029
abnb_1285745334004164045,1285745334004164045,11771651ha,entire_place,1,1.0,2.0,5.0,19.0,LOFT north of Bogota near a beautiful park,24827952.96,24827952.96,67.67,100518.03,365,12,Bogotá,cop,High,4.719344046,-74.047279414,141029
abnb_21536980,21536980,,entire_place,4,3.5,8.0,4.4,8.0,SMALL APARTMENT - 4 FULL BEDROOMS,24802151.94,24846087.39,82.47,195292.54,154,12,Bogotá,cop,Low,4.68954,-74.04287,141029
abnb_956043013029226227,956043013029226227,,entire_place,0,1.0,2.0,4.6,32.0,Studio in the heart of Usaquen,24783722.64,25457313.55,78.19,89796.09,353,12,Bogotá,cop,Medium,4.6937,-74.0302,141029
abnb_1274717929557742208,1274717929557742208,,entire_place,1,1.0,2.0,4.6,5.0,Spectacular apartment-suite 9th floor Usaquen,24761607.48,25624098.72,76.2,92050.59,353,12,Bogotá,cop,Low,4.69785199,-74.032562919,141029
abnb_1208666688698007195,1208666688698007195,4116759,entire_place,1,1.0,2.0,4.7,23.0,w* | Prestigious Loft in the heart of Santa Barbar,24754235.76,25569695.43,60.46,117318.65,349,12,Bogotá,cop,Medium,4.7005,-74.0296,141029
abnb_1039720439525885058,1039720439525885058,,entire_place,1,1.0,2.0,5.0,41.0,Comfortable and with a beautiful view from the 24th floor,24735806.46,25379320.76,82.82,84135.39,355,12,Bogotá,cop,Medium,4.7464,-74.0233,141029
abnb_1379615706724185861,1379615706724185861,,entire_place,1,1.0,3.0,4.6,29.0,Modern loft in Usaquén with mountain views,24728434.74,29396318.42,69.49,130838.27,272,12,Bogotá,cop,Low,4.701652004,-74.03351306,141029
abnb_1182102905260260798,1182102905260260798,,entire_place,2,1.0,4.0,4.9,16.0,Phenomenal 2BR in Usaquen,24717377.16,26051584.76,52.63,190133.67,247,12,Bogotá,cop,Medium,4.6873478,-74.0478731,141029
abnb_39034949,39034949,,entire_place,4,3.5,9.0,4.9,32.0,"4BR+studio, location, private park, view!",24706319.58,32363878.02,72.15,216722.1,158,12,Bogotá,cop,Medium,4.709,-74.0336,141029
abnb_18462088,18462088,,entire_place,1,1.5,6.0,4.6,118.0,"2 Full Apartment, Cedritos Norte Bogotá",24658403.4,24658403.4,47.67,141714.97,365,12,Bogotá,cop,High,4.72323,-74.04152,141029
abnb_1182169131214587610,1182169131214587610,,entire_place,2,1.0,4.0,4.5,10.0,Welcoming 2BR Apt in Usaquen,24647345.82,25983396.35,53.63,185318.38,248,12,Bogotá,cop,Medium,4.6873478,-74.0478731,141029
abnb_1356854401188488654,1356854401188488654,,entire_place,1,1.0,2.0,4.8,54.0,"Modern Loft Usaquén, coworking",24639974.1,31287680.62,72.12,127010.18,269,12,Bogotá,cop,Medium,4.6971,-74.0328,141029
abnb_1206853477151069258,1206853477151069258,,entire_place,1,1.0,3.0,4.7,27.0,"Unicentro Loft, Free Parking, WiFi and SmartTV",24632602.38,25015526.38,54.44,125676.55,360,12,Bogotá,cop,Medium,4.699709607,-74.042149521,141029
abnb_1274728365310981842,1274728365310981842,,entire_place,1,1.0,2.0,5.0,2.0,Beautiful Aparta Suite 12th floor Usaquén,24603115.5,25366051.66,73.19,101247.39,332,12,Bogotá,cop,Low,4.697622809,-74.032372097,141029
abnb_1305847382829188279,1305847382829188279,,entire_place,0,1.0,2.0,4.8,19.0,Maria´s Luxury Home 514,24595743.78,24595743.78,67.95,99176.39,365,12,Bogotá,cop,Low,4.715319966,-74.038261227,141029
abnb_1922561,1922561,,entire_place,1,1.0,2.0,4.3,17.0,Beautiful independent apartment in Santa Barbara,24569942.76,24569942.76,73.46,108237.63,309,12,Bogotá,cop,Medium,4.6995,-74.0396,141029
abnb_1339979831187543108,1339979831187543108,4736234,entire_place,1,1.0,2.0,5.0,28.0,Turkish Bath | 400MB | Pool | Park93| Coworking,24569942.76,24876053.43,43.5,170624.61,331,12,Bogotá,cop,Medium,4.6858,-74.0472,141029
abnb_1057264576025127144,1057264576025127144,,entire_place,2,2.0,4.0,4.6,5.0,Perfect Getaway La Carolina - Spacious & Peaceful,24562571.04,24562571.04,51.48,282328.4,169,12,Bogotá,cop,High,4.705819429,-74.041412015,141029
abnb_15740454,15740454,,entire_place,1,1.5,2.0,4.8,27.0,"Bright, best place north of Bogota near main Mall",24547827.6,25841490.74,83.9,100195.22,292,12,Bogotá,cop,Low,4.700243117,-74.045687652,141029
abnb_45349384,45349384,,entire_place,2,2.0,4.0,4.9,14.0,exclusive apartment in usaquen. excellent view,24536770.02,31807792.32,99.62,94010.61,262,12,Bogotá,cop,Low,4.72636,-74.03781,141029
abnb_52608644,52608644,,entire_place,2,2.0,3.0,4.9,15.0,Sensational new apartment with a large balcony and fireplace.,24536770.02,27306509.52,77.19,99339.15,320,12,Bogotá,cop,Low,4.69747,-74.04945,141029
abnb_20994666,20994666,,entire_place,1,1.0,2.0,4.9,79.0,Bright and Cozy Fourth Floor,24533084.16,25373460.24,86.89,80436.34,351,12,Bogotá,cop,Medium,4.7242,-74.0416,141029
abnb_48729579,48729579,2667910,private_room,2,1.5,3.0,4.6,9.0,"Duplex by mountains, 2 rooms, close to nightlife",24507283.14,24507283.14,76.52,129668.16,247,12,Bogotá,cop,Low,4.71248,-74.02622,141029
abnb_1039720431281779394,1039720431281779394,,entire_place,1,1.0,2.0,4.9,40.0,Nice and with a great view from the 23rd floor,24488853.84,24849515.24,81.16,83579.71,361,12,Bogotá,cop,Medium,4.7467,-74.0234,141029
abnb_1223319804854519556,1223319804854519556,3234730,entire_place,1,1.0,2.0,4.4,19.0,"Cozy loft with view, pool, gym, and coworking""",24463052.82,24463052.82,55.77,120507.64,364,12,Bogotá,cop,Low,4.68473,-74.0475,141029
abnb_684644224475194806,684644224475194806,,entire_place,2,2.0,4.0,4.1,33.0,"L502 Apartment North 134, Free Wifi and Parking",24451995.24,25520452.34,66.01,104944.19,353,12,Bogotá,cop,Low,4.71945,-74.04738,141029
abnb_1258220629506279025,1258220629506279025,,entire_place,1,1.5,4.0,4.5,17.0,"Come close to everything away from the noise in Bella Suiza,",24448309.38,24993779.8,64.89,105836.83,356,12,Bogotá,cop,Medium,4.7039,-74.0316,141029
abnb_1096716389871251752,1096716389871251752,,entire_place,1,1.0,2.0,4.6,17.0,Cozy apartment north of Bogotá,24444623.52,24566809.78,92.56,72751.85,363,12,Bogotá,cop,Low,4.70348,-74.03031,141029
abnb_1166497783792032330,1166497783792032330,,entire_place,2,1.0,4.0,4.9,18.0,2-bedroom apartment,24415136.64,26371591.13,83.79,89106.34,327,12,Bogotá,cop,High,4.7669514,-74.0295669,141029
abnb_1411169701745185233,1411169701745185233,,entire_place,1,1.0,2.0,5.0,19.0,Luxury Studio Apartment in a Privileged Location,24393021.48,32515440.59,80.0,138596.71,220,12,Bogotá,cop,High,4.6889,-74.0416,141029
abnb_1079341042595924691,1079341042595924691,,entire_place,1,1.0,2.0,4.9,43.0,Peaceful Loft Usaquen,24393021.48,24923932.75,73.39,93103.14,357,12,Bogotá,cop,Medium,4.7006,-74.0296,141029
abnb_1430678554145642952,1430678554145642952,11926627ha,entire_place,1,1.0,3.0,4.9,27.0,Loft Bogotá Norte,24389335.62,24636693.68,59.16,215834.82,191,12,Bogotá,cop,Medium,4.6858,-74.0472,141029
abnb_1101691140958841574,1101691140958841574,,entire_place,2,2.0,5.0,4.5,15.0,Usaquén Cedritos atmosphere,24381963.9,29648799.83,59.09,187553.57,220,12,Bogotá,cop,Medium,4.7195,-74.0362,141029
abnb_1223039640206234431,1223039640206234431,,entire_place,1,1.0,3.0,4.7,24.0,"Modern Apartment, CC Unicentro, WiFi & Parking",24378278.04,24378278.04,50.41,132490.64,365,12,Bogotá,cop,Low,4.69911,-74.04138,141029
abnb_1197173945942563049,1197173945942563049,,entire_place,1,1.0,3.0,,,Amazing Loft in Usaquen,24378278.04,24784828.4,42.58,160383.4,357,12,Bogotá,cop,Medium,4.6873,-74.0479,141029
abnb_1203119832664898759,1203119832664898759,,entire_place,1,1.0,2.0,4.9,7.0,From 707,24352477.02,24386755.52,79.95,83685.49,364,12,Bogotá,cop,Medium,4.7,-74.0297,141029
abnb_1197100193903825429,1197100193903825429,,entire_place,1,1.0,2.0,5.0,19.0,Studio With Great View in Usaquen,24308246.7,26034040.07,83.24,85894.86,340,12,Bogotá,cop,Low,4.71699,-74.04291,141029
abnb_990010921638783552,990010921638783552,,entire_place,1,1.0,2.0,4.9,19.0,Nice studio with a private terrace,24164498.16,25085631.43,87.5,78456.17,352,12,Bogotá,cop,Medium,4.7179,-74.0436,141029
abnb_1491653892401453500,1491653892401453500,,entire_place,2,2.0,6.0,5.0,7.0,*ML Family Duplex Terrace @Unicentro comfortable,24160812.3,50569077.73,77.69,239215.96,130,12,Bogotá,cop,Medium,4.7046,-74.047,141029
abnb_1196561615202780902,1196561615202780902,,entire_place,2,1.0,4.0,5.0,1.0,Cozy 2 BR in Usaquen,24157126.44,25120573.39,51.39,187264.55,251,12,Bogotá,cop,Medium,4.6873478,-74.0478731,141029
abnb_840737625071171893,840737625071171893,,entire_place,1,1.0,2.0,5.0,23.0,Loft in Bogota (Contador/Usaquen/Cedritos),24142383.0,24302865.34,75.79,91796.13,347,12,Bogotá,cop,High,4.72112,-74.04823,141029
abnb_1263957010457737389,1263957010457737389,,entire_place,1,1.0,4.0,4.9,13.0,Spectacular location apt CC Unicentro Bogotá Co,24142383.0,24572080.56,54.9,123175.41,357,12,Bogotá,cop,Medium,4.7003,-74.0398,141029
abnb_1332220710401496736,1332220710401496736,,entire_place,0,1.0,2.0,4.7,11.0,Exclusive Loft in Chico Norte,24127639.56,24349933.78,61.38,113275.31,347,12,Bogotá,cop,Medium,4.6874,-74.046,141029
abnb_797603780353243773,797603780353243773,,entire_place,0,1.0,2.0,4.9,163.0,Berlin Suite Bogotá,24120267.84,24120267.84,59.18,111667.91,365,12,Bogotá,cop,Low,4.7211,-74.04789,141029
abnb_1358718990467153564,1358718990467153564,,entire_place,2,2.0,3.0,,,Renovated apartment 2 bedrooms 2 bathrooms 1 parking space,24105524.4,27323353.9,100.0,110575.8,218,12,Bogotá,cop,Low,4.696369954,-74.040800208,141029
abnb_662232039457182062,662232039457182062,,entire_place,2,3.0,3.0,,,Apartamento unicentro lumina sky,24101838.54,31807829.18,36.77,293924.87,223,12,Bogotá,cop,Low,4.68669,-74.05503,141029
abnb_1099353270818968183,1099353270818968183,,entire_place,1,1.0,2.0,5.0,13.0,Luxury Cozy loft/pool/gym/coworking Unique M,24094466.82,24648082.99,54.46,131663.75,336,12,Bogotá,cop,Medium,4.6858,-74.0472,141029
abnb_1375577863271717047,1375577863271717047,,entire_place,1,1.0,2.0,4.6,31.0,Fantastic Loft in the Country,24061294.08,27456597.74,75.17,111913.0,286,12,Bogotá,cop,Low,4.715406528,-74.037541801,141029
abnb_1393170566899731748,1393170566899731748,,entire_place,1,1.0,3.0,4.7,9.0,"New Apt, Free Wifi & Parking, Unicentro Mall",24061294.08,30611841.33,68.16,132204.92,267,12,Bogotá,cop,Medium,4.7,-74.0421,141029
abnb_1416980997053479799,1416980997053479799,,entire_place,1,1.0,2.0,,,"Brand New Loft near Unicentro, Wifi, Free Parking",24046550.64,31732637.64,71.18,147524.85,229,12,Bogotá,cop,Low,4.70053316,-74.041483183,141029
abnb_1116767979425340575,1116767979425340575,,entire_place,1,1.0,2.0,4.9,56.0,"Usaquén, Santa Fe clinic, unicenter",24046550.64,25134911.38,61.63,113427.12,344,12,Bogotá,cop,Medium,4.7005,-74.0296,141029
abnb_41455003,41455003,,entire_place,1,1.0,3.0,5.0,4.0,Excellent apartment very close to Unicentro,24042864.78,39733239.07,90.48,140601.55,189,12,Bogotá,cop,Low,4.69574,-74.04059,141029
abnb_1327222450530317679,1327222450530317679,,entire_place,1,1.0,2.0,4.6,20.0,Exceptional Loft in the Country,24031807.2,25404532.04,72.78,97690.27,338,12,Bogotá,cop,Low,4.71347,-74.03688,141029
abnb_979803437331792704,979803437331792704,,entire_place,1,1.0,2.0,5.0,27.0,Spectacular North Point Hills studio apartment,24009692.04,24744799.96,87.32,77450.62,355,12,Bogotá,cop,Medium,4.7296,-74.0231,141029
abnb_1459678697295334191,1459678697295334191,,entire_place,1,1.0,2.0,4.8,16.0,Loft near Parque de la 93 Terrace Jacuzzi,23976519.3,35846757.71,45.56,311383.37,169,12,Bogotá,cop,Low,4.6854,-74.04774,141029
abnb_1351517407952003597,1351517407952003597,,entire_place,1,1.0,2.0,4.8,6.0,Reina Sofia / Plus Express,23972833.44,26462631.87,45.79,176270.84,297,12,Bogotá,cop,Medium,4.7071,-74.0505,141029
abnb_1048568855317786806,1048568855317786806,,entire_place,1,1.0,2.0,5.0,24.0,Apartment 505 Unicentro sector,23965461.72,24204821.47,66.76,99441.75,361,12,Bogotá,cop,Low,4.69524,-74.03901,141029
abnb_1411924046646227825,1411924046646227825,,entire_place,4,3.0,6.0,5.0,1.0,Modern Apartment | 4 Rooms | Groups | North Bogotá,23939660.7,36979017.05,92.13,204612.48,127,12,Bogotá,cop,Medium,4.7269,-74.0329,141029
abnb_1100117054915688114,1100117054915688114,,private_room,1,1.0,4.0,4.5,45.0,3.1.3.4 Deluxe Room in Bogotá,23921231.4,23921231.4,76.16,86047.6,365,12,Bogotá,cop,Low,4.69562,-74.04088,141029
abnb_1458902412033731656,1458902412033731656,,entire_place,1,1.0,2.0,4.9,48.0,- Luxury apartment with private Jacuzzi and queen bed!-,23910173.82,35513408.53,72.51,192823.99,171,12,Bogotá,cop,High,4.7318,-74.0225,141029
abnb_1460247221250495770,1460247221250495770,,entire_place,1,1.0,2.0,4.7,26.0,"Loft overlooking the mountains, pool and Turkish bath",23895430.38,34597398.61,90.17,153175.84,173,12,Bogotá,cop,High,4.684413852,-74.04669953,141029
abnb_1279824889751612174,1279824889751612174,,entire_place,1,1.0,3.0,4.8,34.0,Very comfortable loft in Unicentro,23888058.66,23966825.49,47.53,138081.27,364,12,Bogotá,cop,Low,4.700709848,-74.04118361,141029
abnb_630630278914537353,630630278914537353,,entire_place,2,2.0,4.0,4.3,38.0,"L503 Apartment North 134, Wi-Fi and free parking",23840142.48,24046108.34,71.2,108364.28,309,12,Bogotá,cop,Medium,4.719950199,-74.048332214,141029
abnb_1375468128851008161,1375468128851008161,,entire_place,1,1.0,2.0,4.8,28.0,Marvelous Loft in the Country,23818027.32,26566573.12,80.49,103108.34,287,12,Bogotá,cop,Low,4.713519807,-74.035394114,141029
abnb_1224653609348568719,1224653609348568719,,entire_place,1,1.0,2.0,4.7,47.0,Apartamento Unicentro,23792226.3,25187398.03,88.95,77752.37,344,12,Bogotá,cop,Low,4.6972,-74.04361,141029
abnb_1182144153231475172,1182144153231475172,,entire_place,2,1.0,4.0,5.0,2.0,Charming 2BR in Usaquen,23766425.28,24385760.34,53.69,181423.1,244,12,Bogotá,cop,Medium,4.6873478,-74.0478731,141029
abnb_52050099,52050099,,entire_place,1,1.0,3.0,4.4,24.0,Nice apartment near the Santa Fe Foundation.,23762739.42,23952303.2,43.65,150397.09,362,12,Bogotá,cop,Low,4.6946,-74.0404,141029
abnb_1182721210809257733,1182721210809257733,,entire_place,1,1.0,2.0,4.6,11.0,"Beautiful, affordable and great Location studio !",23759053.56,24186465.89,78.96,86711.87,347,12,Bogotá,cop,Medium,4.7005,-74.0296,141029
abnb_1303675759904586075,1303675759904586075,,entire_place,2,2.0,5.0,,,Spectacular apartment near Unicentro,23707451.52,24078359.61,46.86,211673.67,239,12,Bogotá,cop,Low,4.696900025,-74.044634314,141029
abnb_1118698116004874538,1118698116004874538,,entire_place,1,1.0,2.0,4.9,26.0,"Modern cozy Loft, perfect for 1 or 2 people",23703765.66,23844196.93,83.2,78489.29,363,12,Bogotá,cop,Medium,4.7145,-74.0372,141029
abnb_1186095884933653668,1186095884933653668,,entire_place,2,1.0,2.0,5.0,1.0,Apt in Great Location: Usaquen: Clinica Santa Fe,23670592.92,23712021.99,81.79,83641.67,346,12,Bogotá,cop,Low,4.69398,-74.0306,141029
abnb_1239246455019522456,1239246455019522456,,entire_place,1,1.0,2.0,4.8,11.0,Studio apartment in Bogotá,23666907.06,23666907.06,69.25,94667.63,361,12,Bogotá,cop,Low,4.72095,-74.0465,141029
abnb_1314680526165021363,1314680526165021363,,entire_place,1,1.0,2.0,4.5,13.0,Free garage. Alcalá Autopista Norte Station,23659535.34,24182669.45,72.27,91703.63,357,12,Bogotá,cop,Medium,4.7232,-74.0491,141029
abnb_1394647930564080551,1394647930564080551,,entire_place,1,1.0,3.0,5.0,6.0,"Loft, Free SmartTV, WiFi & Parking - UnicentroMall",23648477.76,30134743.61,63.22,143324.11,261,12,Bogotá,cop,Medium,4.6997,-74.042,141029
abnb_6964971,6964971,,entire_place,2,1.0,2.0,5.0,132.0,Excellent location. Private parking.,23633734.32,24620439.04,86.17,88185.58,311,12,Bogotá,cop,Low,4.72038,-74.03446,141029
abnb_1039837793325892628,1039837793325892628,,entire_place,1,1.0,2.0,4.7,18.0,Modern Studio in Usaquén | Easy Check-in,23596875.72,24199292.68,58.19,114547.94,354,12,Bogotá,cop,Low,4.70125,-74.02877,141029
abnb_1308309958832138216,1308309958832138216,,entire_place,1,1.0,2.0,4.8,37.0,"Entire apartment in Bogotá, Santa Bárbara 116",23589504.0,24081271.44,76.4,86726.11,356,12,Bogotá,cop,Low,4.697460381,-74.045712602,141029
abnb_1197093410427010090,1197093410427010090,,entire_place,1,1.0,2.0,4.9,29.0,Luxury loft / Pool/coworking/UniqueM,23556331.26,24389925.36,50.87,134607.61,344,12,Bogotá,cop,Medium,4.6858,-74.0472,141029
abnb_3665947,3665947,,entire_place,1,2.0,3.0,5.0,40.0,Brand new fully equiped apartment,23545273.68,29983512.78,92.78,130807.07,194,12,Bogotá,cop,Low,4.68825,-74.04968,141029
abnb_866008991249242879,866008991249242879,,entire_place,2,1.0,4.0,4.9,15.0,Apartment in Bogotá,23493671.64,24130514.53,93.56,70340.33,357,12,Bogotá,cop,Low,4.75007,-74.02794,141029
abnb_1381256109227645251,1381256109227645251,,entire_place,1,1.0,3.0,4.9,16.0,"Modern Santa Barbara studio, near Unicentro.",23467870.62,27727213.58,66.9,123515.1,284,12,Bogotá,cop,Medium,4.698044,-74.0440003,141029
abnb_43511823,43511823,7923584ha,entire_place,1,1.5,2.0,4.8,43.0,Your trendy Usaquen Apartment,23419954.44,26034224.36,100.0,159319.42,147,12,Bogotá,cop,Low,4.70267,-74.03247,141029
abnb_33915105,33915105,,entire_place,2,2.0,5.0,4.7,52.0,Cozy apartment in Unicentro for 5 people,23412582.72,23661451.99,32.49,203587.68,354,12,Bogotá,cop,Low,4.69579,-74.04006,141029
abnb_781308303845410353,781308303845410353,,entire_place,1,1.0,2.0,4.9,26.0,6 Cozy loft with high-speed WiFi and balcony,23401525.14,23539818.61,79.77,83576.88,351,12,Bogotá,cop,Low,4.72759,-74.03202,141029
abnb_931849950066641400,931849950066641400,,entire_place,1,1.0,2.0,4.7,17.0,Beautiful new apt Unicentro 122* L,23397839.28,30654007.57,70.0,128559.55,260,12,Bogotá,cop,Medium,4.6998981,-74.0486705,141029
abnb_1041418260251271495,1041418260251271495,,entire_place,0,1.0,2.0,4.9,36.0,Beautiful apartment in the vibrant area of usaquen,23397839.28,23709220.73,56.51,114695.29,361,12,Bogotá,cop,Medium,4.6978,-74.0442,141029
abnb_52811824,52811824,,entire_place,1,1.5,2.0,4.9,15.0,Spectacular apartment near Unicentro,23390467.56,24140282.06,84.82,91013.5,303,12,Bogotá,cop,Low,4.69666,-74.04142,141029
abnb_1137725976501176097,1137725976501176097,,entire_place,1,1.0,2.0,4.8,33.0,Premium apartment in Bogotá,23386781.7,23386781.7,88.22,72629.76,365,12,Bogotá,cop,Medium,4.7144,-74.0372,141029
abnb_1399228964046091820,1399228964046091820,11884091ha,entire_place,1,1.0,2.0,4.7,32.0,Executive Loft in Chicó Norte – Modern & Central,23379409.98,24756705.29,88.95,138339.7,190,12,Bogotá,cop,High,4.6858,-74.0473,141029
abnb_1219733791543404827,1219733791543404827,,entire_place,1,1.0,3.0,4.3,13.0,"A/* Unicentro New and modern, everything at hand",23360980.68,23453532.62,50.56,129783.23,356,12,Bogotá,cop,Medium,4.699662826,-74.042156898,141029
abnb_1263317686525702072,1263317686525702072,,entire_place,1,1.0,2.0,4.7,10.0,Comfy loft in San Patricio | By CozyPlace®,23342551.38,32656903.89,90.34,108570.01,238,12,Bogotá,cop,Low,4.687106741,-74.045582953,141029
abnb_10562951,10562951,,entire_place,1,1.5,2.0,4.8,36.0,Beautiful loft apartment in Cedritos,23335179.66,23729087.52,81.3,124787.05,230,12,Bogotá,cop,Low,4.72131,-74.04109,141029
abnb_1384277953435066607,1384277953435066607,,entire_place,2,2.0,5.0,4.0,1.0,Apartment in Chico Navarra 2 Bedrooms with balcony,23331493.8,40185678.39,66.12,192822.26,183,12,Bogotá,cop,Medium,4.6932,-74.0552,141029
abnb_831605497258868649,831605497258868649,,entire_place,1,1.5,2.0,4.7,67.0,Modern Unicentro 1 Bedroom Apartment Top Location,23316750.36,23632001.97,59.58,136355.27,287,12,Bogotá,cop,Low,4.69847,-74.04298,141029
abnb_1105854656796743432,1105854656796743432,,entire_place,1,1.0,3.0,4.9,26.0,"Cozy Studio, Bogota",23287263.48,23318814.44,72.24,91322.6,353,12,Bogotá,cop,Medium,4.7321,-74.0224,141029
abnb_1297821141106867171,1297821141106867171,,entire_place,1,1.0,3.0,5.0,9.0,Comfort and style in VOU Bogotá suite,23279891.76,23307904.3,34.25,207856.18,327,12,Bogotá,cop,Medium,4.6891,-74.0416,141029
abnb_692824546433228026,692824546433228026,,entire_place,2,2.0,4.0,4.3,37.0,"Z202 Apartment North 134, Free Wifi and Parking",23257776.6,25843923.41,68.67,102007.79,332,12,Bogotá,cop,Low,4.72052,-74.04693,141029
abnb_1249624215480814016,1249624215480814016,,entire_place,1,1.0,4.0,4.5,13.0,"AH/Industrial Panoramic Loft, Wifi350Mb, Usaquén",23257776.6,23562265.49,65.76,107178.69,330,12,Bogotá,cop,Low,4.730837943,-74.02143684,141029
abnb_1197468766817641207,1197468766817641207,,entire_place,1,1.0,3.0,4.6,20.0,Stylish Loft in Usaquen,23243033.16,23430938.3,43.02,150928.78,358,12,Bogotá,cop,Medium,4.6873,-74.0479,141029
abnb_1353617552052531718,1353617552052531718,,entire_place,1,1.0,2.0,4.9,34.0,Rest in a cosy apartment,23239347.3,24860130.52,60.26,123613.55,312,12,Bogotá,cop,High,4.7245,-74.0472,141029
abnb_1182498175897816451,1182498175897816451,,entire_place,2,1.0,4.0,4.6,8.0,Cozy Loft in Usaquen,23235661.44,24475142.44,61.16,156997.71,242,12,Bogotá,cop,Medium,4.6873478,-74.0478731,141029
abnb_975672599763753493,975672599763753493,,entire_place,2,2.0,4.0,,,Terraverde: 3 bedrooms 2 bathrooms Calle 168 cra 8,23224603.86,23766425.28,83.64,129746.4,214,12,Bogotá,cop,Medium,4.7451,-74.027,141029
abnb_1242214455432461688,1242214455432461688,,entire_place,1,1.0,3.0,4.5,15.0,Studio apartment in an exclusive area to the north,23224603.86,23224603.86,67.12,94794.3,365,12,Bogotá,cop,High,4.7247,-74.0463,141029
abnb_45637255,45637255,,entire_place,1,1.5,3.0,4.9,32.0,Apartment in the heart of Usaquen.,23187745.26,23354419.85,70.55,106365.8,309,12,Bogotá,cop,Medium,4.6977,-74.0325,141029
abnb_1468153663294273721,1468153663294273721,,entire_place,1,1.0,3.0,4.6,11.0,The Luxx Skyline + pool Unique,23180373.54,39233989.34,85.19,167973.72,162,12,Bogotá,cop,Medium,4.6858,-74.0472,141029
abnb_1039878708653615960,1039878708653615960,,entire_place,1,1.0,3.0,3.5,2.0,"Unicentro Clinica Santa Fe, monthly with 30%",23176687.68,42881811.26,94.04,163216.11,151,12,Bogotá,cop,Low,4.69197,-74.0423,141029
abnb_1406611419823038713,1406611419823038713,,entire_place,1,1.0,2.0,4.8,9.0,Apartment near the unicenter,23173001.82,30491166.27,72.84,130920.92,243,12,Bogotá,cop,Low,4.70017752,-74.042866815,141029
abnb_1172032637412379859,1172032637412379859,,entire_place,2,2.0,8.0,4.3,7.0,"Comfortable apartment in northern Bogotá, fireplace and tub.",23165630.1,23350328.54,47.95,197996.84,244,12,Bogotá,cop,Low,4.687271547,-74.04525558,141029
abnb_1363965928481522448,1363965928481522448,,entire_place,2,2.0,4.0,4.4,9.0,"L303 North Apartment 134, Free Wifi and Parking",23125085.64,24609971.2,77.23,98825.15,303,12,Bogotá,cop,Medium,4.7198,-74.0484,141029
abnb_1222401014819220492,1222401014819220492,,entire_place,0,1.0,2.0,4.7,31.0,Nice studio apartment in Usaquen!,23117713.92,23495145.98,76.54,84371.22,358,12,Bogotá,cop,Medium,4.6937,-74.0302,141029
abnb_1384267120932739883,1384267120932739883,,entire_place,2,2.0,5.0,4.7,7.0,Apartment in Chico Navarra 2 Bedrooms with balcony,23102970.48,39991396.71,65.76,190933.63,184,12,Bogotá,cop,Medium,4.6932,-74.0552,141029
abnb_1297862470750354506,1297862470750354506,,entire_place,1,1.0,2.0,,,Comfort and style with city views,23102970.48,35149761.59,45.58,235744.59,215,12,Bogotá,cop,Medium,4.6891,-74.0416,141029
abnb_40509879,40509879,,entire_place,1,1.5,3.0,4.6,24.0,Style and Comfort in Chico: Exclusive Apartment,23091912.9,26316192.65,38.87,186225.1,319,12,Bogotá,cop,Low,4.6869,-74.04897,141029
abnb_17586518,17586518,4501156ha,entire_place,1,1.0,2.0,4.9,56.0,Long Stay by Unicentro a Professional Home Office,23088227.04,23302780.95,62.22,120880.76,307,12,Bogotá,cop,High,4.6977,-74.0422,141029
abnb_39626738,39626738,,entire_place,3,2.0,6.0,4.7,34.0,Semi Duplex Apartment with BBQ Terrace,23069797.74,36252570.9,87.21,153798.65,172,12,Bogotá,cop,Low,4.72086,-74.03392,141029
abnb_41376223,41376223,,entire_place,2,1.0,3.0,4.6,114.0,Cozy apartment in Cedritos for 3 people.,23069797.74,23593669.02,85.43,75638.68,357,12,Bogotá,cop,Low,4.72758,-74.04118,141029
abnb_1161585116490213465,1161585116490213465,,entire_place,1,1.0,2.0,,,Surroundings 118 AP 201,23069797.74,24862010.31,79.26,97340.92,299,12,Bogotá,cop,Low,4.698263788,-74.04479077,141029
abnb_1101491951675880543,1101491951675880543,,entire_place,1,1.0,3.0,5.0,4.0,Modern and Luxury Apartment,23051368.44,24055617.86,54.47,164652.64,257,12,Bogotá,cop,Medium,4.6873554,-74.0478706,141029
abnb_33614903,33614903,,entire_place,3,2.0,6.0,4.8,5.0,"Apartment in Santa Barbara, Usaquen, Unicentro Norte.",23029253.28,25364098.16,82.1,173152.28,162,12,Bogotá,cop,Low,4.69631,-74.04769,141029
abnb_2192333,2192333,,entire_place,1,1.0,2.0,4.6,40.0,Comfortable detached apartment - Unicentro,23025567.42,23025567.42,62.86,116290.74,315,12,Bogotá,cop,Low,4.69969,-74.03817,141029
abnb_1000776239441767108,1000776239441767108,,entire_place,3,3.0,7.0,3.3,3.0,"'Comfortable, luxurious, spacious apartment'",23014509.84,23014509.84,42.48,354069.39,153,12,Bogotá,cop,Low,4.691077271,-74.048911294,141029
abnb_53307258,53307258,,entire_place,3,2.0,4.0,4.9,24.0,"BEAUTIFUL COMPLEX WITH POOL, CLUB HOUSE",23010823.98,42119059.39,77.22,188613.31,158,12,Bogotá,cop,Low,4.70282,-74.02936,141029
abnb_1366048109381350998,1366048109381350998,4460141,entire_place,0,1.0,2.0,5.0,1.0,Spacious Studio with kitchen privileged location,22992394.68,22992394.68,82.89,148338.04,187,12,Bogotá,cop,High,4.697439426,-74.034150117,141029
abnb_1384283997718104295,1384283997718104295,,entire_place,2,2.0,5.0,3.5,2.0,Apartment in Chico Navarra 2 Bedrooms with balcony,22981337.1,39916131.45,65.03,193120.49,183,12,Bogotá,cop,High,4.6932,-74.0552,141029
abnb_1387291773872997968,1387291773872997968,,entire_place,1,1.0,2.0,4.6,27.0,Beautiful Loft Overlooking the Country Club,22959221.94,26629896.2,79.55,109329.63,264,12,Bogotá,cop,Low,4.714980224,-74.037203213,141029
abnb_1515953343419062541,1515953343419062541,,entire_place,1,1.0,3.0,5.0,17.0,Luxury design/private jacuzzi in exclusive area,22948164.36,44762189.6,91.75,257844.54,97,12,Bogotá,cop,Medium,4.689,-74.0417,141029
abnb_897976036625514680,897976036625514680,,entire_place,1,1.0,2.0,4.7,20.0,Beautiful Loft near the Santa Fe Clinic,22944478.5,24858029.58,75.3,91777.91,332,12,Bogotá,cop,Low,4.70166,-74.0317,141029
abnb_981472873342041778,981472873342041778,4369556,entire_place,1,1.0,3.0,4.8,14.0,"AH/Natural Loft, Coworking + Gym, Terrace, Usaquén",22929735.06,22929735.06,70.14,89569.28,365,12,Bogotá,cop,High,4.72901,-74.02207,141029
abnb_1467508350843583521,1467508350843583521,,entire_place,1,1.0,2.0,5.0,1.0,"Exclusive Loft, Pool & Turkish Bath",22926049.2,33678771.72,92.02,152840.33,163,12,Bogotá,cop,Low,4.684941742,-74.046054844,141029
