property_id,airbnb_property_id,vrbo_property_id,listing_type,bedrooms,bathrooms,accommodates,rating,reviews,title,revenue_ltm,revenue_potential_ltm,occupancy_rate_ltm,average_daily_rate_ltm,days_available_ltm,market_id,market_name,currency,address_match_confidence,lat,lng,section
abnb_1017387991119301664,1017387991119301664,,entire_place,8,4.5,15.0,,,A nice vacation home in Bogotá,145620956.88,229885798.15,95.2,667986.01,229,12,Bogotá,cop,Low,4.67734,-74.10437,142654
abnb_734653994221387040,734653994221387040,,entire_place,7,6.5,16.0,4.3,21.0,Excellent home for groups,107284327.02,111637843.7,40.97,750240.07,349,12,Bogotá,cop,High,4.67017,-74.10675,142654
abnb_1009478807897654442,1009478807897654442,,entire_place,4,3.0,14.0,5.0,8.0,Luxury Duplex Solarium Apartment,92164929.3,94244012.35,45.79,565428.98,356,12,Bogotá,cop,Low,4.67309,-74.1124,142654
abnb_53851841,53851841,,entire_place,5,4.0,13.0,4.9,225.0,"House with Jacuzzi, near the Airport",86849919.18,91440510.38,55.2,454711.61,346,12,Bogotá,cop,Low,4.67235,-74.1131,142654
abnb_1127519079182183029,1127519079182183029,,entire_place,4,2.5,7.0,4.9,65.0,"Huge house, next to airport+WiFi+Hot water, Bogota",86005857.24,90340576.03,75.69,394522.29,288,12,Bogotá,cop,Medium,4.705770507,-74.117673958,142654
abnb_51187512,51187512,,entire_place,4,3.0,14.0,4.9,108.0,LUXURY DUPLEX SOLARIUM APARTMENT,77392002.42,80639097.65,44.83,496102.6,348,12,Bogotá,cop,High,4.6723,-74.1115,142654
abnb_599844062670166570,599844062670166570,11657957ha,entire_place,4,3.0,8.0,4.8,76.0,"Ideal family home, near the airport",76186726.2,76950841.84,66.02,318772.93,362,12,Bogotá,cop,Low,4.66706,-74.10897,142654
abnb_790567386533096757,790567386533096757,,entire_place,3,2.0,6.0,5.0,1.0,3-Bedroom Apartment,67458609.72,73774404.55,96.7,230234.17,303,12,Bogotá,cop,Medium,4.6987,-74.1181,142654
abnb_624339869989327697,624339869989327697,,entire_place,7,2.0,16.0,4.5,46.0,8:00 PM Casa Independiente for Large Groups,58782095.28,60093081.96,52.38,314342.76,357,12,Bogotá,cop,Low,4.69074,-74.10883,142654
abnb_555249467477310198,555249467477310198,,entire_place,2,2.0,4.0,4.7,63.0,Cozy apartment near Airport and Embassy,57812714.1,59117913.98,74.86,218161.19,354,12,Bogotá,cop,High,4.66368,-74.10877,142654
abnb_954558603944388820,954558603944388820,,entire_place,2,2.0,4.0,,,rent house near airport,57606305.94,58939518.36,100.0,180019.71,320,12,Bogotá,cop,Medium,4.6956,-74.1213,142654
abnb_1079633891267375232,1079633891267375232,,entire_place,3,1.0,6.0,,,Apartment Fence a Metropolis,56839647.06,61570632.66,98.9,211299.8,272,12,Bogotá,cop,Low,4.684331468,-74.082100786,142654
abnb_825298408109822420,825298408109822420,,entire_place,2,2.0,3.0,4.5,4.0,Furnished apartment near the airport,53725095.36,53885430.27,96.15,153500.27,364,12,Bogotá,cop,Low,4.70274,-74.11605,142654
abnb_805792845165577348,805792845165577348,,entire_place,2,2.0,6.0,4.8,86.0,"Peace, warm and cozy apartment near the airport",52792572.78,55853163.49,51.18,303405.58,340,12,Bogotá,cop,Low,4.67243,-74.10997,142654
abnb_1298697463294392428,1298697463294392428,11785241ha,entire_place,1,1.5,3.0,5.0,4.0,Modern double height Normandy,52000112.88,52000112.88,76.16,187050.77,365,12,Bogotá,cop,High,4.6676,-74.1051,142654
abnb_803248308528325507,803248308528325507,,entire_place,3,2.0,4.0,5.0,87.0,High-rise Apartment in the Heart of Bogotá,51576238.98,65509969.26,87.92,244437.15,240,12,Bogotá,cop,Low,4.66406,-74.10981,142654
abnb_1072700402251970522,1072700402251970522,,entire_place,2,1.0,4.0,4.7,26.0,Apartment near the airport with a terrace,50194041.48,50427393.28,46.98,293532.42,364,12,Bogotá,cop,High,4.68025,-74.10474,142654
abnb_1000682691492961155,1000682691492961155,,entire_place,4,3.0,8.0,4.8,38.0,Casa P&H / Near Airport / quiet,50031863.64,52461177.11,50.0,285896.35,350,12,Bogotá,cop,High,4.69627,-74.1207,142654
abnb_1010155969095885521,1010155969095885521,,entire_place,3,2.0,8.0,4.6,35.0,"Esencia, central apartment near the airport",49224660.3,50669849.15,54.8,253735.38,354,12,Bogotá,cop,Low,4.67267,-74.1091,142654
abnb_1395886790726985668,1395886790726985668,,entire_place,4,3.5,10.0,5.0,14.0,"Luxury house in Bogota, central, jacuzzi",49036681.44,65970701.76,44.83,471506.56,232,12,Bogotá,cop,High,4.6738,-74.1069,142654
abnb_615012206288245796,615012206288245796,,entire_place,3,2.0,4.0,5.0,7.0,Beautiful apartment near the airport,48741812.64,52465895.01,90.73,171626.1,313,12,Bogotá,cop,Low,4.67419,-74.11417,142654
abnb_837980704071975260,837980704071975260,,entire_place,3,2.0,8.0,4.8,110.0,PH-3Hb with Jacuzzi Near Airport & Embassy,47875635.54,49711488.69,56.82,239378.18,352,12,Bogotá,cop,Medium,4.6781,-74.1036,142654
abnb_1010135464238880714,1010135464238880714,,entire_place,2,2.0,6.0,4.8,10.0,"Peace, warm and cozy apartment near the airport",46884139.2,50037576.72,51.31,266387.16,343,12,Bogotá,cop,Low,4.67307,-74.11063,142654
abnb_1115515614208063689,1115515614208063689,,entire_place,2,3.0,4.0,4.9,36.0,Your Home Away from Home!,46640872.44,49118802.4,78.97,203671.92,290,12,Bogotá,cop,Low,4.67016,-74.10225,142654
abnb_1330091519578585747,1330091519578585747,,entire_place,2,3.0,4.0,5.0,2.0,"A comfortable apartment, ideal for work and family.",46379176.38,54209749.09,88.13,189302.76,278,12,Bogotá,cop,Low,4.66885953,-74.10288878,142654
abnb_805813372288575856,805813372288575856,,entire_place,3,2.0,8.0,4.8,55.0,"Esencia, central apartment near the airport",45918443.88,48821316.64,51.49,265424.53,336,12,Bogotá,cop,Low,4.67403,-74.11031,142654
abnb_1136262853428511693,1136262853428511693,,entire_place,2,2.0,4.0,5.0,37.0,10 min-Airport-Embassy-Simon Bolivar-ViveClaro,42733860.84,43591302.45,60.89,196026.89,358,12,Bogotá,cop,Low,4.66537,-74.10765,142654
abnb_945781982673535712,945781982673535712,,entire_place,4,2.0,10.0,4.7,71.0,"Ideal for groups and families, close to the airport and embassy",42497965.8,43264219.24,57.94,204317.15,359,12,Bogotá,cop,Medium,4.6781,-74.1036,142654
abnb_1237206798416306173,1237206798416306173,,entire_place,6,6.0,12.0,4.8,13.0,6 rooms House/Neon Art/parking/,41602301.82,41809852.6,31.25,437918.96,304,12,Bogotá,cop,Medium,4.6943,-74.1213,142654
abnb_1329768448427335773,1329768448427335773,,entire_place,1,1.0,6.0,4.8,81.0,Amazing and Modern Loft Near the Airport,40854072.24,40854072.24,78.87,145907.39,355,12,Bogotá,cop,Low,4.686552812,-74.102888575,142654
abnb_1011534117965665001,1011534117965665001,,entire_place,2,2.0,4.0,4.9,41.0,"Modern, Perfect Location, Private Terrace",39530848.5,45392692.81,84.57,150307.42,311,12,Bogotá,cop,Medium,4.6643,-74.1096,142654
abnb_978318496418272825,978318496418272825,,entire_place,3,2.0,8.0,5.0,7.0,Cozy apartment near the airport.,39394471.68,41955333.49,51.49,227713.71,336,12,Bogotá,cop,Medium,4.6736,-74.1094,142654
abnb_1057414317290670134,1057414317290670134,,entire_place,1,1.0,4.0,4.8,4.0,Cozy Studio Apartment,39390785.82,39442277.28,90.93,119005.4,364,12,Bogotá,cop,Medium,4.6698,-74.1066,142654
abnb_1074531274817555249,1074531274817555249,,entire_place,2,2.0,5.0,4.9,70.0,Lux apt loft 2bed+2baths Bogotá,39235979.7,41499245.17,66.09,170591.21,348,12,Bogotá,cop,Low,4.66649,-74.10486,142654
abnb_903548130069442750,903548130069442750,,entire_place,2,2.0,4.0,5.0,41.0,"A beautiful apartment, the best place in Bogotá.",39114346.32,58968010.06,90.76,181084.94,238,12,Bogotá,cop,Low,4.66509,-74.10999,142654
abnb_50876786,50876786,3178989,entire_place,3,2.0,6.0,4.9,111.0,"Amazing Downtown View, 10 min from the Airport.",38406661.2,38603854.71,73.71,207603.58,251,12,Bogotá,cop,Low,4.65901,-74.10297,142654
abnb_1373310945325122709,1373310945325122709,,entire_place,1,2.0,3.0,5.0,47.0,Luxury studio apartment near the airport,38163394.44,42601317.31,97.62,132973.5,294,12,Bogotá,cop,Medium,4.6675,-74.1057,142654
abnb_888537312210707386,888537312210707386,,entire_place,2,2.0,7.0,4.8,102.0,Wonderful apartment near the airport,38119164.12,38297191.16,52.34,200627.18,363,12,Bogotá,cop,Medium,4.6725,-74.1134,142654
abnb_1153813229533405182,1153813229533405182,,entire_place,1,1.0,3.0,4.7,141.0,Private loft near the airport and events,38100734.82,39412311.24,94.05,114761.25,353,12,Bogotá,cop,Medium,4.6604,-74.1019,142654
abnb_1245092094748869496,1245092094748869496,,entire_place,2,1.0,4.0,4.3,9.0,New! CozyApt Near airport+Wifi+Coworking at Bogota,37905384.24,38442966.92,71.19,147491.77,361,12,Bogotá,cop,Medium,4.7006,-74.1105,142654
abnb_24429639,24429639,,entire_place,4,2.0,10.0,4.4,80.0,A spacious house ideal for LARGE GROUPS in Bogotá,37510997.22,39283490.44,51.3,210735.93,347,12,Bogotá,cop,Low,4.69227,-74.10885,142654
abnb_1000689815344051630,1000689815344051630,,private_room,3,1.0,7.0,4.3,12.0,3 rooms/ near the airport/ Quiet,37267730.46,37305584.24,58.24,175791.19,364,12,Bogotá,cop,Low,4.69423,-74.12077,142654
abnb_944508245548775303,944508245548775303,,entire_place,4,3.0,12.0,4.8,23.0,"Beautiful House, 12 people near airport, CAS",37212442.56,41028413.42,42.43,288468.54,304,12,Bogotá,cop,Low,4.69574,-74.12082,142654
abnb_809382819415685923,809382819415685923,,entire_place,2,2.0,5.0,4.9,62.0,A beautiful apartment 20 minutes from the airport,36512129.16,36939099.18,71.47,141519.88,361,12,Bogotá,cop,Medium,4.6922,-74.1069,142654
abnb_1040801612585342720,1040801612585342720,,entire_place,2,1.0,5.0,4.9,207.0,Bright and comfortable apartment 6 minutes from the airport.,36386809.92,36679430.35,82.04,122514.51,362,12,Bogotá,cop,Low,4.67748,-74.11417,142654
abnb_29383701,29383701,,entire_place,3,2.0,7.0,4.9,492.0,Comfortable apartment 10mins away from airport,35896590.54,39301882.88,94.89,120863.94,313,12,Bogotá,cop,Low,4.67873,-74.10315,142654
abnb_54267269,54267269,,entire_place,1,1.0,2.0,5.0,150.0,"Close to the airport, comfortable, clean and spacious",34897722.48,36653850.48,84.77,118297.36,348,12,Bogotá,cop,Low,4.69052,-74.10979,142654
abnb_52489249,52489249,,entire_place,3,2.0,6.0,4.9,66.0,Balconies of the lake 2,34860863.88,35213600.68,77.78,124503.09,360,12,Bogotá,cop,Medium,4.694,-74.093,142654
abnb_1091900258418077670,1091900258418077670,,entire_place,2,1.0,5.0,4.8,116.0,A bright and comfortable home.,34562309.22,34644172.17,84.07,112948.72,364,12,Bogotá,cop,High,4.67711,-74.11189,142654
abnb_815847662637676508,815847662637676508,,entire_place,2,1.0,5.0,4.6,154.0,Modern apartment near the airport and embassy,34554937.5,35108774.82,83.57,115183.12,359,12,Bogotá,cop,Medium,4.6609,-74.1024,142654
abnb_52655528,52655528,,entire_place,3,2.0,7.0,4.8,27.0,"3 bedroom apartment, close to El Dorado airport",34436989.98,38678161.65,91.56,122116.99,308,12,Bogotá,cop,High,4.723434413,-74.125339323,142654
abnb_993531733236146224,993531733236146224,,entire_place,1,1.0,4.0,4.8,83.0,Luxury double height apartment Bogotá,33891482.7,35352852.47,64.76,149962.31,349,12,Bogotá,cop,High,4.66727,-74.10423,142654
abnb_1237704708340604726,1237704708340604726,,entire_place,1,1.0,4.0,4.8,96.0,Private loft near the airport and events,33707189.7,33707189.7,88.49,104356.62,365,12,Bogotá,cop,Low,4.65926,-74.10155,142654
abnb_1066801517962973405,1066801517962973405,,entire_place,2,2.0,6.0,5.0,39.0,Beautiful apartment in a quiet area of Bogotá,33707189.7,34918547.59,64.77,147838.55,352,12,Bogotá,cop,Medium,4.6945,-74.1033,142654
abnb_1152773396031479761,1152773396031479761,,entire_place,3,1.5,8.0,4.7,58.0,Beautiful and cozy apartment,33570812.88,33662664.51,65.84,140463.66,363,12,Bogotá,cop,Medium,4.6884,-74.1118,142654
abnb_1309024145354764379,1309024145354764379,,entire_place,1,1.0,6.0,4.8,72.0,Beautiful and Central Loft Near the Airport,33390205.74,33455445.46,75.82,120979.01,364,12,Bogotá,cop,Low,4.687275194,-74.103330217,142654
abnb_570970217544234053,570970217544234053,,entire_place,3,1.0,8.0,4.8,146.0,Apartment near the airport,33338603.7,33821156.49,51.28,185214.46,351,12,Bogotá,cop,Medium,4.6725,-74.1134,142654
abnb_1278487960287928742,1278487960287928742,,entire_place,1,1.0,6.0,4.7,97.0,Spectacular Loft Near the Airport,33253828.92,34302529.81,73.24,127899.34,355,12,Bogotá,cop,Medium,4.6866,-74.1038,142654
abnb_978318749740123699,978318749740123699,,entire_place,2,2.0,6.0,4.9,37.0,Modern apartment with a private terrace and natural light,32807839.86,33690971.92,60.0,154027.41,355,12,Bogotá,cop,Medium,4.6945,-74.1033,142654
abnb_848774304643958639,848774304643958639,3954373,entire_place,2,2.0,7.0,5.0,51.0,"Modern, Spacious, Perfect Location",32564573.1,32666302.84,74.8,171392.49,254,12,Bogotá,cop,Medium,4.664346566,-74.109544725,142654
abnb_1070439141462583714,1070439141462583714,,entire_place,1,2.0,4.0,5.0,24.0,Exclusive double-height apartment in Normandy,32435568.0,41055467.63,52.16,206595.98,301,12,Bogotá,cop,Medium,4.6676,-74.1051,142654
abnb_858071129451806587,858071129451806587,,entire_place,3,1.0,5.0,4.7,148.0,"Your place, look no further. Super comfortable",31628364.66,33209377.45,63.01,145084.24,346,12,Bogotá,cop,Low,4.69029,-74.10649,142654
abnb_1309447030675900326,1309447030675900326,,entire_place,1,1.0,6.0,4.7,76.0,Loft con Excelente Vista Cerca al Aeropuerto,31245035.22,31410419.76,66.57,132957.6,353,12,Bogotá,cop,Low,4.685738554,-74.102908858,142654
abnb_41566333,41566333,,entire_place,1,1.0,3.0,4.9,148.0,Beautiful apartment - 10 minutes from the airport,31171318.02,33644824.95,69.25,134359.13,335,12,Bogotá,cop,Low,4.66369,-74.10963,142654
abnb_45379872,45379872,,entire_place,1,1.0,3.0,4.9,67.0,Amazing apartment 12 min away from airport Bogotá,30916993.68,31323433.46,58.89,145834.87,360,12,Bogotá,cop,Medium,4.6699,-74.1052,142654
abnb_1325584365015958860,1325584365015958860,,entire_place,2,2.0,5.0,4.8,34.0,Universidad Libre Apartment,30813789.6,31587451.61,77.78,115841.32,342,12,Bogotá,cop,Medium,4.671,-74.0978,142654
abnb_1100679649408074205,1100679649408074205,,entire_place,3,3.0,5.0,4.9,35.0,Beautiful house with a great location,30795360.3,31039695.96,52.52,173985.09,337,12,Bogotá,cop,Medium,4.6978,-74.1042,142654
abnb_858859187581336898,858859187581336898,,entire_place,2,1.0,5.0,4.8,202.0,Bright and comfortable apt. 6 minutes airport.,30710585.52,31166120.96,74.44,114591.74,360,12,Bogotá,cop,Low,4.67644,-74.11367,142654
abnb_1168947682223869272,1168947682223869272,,entire_place,2,2.0,6.0,5.0,37.0,Charming apartment in a quiet area near the airport,30349371.24,30415348.13,59.62,139858.86,364,12,Bogotá,cop,Medium,4.6945,-74.1033,142654
abnb_48256237,48256237,,entire_place,4,2.0,8.0,4.4,74.0,My home is your home,30209308.56,33100091.7,53.31,163293.56,347,12,Bogotá,cop,High,4.70306,-74.10227,142654
abnb_1177513103203574284,1177513103203574284,,entire_place,2,2.0,6.0,4.8,40.0,Bright and comfortable in a quiet area of Bogotá,30183507.54,31818628.75,63.69,136576.96,347,12,Bogotá,cop,Medium,4.6945,-74.1033,142654
abnb_1365228698104783109,1365228698104783109,11785191ha,entire_place,1,1.5,3.0,5.0,3.0,Normandy double height dresser,30139277.22,38208288.21,90.5,150696.39,221,12,Bogotá,cop,High,4.6674,-74.105,142654
abnb_37657830,37657830,,private_room,2,1.0,4.0,4.2,6.0,"Group Stay, 2 bedrooms (4pax) - AIRPORT®",29914439.76,29914439.76,86.03,95268.92,365,12,Bogotá,cop,Low,4.69767,-74.10133,142654
abnb_1260260532441499477,1260260532441499477,11773665ha,entire_place,1,1.0,2.0,4.8,47.0,Comfortable Normandy Loft 605,29785434.66,30695952.66,78.25,107528.64,354,12,Bogotá,cop,High,4.6676,-74.1051,142654
abnb_1273952923232919572,1273952923232919572,,entire_place,2,1.0,4.0,4.8,94.0,Botanical Garden Apartment I,29103550.56,30558101.49,83.57,100357.07,347,12,Bogotá,cop,Medium,4.6605,-74.1021,142654
abnb_847871583000838611,847871583000838611,,private_room,2,1.0,4.0,4.8,26.0,2 bedrooms 1 bathroom near Medplus,29044576.8,29044576.8,71.2,129087.0,316,12,Bogotá,cop,Medium,4.6953,-74.1216,142654
abnb_1081877808761789227,1081877808761789227,,entire_place,1,1.0,3.0,4.7,49.0,Duplex/Av26/Airport/Buses/Auto-CheckIn,28598587.74,28673889.86,81.59,96291.54,364,12,Bogotá,cop,Low,4.667198655,-74.105902472,142654
abnb_755216212394578643,755216212394578643,,entire_place,2,1.0,3.0,5.0,40.0,Excellent and cozy terrace!,28425352.32,32767811.42,92.6,98699.14,311,12,Bogotá,cop,Low,4.70301,-74.09549,142654
abnb_45205828,45205828,,entire_place,1,2.0,4.0,4.9,245.0,Comfortable studio-apartment close to the airport,28233687.6,28859546.63,44.19,180985.18,353,12,Bogotá,cop,Medium,4.6704,-74.1057,142654
abnb_1368731193023172707,1368731193023172707,,entire_place,2,1.0,4.0,4.8,77.0,Botanical Garden Apartment N,28174713.84,32780748.79,89.49,114067.67,276,12,Bogotá,cop,Medium,4.6605225,-74.1020989,142654
abnb_1040890269948246294,1040890269948246294,,entire_place,1,1.0,4.0,4.8,90.0,Normandia Boutique Aparthotel near Airport 1,28171027.98,28171027.98,73.15,105509.46,365,12,Bogotá,cop,Medium,4.6721,-74.1119,142654
abnb_1337812807904742834,1337812807904742834,20104877ha,entire_place,1,1.0,2.0,4.8,28.0,Modern & Cozy Bogotá Studio – Central Location,28123111.8,28323733.16,67.06,123346.98,340,12,Bogotá,cop,Medium,4.6676,-74.1051,142654
abnb_1318376375335112288,1318376375335112288,11727933ha,entire_place,2,2.0,4.0,5.0,23.0,"Central apartment, safe, shops and restaurants",27968305.68,28150940.04,70.08,110546.66,361,12,Bogotá,cop,High,4.6908,-74.1019,142654
abnb_1319677626888070871,1319677626888070871,,entire_place,1,1.0,2.0,,,Furnished apartment for rent,27116872.02,33686917.47,95.22,104698.35,272,12,Bogotá,cop,High,4.69333619,-74.122686135,142654
abnb_763615532082923853,763615532082923853,,entire_place,3,2.0,4.0,4.8,16.0,Apartment next to CC Titan,27098442.72,27137217.97,67.97,130280.97,306,12,Bogotá,cop,Medium,4.6933,-74.0845,142654
abnb_1309451338593900945,1309451338593900945,,entire_place,1,1.0,2.0,4.7,53.0,Modern and Central Loft Near the Airport,27094756.86,27094756.86,69.01,110590.85,355,12,Bogotá,cop,Low,4.686016649,-74.10396742,142654
abnb_42020852,42020852,,entire_place,2,2.0,5.0,4.9,82.0,"1. Apt. 1st floor near P. Simon Bolivar, embassy",27087385.14,28649894.91,70.38,112864.1,341,12,Bogotá,cop,Medium,4.6718,-74.0931,142654
abnb_1147828063859694238,1147828063859694238,11785213ha,entire_place,1,1.0,4.0,4.9,45.0,Spectacular Loft Normandy,27080013.42,27080013.42,71.51,103754.84,365,12,Bogotá,cop,High,4.6676,-74.1051,142654
abnb_1094469053504039120,1094469053504039120,,entire_place,1,1.0,3.0,4.9,107.0,Loft apartment in Bogotá,26984181.06,27373297.3,89.72,83542.35,360,12,Bogotá,cop,High,4.6676,-74.1051,142654
abnb_1099526552679804826,1099526552679804826,,entire_place,3,1.0,6.0,4.9,45.0,Apartment near the airport,26984181.06,27323095.89,42.94,181101.89,347,12,Bogotá,cop,Low,4.672,-74.11452,142654
abnb_1278911702923297805,1278911702923297805,,entire_place,1,1.0,2.0,4.8,78.0,Amazing and Modern Loft Near the Airport,26943636.6,27003900.41,60.71,121916.91,364,12,Bogotá,cop,Medium,4.6866,-74.1038,142654
abnb_815612766921634555,815612766921634555,,entire_place,2,2.0,6.0,5.0,45.0,Full Apartment in Gran Granada,26847804.24,26932800.17,80.77,91319.06,364,12,Bogotá,cop,Low,4.72401,-74.12459,142654
abnb_1309029230426007114,1309029230426007114,,entire_place,1,1.0,2.0,4.8,33.0,Comfortable and Modern Loft Near the Airport,26833060.8,26833060.8,77.18,97930.88,355,12,Bogotá,cop,Low,4.68698,-74.10318,142654
abnb_907200256660719756,907200256660719756,,entire_place,2,2.0,5.0,4.6,15.0,Beautiful Apartment in Bosque Popular,26339155.56,48772110.41,89.83,248482.58,118,12,Bogotá,cop,Medium,4.6692898,-74.0973154,142654
abnb_630635308100918780,630635308100918780,,entire_place,2,1.0,3.0,4.8,38.0,Excellent apartment in the west of Bogota,26276495.94,26438673.78,88.15,82114.05,363,12,Bogotá,cop,Medium,4.6821,-74.11,142654
abnb_45582579,45582579,,entire_place,1,2.0,4.0,4.8,45.0,Cozy apartment close to Bogota Airport,26184349.44,27340972.31,51.0,146281.28,351,12,Bogotá,cop,Low,4.67135,-74.10514,142654
abnb_1040920793879504995,1040920793879504995,,entire_place,1,1.0,4.0,4.7,77.0,Aparthotel Boutique Normandia near Airport2,26169606.0,26169606.0,75.89,94475.12,365,12,Bogotá,cop,Medium,4.6721,-74.1119,142654
abnb_39050273,39050273,,entire_place,5,2.0,16.0,4.5,72.0,Welcome to Rosa's house. Close to the airport,26025857.46,26485484.2,40.06,184580.55,352,12,Bogotá,cop,High,4.67378,-74.10646,142654
abnb_1375647926181123863,1375647926181123863,,entire_place,1,1.0,2.0,5.0,38.0,Loft with Style and Comfort,26003742.3,29190905.44,84.67,107011.29,287,12,Bogotá,cop,High,4.6675,-74.1057,142654
abnb_1069674219928585737,1069674219928585737,,entire_place,1,1.0,4.0,4.7,38.0,Boutique Aparthotel Normandy near airport 9,26000056.44,26000056.44,73.97,96296.5,365,12,Bogotá,cop,Medium,4.6721,-74.1124,142654
abnb_1429877464785461525,1429877464785461525,,entire_place,3,2.5,7.0,5.0,9.0,Beautiful and comfortable two-story house in Villaluz.,25926339.24,34487744.27,60.39,207410.71,207,12,Bogotá,cop,Low,4.68162,-74.10578,142654
abnb_1061583241900006836,1061583241900006836,,entire_place,1,1.0,4.0,4.7,75.0,Normandy boutique apartment hotel near airport 11,25782590.7,25782590.7,70.14,100713.25,365,12,Bogotá,cop,Medium,4.6721,-74.1119,142654
abnb_1070283224620655229,1070283224620655229,,entire_place,1,1.0,4.0,4.7,27.0,Normandy boutique apartment hotel near airport 7,25638842.16,25638842.16,75.62,92894.35,365,12,Bogotá,cop,Low,4.67304,-74.11132,142654
abnb_26748730,26748730,,entire_place,3,2.0,6.0,4.8,44.0,Normandy apt.,25627784.58,25848788.75,57.06,124406.72,361,12,Bogotá,cop,Low,4.67164,-74.10733,142654
abnb_664397861427766387,664397861427766387,,entire_place,4,2.0,8.0,4.8,5.0,"Apartment with Fireplace ""Enjoy your Life""",25587240.12,29520568.76,60.51,153217.01,276,12,Bogotá,cop,Low,4.70194,-74.10336,142654
abnb_837178652870634831,837178652870634831,,entire_place,3,2.0,7.0,4.9,13.0,Ideal apartment for trips to Bogotá near Calle 80,25428748.14,28737913.25,91.75,87988.75,315,12,Bogotá,cop,High,4.7236,-74.1248,142654
abnb_52790576,52790576,,entire_place,2,2.0,5.0,5.0,33.0,"3. Full apartment near S. Bolivar Park, embassy",25425062.28,26676374.89,65.8,111026.47,348,12,Bogotá,cop,High,4.6718,-74.0931,142654
abnb_866552025425060304,866552025425060304,,entire_place,1,1.0,4.0,5.0,128.0,"Cozy, independent and centrally located apartment",25362402.66,25950297.33,83.19,85395.29,357,12,Bogotá,cop,Low,4.67015,-74.11019,142654
abnb_1086517424844752427,1086517424844752427,,entire_place,1,1.0,4.0,4.8,15.0,RoBe Apartment,25303428.9,25303428.9,81.64,84910.84,365,12,Bogotá,cop,Medium,4.6642,-74.1088,142654
abnb_1237088979825821984,1237088979825821984,11785183ha,entire_place,1,1.5,3.0,4.9,26.0,Normandy 204 Double Height Loft,25273942.02,36283384.69,76.86,128948.69,255,12,Bogotá,cop,High,4.6676,-74.1051,142654
abnb_30840406,30840406,10433842ha,entire_place,2,2.0,4.0,5.0,28.0,Your second home in Bogota near the airport,25119135.9,25271067.05,90.63,76349.95,363,12,Bogotá,cop,Low,4.69902,-74.11805,142654
abnb_949497149692918567,949497149692918567,,entire_place,2,1.0,3.0,4.9,17.0,Nice apartment west Bta,25104392.46,25104392.46,85.48,80462.8,365,12,Bogotá,cop,Low,4.68233,-74.11031,142654
abnb_696047162614969814,696047162614969814,,entire_place,1,1.0,3.0,4.5,2.0,Studio apartment in the Colombian capital,25019617.68,26024419.97,76.97,98502.43,330,12,Bogotá,cop,Low,4.71034,-74.12697,142654
abnb_1163777909888602510,1163777909888602510,,entire_place,1,1.0,2.0,4.4,15.0,Cozy apartment,24993816.66,24993816.66,71.35,100376.77,349,12,Bogotá,cop,Low,4.70107,-74.1045,142654
abnb_1243465981838454344,1243465981838454344,,entire_place,1,1.0,4.0,5.0,4.0,Modern and cozy Apartaestudio in Normandy,24864811.56,25565124.96,99.72,70438.56,354,12,Bogotá,cop,Low,4.66869,-74.10984,142654
abnb_40667710,40667710,,entire_place,3,1.5,10.0,5.0,56.0,INDEPENDENT APARTMENT 15 MINUTES FROM THE AIRPORT,24802151.94,25175750.71,45.95,162105.57,333,12,Bogotá,cop,Low,4.67936,-74.09817,142654
abnb_1353708304355205116,1353708304355205116,,entire_place,2,1.0,6.0,4.6,51.0,"Modern apartment near airport, US embassy",24768979.2,26321500.29,79.15,101929.96,307,12,Bogotá,cop,Low,4.661396182,-74.103251484,142654
abnb_1463730661388143499,1463730661388143499,,entire_place,3,2.5,16.0,5.0,22.0,Spacious house with terrace 10 minutes from the airport,24732120.6,50540586.04,48.65,343501.66,148,12,Bogotá,cop,Medium,4.6676,-74.1072,142654
abnb_985739119014659058,985739119014659058,,entire_place,2,1.0,4.0,4.6,14.0,Nice apartment CAS airport/ Embassy,24651031.68,24854011.99,66.02,104012.79,359,12,Bogotá,cop,High,4.69619,-74.12266,142654
abnb_50840496,50840496,,entire_place,1,2.0,4.0,5.0,21.0,¡Beautiful Apartment 12 min away from airport!,24581000.34,24581000.34,43.02,159616.89,358,12,Bogotá,cop,Low,4.67117,-74.10574,142654
abnb_1260904954024552151,1260904954024552151,,entire_place,1,1.0,2.0,4.7,43.0,Cozy studio  just a 5-min drive from the airport.,24544141.74,25348285.82,84.42,82362.89,353,12,Bogotá,cop,Low,4.672428572,-74.11414701,142654
abnb_1426162562959074483,1426162562959074483,,entire_place,5,3.0,10.0,5.0,8.0,Bacatá Housing,24444623.52,36347076.35,58.37,200365.77,209,12,Bogotá,cop,Low,4.701036436,-74.132048217,142654
abnb_45732107,45732107,,entire_place,1,1.0,3.0,4.9,28.0,Nice luxury apartment in Bogotá,24437251.8,24831859.97,48.29,144599.13,350,12,Bogotá,cop,Medium,4.6701,-74.1055,142654
abnb_728160609822360325,728160609822360325,,entire_place,3,1.0,5.0,4.9,44.0,"Apt near Airport, Cas visa, 3 bedrooms",24404079.06,25175566.42,41.97,163785.76,355,12,Bogotá,cop,High,4.6908,-74.108,142654
abnb_1191578147748663615,1191578147748663615,11785194ha,entire_place,1,1.0,2.0,5.0,13.0,Modern studio apartment in Normandy,24374592.18,24374592.18,78.9,84634.0,365,12,Bogotá,cop,Low,4.66615,-74.10585,142654
abnb_1309040109057985567,1309040109057985567,,entire_place,1,1.0,2.0,4.7,56.0,Beautiful and Modern Loft Near the Airport,24370906.32,24370906.32,63.84,104596.16,365,12,Bogotá,cop,Low,4.686897173,-74.104314222,142654
abnb_1470504415093715343,1470504415093715343,,entire_place,3,2.5,8.0,5.0,19.0,"Large house, 8 pax · 2 parking spaces 10 min Airport",24164498.16,56145267.89,55.41,294689.0,148,12,Bogotá,cop,Low,4.672011871,-74.105708111,142654
abnb_1213920604094751970,1213920604094751970,,entire_place,1,1.0,2.0,5.0,37.0,Comfort and Ideal Location for Tourism and Work,24042864.78,25797997.59,66.86,105451.16,341,12,Bogotá,cop,Medium,4.6676,-74.1051,142654
abnb_1379932661762280991,1379932661762280991,,entire_place,1,1.0,3.0,4.9,17.0,Comfortable and elegant studio near the airport,23740624.26,28176446.19,65.95,129025.14,279,12,Bogotá,cop,Medium,4.6674,-74.1058,142654
abnb_1044395930339261238,1044395930339261238,,entire_place,1,1.0,4.0,4.7,28.0,Normandy boutique apartment hotel near airport6,23618990.88,23618990.88,59.73,108343.99,365,12,Bogotá,cop,Medium,4.6718,-74.1119,142654
abnb_1430486372222579967,1430486372222579967,,entire_place,1,2.0,4.0,5.0,45.0,Modern apartment in a strategic area of Bogotá,23508415.08,33736234.28,83.33,134333.8,210,12,Bogotá,cop,Low,4.667205617,-74.106160508,142654
abnb_1260101983736678318,1260101983736678318,,entire_place,4,2.0,8.0,4.8,13.0,Just like at home,23504729.22,30212109.81,51.07,164368.74,280,12,Bogotá,cop,Medium,4.6912,-74.1053,142654
abnb_1041461222441231593,1041461222441231593,,entire_place,1,1.0,4.0,4.7,102.0,Boutique Aparthotel Normandy near airport 4,23497357.5,23497357.5,66.58,96696.94,365,12,Bogotá,cop,Low,4.6717,-74.11099,142654
abnb_1316246775917966829,1316246775917966829,,entire_place,2,1.0,6.0,4.7,30.0,Traveler Suite,23471556.48,23563186.96,51.52,125516.34,363,12,Bogotá,cop,Medium,4.7016,-74.1114,142654
abnb_20698829,20698829,4729048ha,entire_place,2,1.0,5.0,4.6,59.0,Apartment near the Titan Shopping Center.,23379409.98,23379409.98,80.0,80066.47,365,12,Bogotá,cop,High,4.70363,-74.09684,142654
abnb_37948986,37948986,,entire_place,2,2.0,4.0,4.6,385.0,Independent Apartment - Entire Apartment,23372038.26,23704908.28,71.94,90239.53,360,12,Bogotá,cop,Low,4.67753,-74.10814,142654
abnb_38106795,38106795,,entire_place,2,1.0,5.0,4.6,254.0,Cozy independent apartment 10 minutes from the airport◕.,23257776.6,23560754.29,72.75,89798.36,356,12,Bogotá,cop,Low,4.67808,-74.10887,142654
abnb_1067348390688157968,1067348390688157968,,entire_place,0,1.0,2.0,4.8,55.0,Exclusive Studio: Close to Airport - Fast Wifi,23239347.3,24473078.36,81.21,82702.31,346,12,Bogotá,cop,Low,4.66833,-74.10469,142654
abnb_1038582929931119808,1038582929931119808,,entire_place,2,1.0,4.0,4.9,35.0,Comfortable and cozy apartment just 15 min airport,23231975.58,23869334.49,55.95,123574.34,336,12,Bogotá,cop,Low,4.67917,-74.10456,142654
abnb_1331266815883898209,1331266815883898209,,entire_place,4,4.0,7.0,4.5,2.0,House near Marc Anthony concert in Bogotá,23187745.26,23345131.48,71.77,97019.86,333,12,Bogotá,cop,High,4.693,-74.1004,142654
abnb_1229247537358065068,1229247537358065068,11650220ha,entire_place,3,2.0,6.0,4.8,45.0,Central and spacious apartment.,23099284.62,23581505.68,39.11,164994.89,358,12,Bogotá,cop,High,4.69383,-74.12071,142654
abnb_822231688605620332,822231688605620332,,entire_place,2,2.0,3.0,4.8,26.0,Hermoso Apto Embajada Americana Aeropuerto Wifi.,23036625.0,24135158.71,77.15,88602.41,337,12,Bogotá,cop,Low,4.67645,-74.09601,142654
abnb_33531427,33531427,,entire_place,1,1.0,3.0,4.8,154.0,Comfortable apartment in Normandy,22992394.68,23037104.16,61.47,105955.74,353,12,Bogotá,cop,High,4.67083,-74.11029,142654
abnb_828174629970539900,828174629970539900,,entire_place,2,1.0,3.0,4.8,49.0,Apartment Near El Dorado Airport and CAS,22933420.92,23191062.53,74.17,85892.96,360,12,Bogotá,cop,Low,4.69555,-74.11319,142654
abnb_1277882613695375203,1277882613695375203,,entire_place,1,1.0,2.0,4.9,126.0,Apartment 301 with a separate entrance,22811787.54,22811787.54,72.88,85758.6,365,12,Bogotá,cop,Low,4.682333139,-74.103638715,142654
abnb_1400404045530763807,1400404045530763807,,entire_place,1,1.0,4.0,5.0,15.0,Modern and nice apartment strategically located,22616436.96,33925576.91,86.32,137905.11,190,12,Bogotá,cop,Medium,4.665812056,-74.107933044,142654
abnb_45501549,45501549,,entire_place,1,1.0,3.0,5.0,39.0,Comfortable apartment in Normandía Bogotá,22609065.24,28523875.36,51.37,150727.1,292,12,Bogotá,cop,Medium,4.6701,-74.1055,142654
abnb_1165480779156944712,1165480779156944712,,entire_place,2,1.0,5.0,5.0,1.0,Comfortable and quiet apartment near the airport,22579578.36,22579578.36,69.78,177791.95,182,12,Bogotá,cop,Low,4.67156,-74.11128,142654
abnb_1421302141797425564,1421302141797425564,,entire_place,1,2.0,3.0,4.9,7.0,Spectacular double-height Normandy,22376856.06,34668093.4,82.46,119025.83,228,12,Bogotá,cop,Medium,4.6675,-74.1051,142654
abnb_43479480,43479480,,entire_place,1,1.0,3.0,4.8,87.0,"Flat WIFI, Mall Titan Plaza-Your home away from home",22303138.86,22962981.52,78.31,80227.12,355,12,Bogotá,cop,Low,4.69843,-74.091,142654
abnb_1157292519696033514,1157292519696033514,,entire_place,1,1.0,3.0,4.8,40.0,"Botanical Garden Apartment,",22303138.86,22545852.74,73.61,84162.78,360,12,Bogotá,cop,Medium,4.6709,-74.0977,142654
abnb_1395877130702654723,1395877130702654723,,entire_place,3,2.0,5.0,3.0,1.0,3-bedroom apartment,22244165.1,25957005.6,79.82,122220.68,228,12,Bogotá,cop,Low,4.703452864,-74.10148773,142654
abnb_27923286,27923286,,entire_place,1,1.0,3.0,4.8,274.0,Cozy apartment 10 minutes from the airport,22233107.52,22233107.52,84.25,72895.44,362,12,Bogotá,cop,Low,4.67146,-74.11146,142654
abnb_1168806442040575078,1168806442040575078,,entire_place,1,1.0,4.0,4.8,34.0,"Independent, comfortable and central apartment",22159390.32,23757505.5,82.05,86560.12,312,12,Bogotá,cop,Low,4.670655831,-74.111388485,142654
abnb_1006394370533830237,1006394370533830237,,entire_place,2,1.0,6.0,4.8,25.0,Beautiful apartment in Normandy,22019327.64,22082466.42,63.91,94910.9,363,12,Bogotá,cop,Low,4.67191,-74.11222,142654
abnb_1290704101288224694,1290704101288224694,,entire_place,2,1.0,4.0,4.8,65.0,Apartasuite near El Dorado Airport,21960353.88,22258576.81,64.44,94656.7,360,12,Bogotá,cop,Low,4.673407948,-74.110538068,142654
abnb_22242580,22242580,,entire_place,3,2.0,5.0,4.6,59.0,Best value for money in Bogota!,21879264.96,22544599.55,55.48,131013.56,301,12,Bogotá,cop,Low,4.68556,-74.08272,142654
abnb_1095799669593004085,1095799669593004085,,entire_place,1,1.0,3.0,4.9,53.0,A cozy and modern loft studio apartment in Bogotá,21853463.94,21984201.39,70.99,85032.94,362,12,Bogotá,cop,Low,4.69816,-74.10257,142654
abnb_28640716,28640716,,entire_place,1,1.0,2.0,4.8,66.0,Studio apartment in Normandy near the airport,21816605.34,21816605.34,70.14,85221.12,365,12,Bogotá,cop,Low,4.67133,-74.11131,142654
abnb_1074203039643274483,1074203039643274483,,entire_place,1,1.0,4.0,4.9,33.0,Modern studio apartment 10 minutes from the airport,21687600.24,21852837.34,33.75,200811.11,320,12,Bogotá,cop,Low,4.66681,-74.10543,142654
abnb_509466050728606500,509466050728606500,,entire_place,1,1.0,2.0,4.7,359.0,Wonderful entire loft 302,21669170.94,21723463.66,78.85,75502.34,364,12,Bogotá,cop,Low,4.67174,-74.09648,142654
abnb_1358644044755854530,1358644044755854530,,entire_place,1,1.0,2.0,4.9,36.0,Your ideal stay • Near the airport •Self Check-in,21554909.28,23065743.29,56.45,123170.9,310,12,Bogotá,cop,Medium,4.6672,-74.1061,142654
abnb_42935685,42935685,,entire_place,2,1.0,4.0,4.9,25.0,Boutique-style apartment near Titán Plaza Shopping Center,21278469.78,21821654.97,82.52,90163.01,286,12,Bogotá,cop,Low,4.70127,-74.09228,142654
abnb_16606270,16606270,,entire_place,1,1.0,3.0,4.8,115.0,"Cozy apartment, close to the airport!",21278469.78,29853844.22,69.88,117560.6,259,12,Bogotá,cop,High,4.66924,-74.10615,142654
abnb_1433928468128697325,1433928468128697325,,entire_place,1,1.5,3.0,4.9,25.0,Exclusive double-height loft near the airport,21263726.34,35198451.8,65.0,163567.13,200,12,Bogotá,cop,Medium,4.66749,-74.10568,142654
abnb_755237321739835451,755237321739835451,,entire_place,2,1.0,5.0,4.8,65.0,The airport is 5 minutes away from the apartment,20891454.48,20891454.48,38.35,154751.51,352,12,Bogotá,cop,Low,4.67189,-74.11365,142654
abnb_1153808241923828302,1153808241923828302,,private_room,1,1.0,3.0,4.7,75.0,Av26/Airport/Buses/Breakfast/SelfCheckIn/SmartTV,20821423.14,20821423.14,68.49,83285.69,365,12,Bogotá,cop,Low,4.66776,-74.1056,142654
abnb_1205126677687633048,1205126677687633048,,entire_place,1,1.0,4.0,4.9,25.0,New Airbnb in Bogotá,20769821.1,20769821.1,58.95,97055.24,363,12,Bogotá,cop,Low,4.67974,-74.08844,142654
abnb_816085908321148745,816085908321148745,,entire_place,1,1.0,2.0,4.7,277.0,Comfy loft in Bogotá 203,20758763.52,20758763.52,75.07,75761.91,365,12,Bogotá,cop,Medium,4.6711,-74.0961,142654
abnb_1129098299985634748,1129098299985634748,,entire_place,3,2.0,6.0,4.5,18.0,Casa Villas de Madrid,20751391.8,26988640.95,63.41,118579.39,276,12,Bogotá,cop,Medium,4.7069,-74.1125,142654
abnb_48172206,48172206,,entire_place,2,1.0,6.0,4.8,16.0,House: with patio in Minuto de Dios,20747705.94,21028752.77,79.35,84340.27,310,12,Bogotá,cop,High,4.70038,-74.09237,142654
abnb_1279779681332349252,1279779681332349252,11785244ha,entire_place,1,1.0,2.0,4.8,14.0,Loft Bogotá Normandy,20747705.94,20747705.94,70.96,80106.97,365,12,Bogotá,cop,Medium,4.6675,-74.1057,142654
abnb_1309785949320606437,1309785949320606437,,entire_place,1,1.0,2.0,5.0,36.0,Beautiful and Cozy Apartment near the Airport,20732962.5,21738022.8,57.35,106322.88,340,12,Bogotá,cop,Medium,4.6674,-74.1062,142654
abnb_1076799674698673792,1076799674698673792,,entire_place,2,2.0,4.0,5.0,33.0,"Nice Loft kitchen, airport.",20699789.76,20699789.76,82.19,68999.3,365,12,Bogotá,cop,Medium,4.6743,-74.1123,142654
abnb_1277889099732298926,1277889099732298926,,entire_place,1,1.0,2.0,4.8,123.0,Apartment 401 with a separate entrance,20670302.88,20742177.15,64.56,87958.74,364,12,Bogotá,cop,Low,4.680360238,-74.103976628,142654
abnb_42882930,42882930,,entire_place,2,2.0,5.0,4.9,83.0,"4. Full apt. near S. Bolivar Park, embassy",20659245.3,21385765.16,50.0,122244.05,338,12,Bogotá,cop,Medium,4.6717,-74.0961,142654
abnb_750930699025857686,750930699025857686,3342404,entire_place,1,1.0,2.0,5.0,13.0,Cozy studio apartment near the airport. Bogotá,20603957.4,20603957.4,90.68,62247.61,365,12,Bogotá,cop,Medium,4.6868,-74.1092,142654
abnb_1118860026601226323,1118860026601226323,,entire_place,1,1.0,2.0,5.0,38.0,"New studio apartment, great location - Modelia",20581842.24,21111832.05,62.58,100891.39,326,12,Bogotá,cop,Low,4.66976,-74.10375,142654
abnb_52020526,52020526,2971562,entire_place,2,1.0,4.0,4.8,51.0,Apto 15 min from El Dorado Airport,20559727.08,20559727.08,61.64,91376.56,365,12,Bogotá,cop,Low,4.70044,-74.09897,142654
abnb_1305174752116390547,1305174752116390547,,entire_place,2,1.0,5.0,4.9,21.0,Full apartment near the Airport and Medplus,20482324.02,20706977.19,47.71,122648.64,350,12,Bogotá,cop,High,4.7006,-74.1105,142654
abnb_1312952648306000336,1312952648306000336,,entire_place,2,1.0,4.0,4.5,19.0,Gem whole unit; via BOG-MED; 20 mins from airport,20456523.0,21022560.52,64.89,88556.38,356,12,Bogotá,cop,Medium,4.7144,-74.1101,142654
abnb_1331200966340823893,1331200966340823893,,entire_place,1,1.0,2.0,5.0,1.0,Full apartment excellen location,20434407.84,22988708.82,92.65,81088.92,272,12,Bogotá,cop,Low,4.698849274,-74.129006494,142654
abnb_52718423,52718423,,entire_place,3,1.0,8.0,4.4,26.0,3-bedroom house in Engativa,20408606.82,22203731.22,60.95,106294.82,315,12,Bogotá,cop,High,4.70143,-74.09488,142654
abnb_1301770900524750531,1301770900524750531,,entire_place,1,1.0,2.0,4.8,90.0,Normandy Studio 3,20298031.02,20298031.02,63.29,87870.26,365,12,Bogotá,cop,Low,4.668662597,-74.107555902,142654
abnb_589803897153972814,589803897153972814,,entire_place,1,1.0,2.0,4.9,76.0,Independent apartment,20213256.24,20213256.24,88.77,62386.59,365,12,Bogotá,cop,Medium,4.6843,-74.0851,142654
abnb_21434070,21434070,,entire_place,2,2.0,3.0,4.9,32.0,Nice flat close to the airport,20080565.28,21855454.3,60.47,97953.98,339,12,Bogotá,cop,Low,4.689725209,-74.112093356,142654
abnb_1442740641665665838,1442740641665665838,,entire_place,2,1.0,5.0,4.9,28.0,Comfortable apartment 6 min. from airport.,20069507.7,28168337.3,87.37,116008.71,198,12,Bogotá,cop,Low,4.67752,-74.11425,142654
abnb_1277505770908716679,1277505770908716679,,private_room,2,1.0,4.0,4.8,59.0,Aparthotel near the airport #2,20054764.26,20054764.26,57.81,95046.28,365,12,Bogotá,cop,High,4.6731,-74.1054,142654
abnb_1145929789753470814,1145929789753470814,,entire_place,1,1.0,3.0,4.9,144.0,Cozy Normandy apartment,20003162.22,21571827.38,76.58,82657.7,316,12,Bogotá,cop,Low,4.66676,-74.10557,142654
abnb_40172309,40172309,,entire_place,2,1.0,5.0,4.6,27.0,Comfortable Apartment 15 Minutes from the Airport,19951560.18,20041863.75,73.04,79172.86,345,12,Bogotá,cop,Low,4.69978,-74.09999,142654
abnb_999180988916953946,999180988916953946,,entire_place,1,1.0,2.0,4.7,210.0,Beautiful loft in Bogotá 204,19944188.46,19944188.46,76.99,70975.76,365,12,Bogotá,cop,Low,4.67346,-74.09676,142654
abnb_873873015819346418,873873015819346418,,entire_place,1,1.0,3.0,5.0,7.0,Apartment near the airport,19811497.5,19811497.5,93.7,57928.35,365,12,Bogotá,cop,Low,4.6704,-74.09949,142654
abnb_1314063910631238403,1314063910631238403,,entire_place,1,1.0,3.0,4.8,71.0,Deluxe loft near the airport 12,19811497.5,19811497.5,60.0,90463.46,365,12,Bogotá,cop,Low,4.671327012,-74.111062468,142654
abnb_1082667437050305104,1082667437050305104,,entire_place,2,1.0,7.0,4.3,39.0,Apartment in Modelia,19800439.92,19920525.24,37.82,146669.92,357,12,Bogotá,cop,Low,4.68036,-74.10944,142654
abnb_1053512895652767975,1053512895652767975,,entire_place,1,1.0,2.0,5.0,5.0,Studio apartment in Normandy,19770953.04,25346737.76,86.49,77230.29,296,12,Bogotá,cop,Low,4.6678,-74.10521,142654
abnb_1330601608043030416,1330601608043030416,,entire_place,1,1.0,4.0,4.7,45.0,Quiet Loft 13 airport,19693549.98,19693549.98,59.38,94227.51,352,12,Bogotá,cop,Medium,4.672,-74.1119,142654
abnb_1277495649839950176,1277495649839950176,,private_room,2,,4.0,4.8,88.0,Aparthotel near the airport #1,19671434.82,19671434.82,55.89,96428.6,365,12,Bogotá,cop,Medium,4.6729,-74.1055,142654
abnb_1368973994230323015,1368973994230323015,,entire_place,2,1.0,7.0,4.3,35.0,Apartment near Salitre,19535058.0,21638762.6,42.21,160123.43,289,12,Bogotá,cop,Low,4.679349578,-74.109611363,142654
abnb_1277403030847327823,1277403030847327823,,entire_place,1,1.0,2.0,4.8,59.0,Apartment 201 with a Private Terrace,19494513.54,19494513.54,80.27,66534.18,365,12,Bogotá,cop,Medium,4.6799,-74.1057,142654
abnb_913354159349343202,913354159349343202,,entire_place,1,1.0,2.0,4.9,14.0,Studio apartment in Bogota!,19490827.68,19845997.15,89.66,60719.09,358,12,Bogotá,cop,Medium,4.698,-74.0926,142654
abnb_35428299,35428299,,private_room,1,1.0,1.0,,,Quiet comfortable place for some days.,774030.6,774030.6,52.63,25801.02,57,12,Bogotá,cop,Low,4.728,-74.11621,142654
abnb_29713708,29713708,,private_room,1,1.0,1.0,5.0,80.0,La Casa de Andre - Green Room,770344.74,1064328.93,16.92,70031.34,65,12,Bogotá,cop,Medium,4.6606,-74.1036,142654
abnb_1339998293420670224,1339998293420670224,,private_room,1,1.0,2.0,5.0,2.0,Aparthotel Normandía near the airport #6,766658.88,766658.88,12.99,76665.89,77,12,Bogotá,cop,Medium,4.673137519,-74.105301819,142654
abnb_49804999,49804999,,entire_place,1,1.0,2.0,4.5,204.0,Aparta-Suite Bella and Cozy Close to Airport,755601.3,755601.3,12.0,62966.78,100,12,Bogotá,cop,Low,4.6766,-74.0952,142654
abnb_51991929,51991929,,entire_place,4,2.0,12.0,4.7,60.0,HOUSE FOR GROUPS /FAMILIES/COUPLES,737172.0,21954751.37,6.9,368586.0,29,12,Bogotá,cop,High,4.725,-74.11889,142654
abnb_593658604711239834,593658604711239834,,entire_place,1,1.0,3.0,4.8,52.0,Lindo Apto near airport Simón Bolívar Barato,726114.42,7272386.07,25.0,80679.38,36,12,Bogotá,cop,Medium,4.6708,-74.0978,142654
abnb_651571919185557033,651571919185557033,,private_room,1,1.0,4.0,4.7,6.0,"ºprivate room, 10 min, el dorado airportº",722428.56,722428.56,19.15,80269.84,47,12,Bogotá,cop,Medium,4.6778,-74.1112,142654
vrbo_11411635ha,,11411635ha,entire_place,7,7.0,14.0,4.9,,Beautiful Studio Apartment Close To The Airport!,722428.56,722428.56,3.57,722428.56,28,12,Bogotá,cop,Low,4.699427,-74.12393,142654
abnb_813814749738074860,813814749738074860,,entire_place,2,1.5,8.0,5.0,16.0,House for groups or families.,707685.12,4841856.27,21.88,101097.88,32,12,Bogotá,cop,Low,4.72522,-74.11783,142654
abnb_1509580803234486180,1509580803234486180,,private_room,1,1.0,1.0,4.9,12.0,Room in strategic point Engativá,700313.4,1417360.6,21.62,43769.59,74,12,Bogotá,cop,Low,4.693,-74.11846,142654
abnb_1575404609537499380,1575404609537499380,,entire_place,2,1.0,6.0,5.0,2.0,"Airport apartment, US Embassy Simón Bolívar",689255.82,17035197.17,46.67,98465.11,15,12,Bogotá,cop,Medium,4.6609,-74.1026,142654
abnb_1039227385442080876,1039227385442080876,,entire_place,2,1.0,3.0,4.8,9.0,Cozy independent apartment art gallery,685569.96,2096812.04,18.18,48969.28,77,12,Bogotá,cop,High,4.678,-74.0904,142654
abnb_49513794,49513794,,private_room,1,1.0,2.0,5.0,16.0,La Casa de Andre - Purple Room,685569.96,2600742.82,13.64,114261.66,44,12,Bogotá,cop,Medium,4.6608,-74.1032,142654
abnb_1094462152729522552,1094462152729522552,,private_room,1,1.0,2.0,4.7,6.0,Cozy and central room close to everything in Bogotá,670826.52,670826.52,21.05,33541.33,95,12,Bogotá,cop,Medium,4.7061,-74.1067,142654
abnb_1496529963495100885,1496529963495100885,,entire_place,3,1.0,6.0,,,Light and comfort near Simón Bolivar,667140.66,11333614.06,10.0,222380.22,30,12,Bogotá,cop,Medium,4.683757157,-74.082413837,142654
abnb_807367621852680207,807367621852680207,,entire_place,2,1.0,6.0,3.6,8.0,Luxury apartment,663454.8,663454.8,7.04,132690.96,71,12,Bogotá,cop,Low,4.67945,-74.10863,142654
abnb_1208890078193914764,1208890078193914764,,private_room,2,,2.0,5.0,2.0,The room you're looking for,659768.94,659768.94,12.36,59979.0,89,12,Bogotá,cop,Medium,4.69786,-74.10685,142654
abnb_1362430228771697450,1362430228771697450,,entire_place,1,1.0,4.0,5.0,1.0,Loft | Close to Airport,659768.94,3055577.94,12.35,65976.89,81,12,Bogotá,cop,Medium,4.681725,-74.103534,142654
abnb_1451802254794707157,1451802254794707157,,private_room,1,1.0,2.0,5.0,1.0,Stay with a view and style,648711.36,648711.36,25.49,49900.88,51,12,Bogotá,cop,Low,4.673709393,-74.096278474,142654
abnb_912626689316333915,912626689316333915,,shared_room,2,1.5,10.0,5.0,7.0,"Room in house near Av. C Cali, Movistar, Titan, Med",645025.5,645025.5,20.34,53752.12,59,12,Bogotá,cop,Low,4.67564,-74.10476,142654
abnb_618119032952433038,618119032952433038,,entire_place,3,2.0,4.0,4.8,21.0,Spacious apartment northwest of Bogotá.,645025.5,9416893.14,15.62,129005.1,32,12,Bogotá,cop,Low,4.72961,-74.11713,142654
abnb_1229962275940950809,1229962275940950809,,private_room,1,,2.0,5.0,1.0,bedroom 1,645025.5,645025.5,11.94,80628.19,67,12,Bogotá,cop,Low,4.69362,-74.12036,142654
abnb_1147979248341478808,1147979248341478808,,entire_place,1,2.0,5.0,4.8,12.0,Hermoso Apartamento Normandia,645025.5,2193086.7,11.36,129005.1,44,12,Bogotá,cop,Medium,4.6676,-74.1051,142654
abnb_1026120655173195324,1026120655173195324,11442582ha,entire_place,2,1.0,3.0,3.6,6.0,Hermoso apartamento aeropuerto muy central,641339.64,641339.64,18.18,106889.94,33,12,Bogotá,cop,High,4.695976151,-74.120199457,142654
abnb_992870191449017899,992870191449017899,,private_room,1,2.0,1.0,,,Room in Gran Granada,633967.92,1006313.5,11.43,79245.99,70,12,Bogotá,cop,Medium,4.7249,-74.1333,142654
abnb_1496379253332593910,1496379253332593910,,entire_place,3,1.0,6.0,,,Ideal stay near Simón Bolíva,633967.92,633967.92,6.9,316983.96,29,12,Bogotá,cop,Medium,4.683757157,-74.082413837,142654
abnb_835737132694779351,835737132694779351,,shared_room,1,1.0,6.0,4.7,11.0,"Room in house, cll 63, Claro, Medp, Movistar.",630282.06,630282.06,22.86,39392.63,70,12,Bogotá,cop,Medium,4.6764,-74.1039,142654
abnb_986506193394107263,986506193394107263,,entire_place,4,3.0,10.0,,,Family Field Days (Restrepo-Meta),619224.48,619224.48,100.0,309612.24,2,12,Bogotá,cop,Low,4.69094,-74.08735,142654
abnb_1579051042207630519,1579051042207630519,,private_room,1,1.0,2.0,5.0,1.0,West Air and Ground Terminal III,611852.76,788921.47,100.0,55622.98,11,12,Bogotá,cop,Medium,4.6769,-74.1125,142654
abnb_1461929016574039157,1461929016574039157,,private_room,1,1.0,2.0,5.0,1.0,Furnished room,608166.9,608166.9,15.58,50680.58,77,12,Bogotá,cop,Low,4.674527014,-74.095818432,142654
abnb_551464722714408663,551464722714408663,,entire_place,0,1.0,4.0,4.4,8.0,"Comfortable and cozy, detached apartment",600795.18,600795.18,6.9,75099.4,116,12,Bogotá,cop,Low,4.68609,-74.0853,142654
abnb_1552317094182851241,1552317094182851241,,private_room,1,2.0,2.0,,,Room in Bogotá,597109.32,5827012.93,38.1,37319.33,42,12,Bogotá,cop,Medium,4.692,-74.0968,142654
abnb_1141464746884016032,1141464746884016032,,entire_place,1,2.0,6.0,4.7,11.0,Luxurious and Modern Apartment,586051.74,3860569.76,10.0,195350.58,30,12,Bogotá,cop,Medium,4.6676,-74.1051,142654
abnb_1453236078932569808,1453236078932569808,,entire_place,4,1.0,6.0,,,Comfortable apartment near Metropolis,582365.88,11898914.4,11.43,145591.47,35,12,Bogotá,cop,Medium,4.683757,-74.082414,142654
abnb_1405663210218098466,1405663210218098466,,private_room,1,2.0,2.0,,,Spacious room with bathroom,567622.44,1011215.69,22.86,70952.81,35,12,Bogotá,cop,Medium,4.6672855,-74.1092432,142654
abnb_381043,381043,,private_room,1,1.0,2.0,4.7,3.0,Private Room Near Av. Dorado with Av. Cali,567622.44,567622.44,11.61,43663.27,112,12,Bogotá,cop,Medium,4.6941,-74.1206,142654
abnb_1229967995878639538,1229967995878639538,,private_room,1,,2.0,,,bedroom 2,560250.72,560250.72,11.94,70031.34,67,12,Bogotá,cop,Low,4.6933,-74.11862,142654
abnb_1516158278306082698,1516158278306082698,,entire_place,1,1.0,2.0,,,Modern loft apartment in a prime location.,552879.0,12559936.54,15.62,110575.8,32,12,Bogotá,cop,Medium,4.6732776,-74.1022655,142654
abnb_1422790778547431315,1422790778547431315,,entire_place,1,1.0,3.0,,,studio apartment,549193.14,8709134.3,11.76,91532.19,51,12,Bogotá,cop,Low,4.702160843,-74.130247516,142654
abnb_1483547535882072137,1483547535882072137,,entire_place,1,1.0,2.0,,,Beautiful Loft - Independent Studio Apartment.,530763.84,8619567.9,24.32,58973.76,37,12,Bogotá,cop,High,4.68431,-74.101451,142654
abnb_1253559721650451116,1253559721650451116,,private_room,1,1.0,2.0,4.9,7.0,Bedroom 3 close to el Dorado Airport,527077.98,527077.98,23.08,35138.53,65,12,Bogotá,cop,Low,4.67545,-74.10762,142654
abnb_1514147216381487970,1514147216381487970,,entire_place,1,1.0,1.0,,,Studio 10 minutes from the Airport,523392.12,9812533.35,13.11,65424.01,61,12,Bogotá,cop,Medium,4.6707927,-74.1107541,142654
abnb_1449405017636632358,1449405017636632358,,private_room,0,,2.0,5.0,2.0,Cozy furnished room,519706.26,2751641.92,17.24,51970.63,58,12,Bogotá,cop,Low,4.675146025,-74.097085667,142654
abnb_1451985667661952222,1451985667661952222,,private_room,1,1.0,2.0,,,Kind Home,508648.68,508648.68,24.59,33909.91,61,12,Bogotá,cop,High,4.6764066,-74.1024245,142654
abnb_1229970033987905266,1229970033987905266,,private_room,1,,,5.0,1.0,bedroom 3,501276.96,501276.96,11.94,62659.62,67,12,Bogotá,cop,Low,4.69332,-74.11841,142654
abnb_1565639785209051547,1565639785209051547,,entire_place,2,1.0,4.0,,,Beautiful apartment near the airport,486533.52,20482397.74,36.36,121633.38,11,12,Bogotá,cop,Medium,4.695,-74.1218,142654
abnb_818251304044199449,818251304044199449,,private_room,1,1.0,1.0,5.0,10.0,Comfortable and inviting private room,486533.52,486533.52,10.0,81088.92,60,12,Bogotá,cop,Medium,4.724661886,-74.125357902,142654
abnb_1287309960550911079,1287309960550911079,,entire_place,2,1.0,3.0,4.0,4.0,El Dorado Family Apartment,479161.8,534265.41,5.45,159720.6,55,12,Bogotá,cop,Low,4.709936935,-74.14435526,142654
abnb_857790080114148478,857790080114148478,,private_room,1,1.0,1.0,5.0,7.0,"Privacy, rest for you in a family atmosphere.",464418.36,464418.36,11.11,51602.04,81,12,Bogotá,cop,Medium,4.6727505,-74.1123691,142654
abnb_1137581896430040806,1137581896430040806,,entire_place,2,1.0,2.0,,,"Apartment for rent, great location",453360.78,453360.78,10.0,75560.13,60,12,Bogotá,cop,Low,4.68866,-74.10558,142654
abnb_48525758,48525758,,private_room,0,1.0,2.0,1.0,1.0,Cozy Room in a Gated Community,442303.2,442303.2,52.63,14743.44,57,12,Bogotá,cop,Low,4.71728,-74.12846,142654
abnb_1116636312960090373,1116636312960090373,,private_room,1,1.0,5.0,5.0,5.0,"Bathroom inside the room, house with natural light, Simón Bolivar",427559.76,427559.76,12.5,47506.64,72,12,Bogotá,cop,Low,4.67723,-74.10369,142654
abnb_1081070619575153165,1081070619575153165,,entire_place,2,1.0,7.0,4.4,41.0,Normandy apartment,420188.04,13760236.85,6.82,140062.68,44,12,Bogotá,cop,Low,4.68071,-74.10981,142654
abnb_1550778843463891053,1550778843463891053,,private_room,3,3.0,3.0,,,El Bosque Lodging,412816.32,412816.32,62.5,41281.63,16,12,Bogotá,cop,Low,4.67195,-74.09826,142654
abnb_48144594,48144594,,entire_place,0,0.0,1.0,4.4,8.0,SEÑORIAL SUITES,412816.32,412816.32,10.61,58973.76,66,12,Bogotá,cop,Low,4.69734,-74.1006,142654
abnb_1365593853535292738,1365593853535292738,,private_room,1,6.0,7.0,,,Dorado Country Hostel.,394387.02,753758.37,18.18,65731.17,33,12,Bogotá,cop,Medium,4.6863,-74.1101,142654
abnb_1130493383795538401,1130493383795538401,,entire_place,2,1.0,2.0,4.9,7.0,Departamento en Engativá,375957.72,375957.72,4.65,187978.86,43,12,Bogotá,cop,Medium,4.7014,-74.113,142654
abnb_1472541376501312309,1472541376501312309,,private_room,1,,2.0,4.5,2.0,Private room with bathroom + TV,364900.14,4049506.95,9.52,91225.04,42,12,Bogotá,cop,Low,4.72365,-74.13711,142654
abnb_1158906330838503298,1158906330838503298,,entire_place,1,1.0,2.0,5.0,20.0,ANDUR Apartments,357528.42,13864730.98,50.0,71505.68,10,12,Bogotá,cop,Low,4.680198884,-74.112403303,142654
abnb_1560467466015232201,1560467466015232201,,entire_place,1,1.0,2.0,,,Cozy studio apartment in Bogotá,357528.42,12041336.03,15.62,71505.68,32,12,Bogotá,cop,Low,4.700514161,-74.100131609,142654
abnb_1528285155797062914,1528285155797062914,,private_room,1,1.0,1.0,5.0,1.0,Room near the airport,353842.56,353842.56,18.97,32167.51,58,12,Bogotá,cop,Low,4.7095,-74.11852,142654
abnb_1477280649545580569,1477280649545580569,,private_room,1,1.0,2.0,,,room in Conecta,350156.7,468104.22,15.62,70031.34,32,12,Bogotá,cop,Low,4.68916,-74.11206,142654
abnb_51309318,51309318,,entire_place,3,1.0,5.0,4.9,8.0,Apartment 3- third floor,335413.26,389079.38,8.0,167706.63,25,12,Bogotá,cop,Low,4.68693,-74.11075,142654
abnb_894282558591519602,894282558591519602,,private_room,2,1.0,3.0,5.0,7.0,Cozy room,331727.4,331727.4,7.46,66345.48,67,12,Bogotá,cop,Low,4.72259,-74.13461,142654
vrbo_11806201ha,,11806201ha,entire_place,1,1.0,4.0,,,Complete mini depa- 15 min Airport- 1 floor.,331727.4,331727.4,6.9,165863.7,29,12,Bogotá,cop,Low,4.709412,-74.09672,142654
abnb_1437971749946615285,1437971749946615285,,private_room,1,1.0,1.0,5.0,1.0,Room Airport,328041.54,1461001.19,11.29,46863.08,62,12,Bogotá,cop,High,4.7104,-74.1439,142654
abnb_31274876,31274876,,private_room,2,1.0,3.0,5.0,3.0,Apartment Rooms near El Dorado Airport,324355.68,324355.68,15.15,64871.14,33,12,Bogotá,cop,Medium,4.6863,-74.1128,142654
abnb_1500255927582602901,1500255927582602901,,private_room,3,4.0,6.0,,,Host the Ambassador,316983.96,316983.96,18.18,79245.99,22,12,Bogotá,cop,Medium,4.7032,-74.1312,142654
abnb_1459406539394660470,1459406539394660470,,private_room,2,,2.0,4.5,2.0,Ebenezer room accommodation,316983.96,316983.96,9.8,63396.79,51,12,Bogotá,cop,Low,4.672071819,-74.100333303,142654
abnb_1266211260395140727,1266211260395140727,,private_room,1,1.0,1.0,5.0,1.0,Cattleya Real - White Single Room,313298.1,313298.1,12.82,62659.62,39,12,Bogotá,cop,Low,4.696131884,-74.12144398,142654
abnb_1378665616244873070,1378665616244873070,,private_room,0,1.0,2.0,,,Cozy house,309612.24,309612.24,20.59,44230.32,34,12,Bogotá,cop,Medium,4.705996,-74.130501,142654
abnb_1240210630658848561,1240210630658848561,,entire_place,2,1.0,6.0,4.9,10.0,Apto completo 1er piso en LunaLiving,309612.24,19058771.17,20.0,77403.06,20,12,Bogotá,cop,Medium,4.71401367,-74.137660727,142654
abnb_1505393403198633997,1505393403198633997,,private_room,1,1.0,1.0,5.0,4.0,Accommodation in Gran Granada 30 minutes from the airport,309612.24,309612.24,8.0,51602.04,75,12,Bogotá,cop,Low,4.721608555,-74.13240987,142654
abnb_51309678,51309678,,entire_place,2,1.0,4.0,5.0,6.0,Apartamento 1- first floor,309612.24,309612.24,6.9,154806.12,29,12,Bogotá,cop,Low,4.68536,-74.11116,142654
abnb_1476061069806482461,1476061069806482461,,entire_place,2,1.0,5.0,5.0,1.0,Embassy apartment (CAS) Bogotá,302240.52,8929806.74,12.9,75560.13,31,12,Bogotá,cop,Medium,4.6822847,-74.1146594,142654
abnb_1268444106770702523,1268444106770702523,,private_room,1,1.0,2.0,,,Cattleya Real - Dark Blue Double Room,294868.8,294868.8,10.53,73717.2,38,12,Bogotá,cop,Medium,4.6956769,-74.1211233,142654
abnb_1268415229290583405,1268415229290583405,,private_room,1,1.0,2.0,,,Cattleya Real - Golden Double Room,294868.8,294868.8,10.53,73717.2,38,12,Bogotá,cop,Medium,4.6956769,-74.1211233,142654
abnb_1411058398762837600,1411058398762837600,,entire_place,1,1.0,3.0,,,Loft near the airport,287497.08,5180107.64,12.12,71874.27,33,12,Bogotá,cop,Low,4.688503309,-74.109946291,142654
abnb_1558978715757942656,1558978715757942656,,private_room,1,1.0,2.0,4.0,2.0,Cozy room,283811.22,3961857.2,12.82,56762.24,39,12,Bogotá,cop,Low,4.675128399,-74.095648728,142654
abnb_1075482085317606186,1075482085317606186,,entire_place,1,1.0,4.0,,,Apartment near Titán Plaza,280125.36,280125.36,6.9,140062.68,29,12,Bogotá,cop,Medium,4.690390134,-74.088413939,142654
abnb_1099253466817401909,1099253466817401909,,entire_place,1,1.0,3.0,4.7,3.0,Comfortable loft near the airport,280125.36,280125.36,5.26,93375.12,57,12,Bogotá,cop,Medium,4.6843,-74.1062,142654
abnb_48055680,48055680,,private_room,1,1.0,1.0,4.8,29.0,"Comfortable room, warmth, home, peace, tranquility",276439.5,276439.5,4.46,55287.9,112,12,Bogotá,cop,Medium,4.7118,-74.1152,142654
abnb_1308069460472758399,1308069460472758399,,private_room,1,1.0,2.0,4.8,6.0,Cozy Room Near MedPlus Coliseum!,261696.06,261696.06,6.9,43616.01,87,12,Bogotá,cop,Medium,4.714,-74.1093,142654
abnb_806501442873885123,806501442873885123,,private_room,1,1.0,2.0,5.0,2.0,Central and quiet room,258010.2,258010.2,5.48,64502.55,73,12,Bogotá,cop,Medium,4.6991,-74.0982,142654
vrbo_10816000ha,,10816000ha,entire_place,2,1.0,4.0,,0.0,APARTMENT WITH 24 HOUR SECURITY,250638.48,250638.48,12.9,62659.62,31,12,Bogotá,cop,Low,4.72665,-74.12421,142654
abnb_722710567208964428,722710567208964428,,private_room,2,1.0,3.0,5.0,1.0,private room apt / free gym,246952.62,246952.62,5.26,82317.54,57,12,Bogotá,cop,Medium,4.6897,-74.0936,142654
abnb_1079029742973240877,1079029742973240877,,entire_place,2,1.0,4.0,4.2,20.0,Apartment in Bogota,243266.76,13072897.67,6.9,121633.38,29,12,Bogotá,cop,Low,4.67992,-74.11107,142654
abnb_1086180328353723530,1086180328353723530,,entire_place,2,2.0,5.0,,,Apartment Near to Airport,243266.76,44446200.82,3.57,243266.76,28,12,Bogotá,cop,Low,4.66872,-74.09828,142654
abnb_1256035233754426346,1256035233754426346,,entire_place,1,1.0,3.0,5.0,3.0,"Airbnb Moderno en Bogotá, Equipado y Central",228523.32,228523.32,6.9,114261.66,29,12,Bogotá,cop,Low,4.679723536,-74.089559724,142654
abnb_785744514999243659,785744514999243659,,entire_place,1,1.0,3.0,4.8,12.0,Cute and comfortable apartaestudio,206408.16,8573199.78,6.9,103204.08,29,12,Bogotá,cop,Medium,4.6723,-74.0994,142654
abnb_53835765,53835765,,private_room,1,2.0,2.0,5.0,6.0,"private room with wiffi, office and parking",202722.3,202722.3,11.11,40544.46,45,12,Bogotá,cop,Low,4.69138,-74.0995,142654
abnb_1585098217528826408,1585098217528826408,,entire_place,1,1.0,3.0,,,Executive Apartment Bogotá Airport Area,199036.44,199036.44,100.0,99518.22,2,12,Bogotá,cop,Low,4.708259754,-74.095334128,142654
abnb_855114675874526466,855114675874526466,,private_room,0,1.0,2.0,,,Cozy private room,199036.44,199036.44,6.9,49759.11,58,12,Bogotá,cop,Low,4.71754,-74.12934,142654
abnb_1015568724314436861,1015568724314436861,,entire_place,2,1.0,4.0,4.8,39.0,Comfortable Apartment Close to Airport,199036.44,7725009.68,6.82,66345.48,44,12,Bogotá,cop,Medium,4.7103,-74.1437,142654
abnb_1144196331087036159,1144196331087036159,,private_room,2,2.0,9.0,5.0,4.0,"Room in large house Av. C Cali, terminal, Med, Botan",176921.28,176921.28,4.88,44230.32,82,12,Bogotá,cop,Medium,4.6773,-74.1048,142654
abnb_862327807373481246,862327807373481246,,private_room,1,1.0,1.0,,,Vacation room,165863.7,165863.7,10.0,55287.9,30,12,Bogotá,cop,Low,4.72323,-74.13542,142654
abnb_1333515918003039733,1333515918003039733,,entire_place,1,1.0,2.0,,,Apartaestudio luz y comfort!,165863.7,165863.7,3.57,82931.85,56,12,Bogotá,cop,High,4.727026279,-74.118439831,142654
abnb_1239484190749378096,1239484190749378096,,entire_place,3,1.0,5.0,5.0,6.0,Apartment near the airport,162177.84,162177.84,6.9,81088.92,29,12,Bogotá,cop,Medium,4.7048,-74.1215,142654
abnb_1094109472817013667,1094109472817013667,,private_room,1,1.0,1.0,,,Family friendly!,154806.12,154806.12,12.9,38701.53,31,12,Bogotá,cop,Medium,4.7036,-74.0932,142654
abnb_1201605144073810702,1201605144073810702,,entire_place,1,1.0,3.0,5.0,10.0,Apartment near the airport,151120.26,4366269.76,6.9,75560.13,29,12,Bogotá,cop,Low,4.69223,-74.1085,142654
abnb_903798626932432976,903798626932432976,,entire_place,3,2.0,5.0,4.0,1.0,Hostel Bogotá Kings,143748.54,154806.12,3.85,143748.54,26,12,Bogotá,cop,High,4.6936959,-74.1205958,142654
abnb_1268458520190469377,1268458520190469377,,private_room,1,1.0,2.0,,,Cattleya Real - Red Double Room,140062.68,140062.68,5.56,70031.34,36,12,Bogotá,cop,Medium,4.6956769,-74.1211233,142654
abnb_1338565729472726143,1338565729472726143,,entire_place,1,2.0,4.0,5.0,5.0,Luxury apartaestudio NormandiaT2,132690.96,22101227.45,11.11,132690.96,9,12,Bogotá,cop,Medium,4.6675,-74.1057,142654
abnb_1360126899825934383,1360126899825934383,,private_room,1,1.0,2.0,,,"Room near the airport, with a private bathroom",132690.96,132690.96,10.0,44230.32,30,12,Bogotá,cop,Low,4.680326713,-74.111773174,142654
abnb_812381821465396102,812381821465396102,,private_room,1,1.0,1.0,5.0,10.0,Comfort and warmth in comfortable room,132690.96,132690.96,5.88,44230.32,51,12,Bogotá,cop,Medium,4.7109,-74.118,142654
abnb_1082590504648365463,1082590504648365463,,private_room,1,1.0,2.0,4.0,1.0,Quiet private room near the airport,125319.24,125319.24,6.9,62659.62,29,12,Bogotá,cop,Medium,4.7038,-74.1272,142654
abnb_1168346642141663141,1168346642141663141,,private_room,1,1.0,2.0,5.0,1.0,Room for 2 people,125319.24,125319.24,6.67,62659.62,30,12,Bogotá,cop,Low,4.667662813,-74.105546463,142654
abnb_883517329049399332,883517329049399332,,entire_place,1,1.0,2.0,4.9,48.0,Cozy Apartaestudio CAS-BOG,125319.24,18872966.97,2.56,125319.24,39,12,Bogotá,cop,Low,4.67812,-74.11586,142654
abnb_782121148315226357,782121148315226357,,private_room,1,1.0,1.0,,,I'm hosting one person in Bogotá.,121633.38,121633.38,10.0,40544.46,30,12,Bogotá,cop,Medium,4.725,-74.1152,142654
abnb_1128766857526836445,1128766857526836445,,private_room,1,1.0,3.0,4.5,2.0,Room for a family group.,117947.52,117947.52,6.9,58973.76,29,12,Bogotá,cop,Low,4.67189,-74.11213,142654
abnb_1511394322731068667,1511394322731068667,,private_room,1,1.0,2.0,,,"Spacious, bright and central room in Bogotá",110575.8,110575.8,10.0,36858.6,30,12,Bogotá,cop,Medium,4.6772,-74.1049,142654
abnb_1490630594939022064,1490630594939022064,,entire_place,1,1.0,2.0,3.0,2.0,Peace and love Flat Bogotown,110575.8,6084507.11,7.14,55287.9,28,12,Bogotá,cop,Low,4.712488646,-74.096167708,142654
abnb_807409800749477627,807409800749477627,,entire_place,1,1.0,2.0,5.0,2.0,Studio apartment in a common neighborhood of Bogotá. Private,110575.8,110575.8,6.9,55287.9,29,12,Bogotá,cop,Low,4.71806,-74.13243,142654
abnb_918190890831959380,918190890831959380,,private_room,1,1.0,1.0,,,Comfortable room and private bathroom,110575.8,110575.8,6.9,55287.9,29,12,Bogotá,cop,Low,4.71476,-74.12774,142654
abnb_1569195211652081340,1569195211652081340,,entire_place,1,1.0,2.0,,,Practical Loft ideal for a stopover near the Airport,110575.8,110575.8,4.76,110575.8,21,12,Bogotá,cop,Medium,4.678096,-74.1035476,142654
abnb_928596519325281805,928596519325281805,,entire_place,2,1.0,1.0,4.0,4.0,"Perfect, new, near the airport",110575.8,157902.24,3.64,55287.9,55,12,Bogotá,cop,Low,4.67767,-74.09257,142654
abnb_1388541244098549058,1388541244098549058,,entire_place,1,1.0,4.0,,,Loft Premium,106889.94,106889.94,3.57,106889.94,28,12,Bogotá,cop,Medium,4.702,-74.1305,142654
abnb_1580524617549496529,1580524617549496529,,entire_place,2,1.0,3.0,5.0,6.0,Apartment near the airport,103204.08,103204.08,33.33,103204.08,3,12,Bogotá,cop,Medium,4.6892,-74.108,142654
abnb_25980971,25980971,,private_room,1,1.0,3.0,,,Charming private room near the airport,103204.08,103204.08,6.9,51602.04,29,12,Bogotá,cop,Medium,4.7038,-74.1273,142654
abnb_53834781,53834781,,private_room,1,2.5,2.0,5.0,6.0,"room in Apto with, work table, wifi, etc",103204.08,103204.08,4.88,51602.04,41,12,Bogotá,cop,Low,4.69286,-74.10129,142654
abnb_807609880552854781,807609880552854781,,private_room,1,1.0,2.0,,,Private room in a house.,103204.08,2743164.45,3.57,103204.08,28,12,Bogotá,cop,Low,4.70715,-74.09815,142654
abnb_1429215742245900293,1429215742245900293,,private_room,1,1.0,2.0,,,Dorado Airport Rooms,103204.08,103204.08,3.57,51602.04,56,12,Bogotá,cop,Medium,4.702719,-74.130993,142654
abnb_1360174719293962087,1360174719293962087,,private_room,1,1.0,2.0,,,Spacious room,99518.22,99518.22,6.45,49759.11,31,12,Bogotá,cop,Low,4.682343742,-74.112497706,142654
abnb_3859182,3859182,,private_room,1,1.0,3.0,4.1,27.0,Hostel Deportel Bogota,95832.36,95832.36,6.9,47916.18,29,12,Bogotá,cop,Medium,4.68239,-74.09565,142654
abnb_867672829561812870,867672829561812870,,entire_place,1,1.0,2.0,4.0,2.0,In a common neighborhood of Bogotá,95832.36,95832.36,6.9,47916.18,29,12,Bogotá,cop,Low,4.71823,-74.13323,142654
abnb_878592841999443769,878592841999443769,,private_room,0,1.0,2.0,5.0,3.0,Private room hosted by Caro,95832.36,257531.04,6.9,47916.18,29,12,Bogotá,cop,Medium,4.7259,-74.1123,142654
abnb_1141363106964396681,1141363106964396681,,entire_place,2,1.0,2.0,,,Departamento en Engativá,95832.36,2455667.37,3.57,95832.36,28,12,Bogotá,cop,Low,4.70119,-74.1119,142654
abnb_827690206204754903,827690206204754903,,entire_place,1,1.0,2.0,4.8,124.0,Loft Normandia,92146.5,17928502.2,100.0,92146.5,1,12,Bogotá,cop,Low,4.66734,-74.10836,142654
abnb_36270241,36270241,,private_room,2,1.0,1.0,5.0,14.0,Comfortable room near to airport,88460.64,88460.64,3.57,88460.64,28,12,Bogotá,cop,Low,4.69654,-74.08546,142654
abnb_47515946,47515946,,entire_place,1,1.0,2.0,3.2,9.0,Partaestudio202 People's Forest,81088.92,3793671.41,6.9,40544.46,29,12,Bogotá,cop,Low,4.67197,-74.09621,142654
abnb_39699378,39699378,,private_room,1,1.0,2.0,5.0,25.0,"""My Little Mansion"" Family Home",81088.92,81088.92,6.9,40544.46,29,12,Bogotá,cop,Low,4.70633,-74.11537,142654
abnb_1567415487132946737,1567415487132946737,,entire_place,1,1.0,2.0,4.8,4.0,Classic apartment with a unique and elegant style,77403.06,77403.06,5.26,77403.06,19,12,Bogotá,cop,Low,4.71574,-74.10218,142654
abnb_958880891508817945,958880891508817945,,private_room,1,1.0,2.0,5.0,26.0,Cozy room,73717.2,613216.53,6.9,36858.6,29,12,Bogotá,cop,Low,4.72718,-74.11707,142654
abnb_880407734665529481,880407734665529481,,private_room,1,1.0,2.0,4.9,8.0,Room with private bathroom,70031.34,641376.5,7.14,70031.34,14,12,Bogotá,cop,Low,4.72319,-74.1297,142654
abnb_1375437832404952506,1375437832404952506,,private_room,5,3.5,10.0,,,Cozy house,70031.34,70031.34,3.57,70031.34,28,12,Bogotá,cop,Medium,4.705996,-74.130501,142654
abnb_906000096190588409,906000096190588409,,private_room,2,1.0,2.0,4.7,30.0,Bogotá Stay & Fly  #1,58973.76,58973.76,3.57,58973.76,28,12,Bogotá,cop,Low,4.70141,-74.13096,142654
abnb_1373910062740943112,1373910062740943112,,entire_place,1,1.0,4.0,4.0,1.0,Apartment 10 minutes from El Dorado Airport,58973.76,58973.76,3.57,58973.76,28,12,Bogotá,cop,Low,4.70019,-74.12886,142654
abnb_1015180686857324455,1015180686857324455,,private_room,1,1.0,2.0,5.0,1.0,House Beautiful Horizon,58973.76,58973.76,3.57,58973.76,28,12,Bogotá,cop,Low,4.67475,-74.09127,142654
abnb_1282730955177026398,1282730955177026398,,private_room,1,,2.0,,,Anis Guest House,58973.76,58973.76,2.63,58973.76,38,12,Bogotá,cop,Medium,4.6724,-74.1133,142654
abnb_1076745189581419259,1076745189581419259,,private_room,1,1.0,1.0,3.0,1.0,Total Peace of Mind,55287.9,55287.9,3.57,55287.9,28,12,Bogotá,cop,Low,4.70336,-74.09292,142654
abnb_1444957770376422800,1444957770376422800,,private_room,0,,2.0,,,Your retreat with a view and style.,44230.32,44230.32,3.57,44230.32,28,12,Bogotá,cop,Low,4.674208451,-74.097445246,142654
abnb_846973144494968772,846973144494968772,,private_room,0,1.0,1.0,5.0,1.0,Private room hosted by Caro,36858.6,36858.6,3.57,36858.6,28,12,Bogotá,cop,Medium,4.7259,-74.1123,142654
abnb_946502542302732254,946502542302732254,,private_room,1,1.0,1.0,5.0,2.0,Comfortable room,33172.74,827733.58,5.56,33172.74,18,12,Bogotá,cop,Medium,4.7183804,-74.1220867,142654
abnb_1274270640758471060,1274270640758471060,,private_room,1,1.0,2.0,,,Cattleya Real - Room Double Light Blue,0.0,0.0,0.0,0.0,7,12,Bogotá,cop,Medium,4.6957,-74.1211,142654
abnb_1174727917652546391,1174727917652546391,,entire_place,4,3.0,8.0,4.8,5.0,Big house is nearby family airport - friends,0.0,13210453.97,0.0,0.0,21,12,Bogotá,cop,High,4.70668,-74.11187,142654
abnb_1149259131537842130,1149259131537842130,,entire_place,1,2.0,4.0,4.9,15.0,Spectacular Apto Normandy,0.0,2825211.69,0.0,0.0,10,12,Bogotá,cop,High,4.6676,-74.1051,142654
abnb_1201364990833251204,1201364990833251204,,private_room,1,1.0,2.0,5.0,7.0,Bedroom 1 close to el Dorado Airport,0.0,94358.02,0.0,0.0,27,12,Bogotá,cop,Low,4.675379659,-74.109842154,142654
abnb_996622969914337189,996622969914337189,11410892ha,entire_place,1,1.0,2.0,5.0,3.0,Magnificent aparthouse,0.0,2312840.29,0.0,0.0,27,12,Bogotá,cop,Low,4.70065,-74.09985,142654
abnb_606661319297937681,606661319297937681,,entire_place,1,1.0,2.0,4.8,39.0,Apartastudio Bogota,0.0,5457837.2,0.0,0.0,27,12,Bogotá,cop,High,4.6981,-74.1123,142654
abnb_892699258085319299,892699258085319299,,entire_place,3,2.0,7.0,4.9,28.0,Apartment near the airport,0.0,8496644.47,0.0,0.0,27,12,Bogotá,cop,Low,4.69786,-74.10667,142654
abnb_1181436134296870611,1181436134296870611,,entire_place,0,1.0,2.0,4.7,6.0,Apartment in Bogotá,0.0,1506853.29,0.0,0.0,16,12,Bogotá,cop,Medium,4.7087,-74.1332,142654
abnb_661517259833880677,661517259833880677,,entire_place,3,2.0,6.0,4.9,22.0,entire apartment near el dorado airport,0.0,33074917.28,0.0,0.0,25,12,Bogotá,cop,Medium,4.6733,-74.1145,142654
abnb_1081206401186360216,1081206401186360216,,entire_place,2,1.0,4.0,,,"Apartment in Normandy, 10 minutes from the Airport",0.0,16948837.47,0.0,0.0,27,12,Bogotá,cop,Medium,4.6736,-74.111,142654
abnb_1186873970069808455,1186873970069808455,,private_room,1,1.0,3.0,5.0,2.0,Stay & Fly #3,0.0,388747.65,0.0,0.0,27,12,Bogotá,cop,Low,4.70155,-74.13097,142654
abnb_1247339075155632139,1247339075155632139,,entire_place,3,2.0,6.0,,,Andean Encanto,0.0,0.0,0.0,0.0,11,12,Bogotá,cop,Medium,4.6706,-74.1027,142654
abnb_1140796328455788883,1140796328455788883,,entire_place,1,1.0,2.0,3.0,2.0,Welcoming Private Apartment,0.0,3001801.24,0.0,0.0,9,12,Bogotá,cop,High,4.7048,-74.1303,142654
abnb_1268146747303995600,1268146747303995600,,entire_place,2,1.0,4.0,5.0,1.0,Apartment near the airport,0.0,15422264.84,0.0,0.0,27,12,Bogotá,cop,High,4.674085246,-74.111291907,142654
abnb_1128168897266197013,1128168897266197013,,entire_place,2,1.0,4.0,,,"Apartment in Normandy, 10 minutes from the Airport",0.0,16238019.37,0.0,0.0,27,12,Bogotá,cop,Low,4.67263,-74.11031,142654
abnb_42377177,42377177,,entire_place,1,1.0,1.0,,,Apartaestudios 100% furnished for one person,0.0,0.0,0.0,0.0,27,12,Bogotá,cop,Low,4.70288,-74.09593,142654
abnb_1252185946717647257,1252185946717647257,,private_room,1,1.0,2.0,4.0,2.0,Bedroom 2 close to el Dorado Airport,0.0,0.0,0.0,0.0,21,12,Bogotá,cop,Medium,4.6749,-74.1088,142654
abnb_1274290368601217536,1274290368601217536,,private_room,1,1.0,2.0,,,Cattleya Real - Purple Double Room,0.0,0.0,0.0,0.0,7,12,Bogotá,cop,Medium,4.6956769,-74.1211233,142654
abnb_1128177224643172590,1128177224643172590,,entire_place,2,1.0,4.0,5.0,1.0,"Apartment in Normandy, 10 minutes from the Airport",0.0,16646781.25,0.0,0.0,27,12,Bogotá,cop,Low,4.67476,-74.1119,142654
abnb_806552542247025377,806552542247025377,,entire_place,1,1.0,2.0,4.9,147.0,Comfortable Loft 10 min from Airport and US Embassy CAS,19490827.68,20969373.56,69.55,83651.62,335,12,Bogotá,cop,Medium,4.686,-74.11,142654
abnb_43743550,43743550,,entire_place,1,1.0,3.0,4.8,87.0,"Flat WIFI, Mall Titan Plaza-Your home away from home",19453969.08,20169799.95,71.26,80057.49,341,12,Bogotá,cop,High,4.6978,-74.0908,142654
abnb_1347153712821400430,1347153712821400430,,entire_place,1,1.0,2.0,4.7,30.0,Apartaestudio Botanical Garden,19406052.9,20603109.65,81.9,72681.84,326,12,Bogotá,cop,Medium,4.6698,-74.0979,142654
abnb_45785151,45785151,,entire_place,1,1.0,3.0,4.9,41.0,Charming furnished apartment in great location,19406052.9,21527707.63,36.73,163076.08,324,12,Bogotá,cop,Medium,4.6701,-74.1055,142654
abnb_1102562131199515351,1102562131199515351,,entire_place,4,3.0,15.0,4.5,8.0,Normandy house for groups,19376566.02,19547700.5,41.86,215295.17,215,12,Bogotá,cop,Low,4.67271,-74.11314,142654
abnb_644379856795110295,644379856795110295,,entire_place,3,2.0,6.0,4.8,37.0,"Great Apartment Bogota. Conecta 26, Airport",19313906.4,19313906.4,59.76,98540.34,328,12,Bogotá,cop,High,4.67946,-74.1106,142654
abnb_1295877536660776798,1295877536660776798,,entire_place,1,1.0,2.0,5.0,4.0,Beautiful loft near the airport,19074325.5,19074325.5,72.88,71707.99,365,12,Bogotá,cop,High,4.689659075,-74.109143557,142654
abnb_25167657,25167657,,entire_place,1,1.0,4.0,4.9,22.0,"modern, super price, comfortable, perfect location",19041152.76,19313869.54,83.29,63682.79,359,12,Bogotá,cop,Low,4.68538,-74.10059,142654
abnb_29660813,29660813,,entire_place,1,1.0,3.0,4.9,365.0,Air and land terminal west IV,19026409.32,19026409.32,85.48,60982.08,365,12,Bogotá,cop,High,4.67667,-74.11366,142654
abnb_1453994025356706315,1453994025356706315,,entire_place,3,1.0,5.0,4.6,14.0,Beautiful Apartment Calle 80 in Bogota,18937948.68,28152967.27,73.33,156511.97,165,12,Bogotá,cop,Low,4.68456,-74.08194,142654
abnb_24767472,24767472,4988930ha,entire_place,2,1.0,4.0,4.9,112.0,Cozy apartment near Airport El Dorado,18904775.94,20261172.42,98.21,57287.2,336,12,Bogotá,cop,Medium,4.6941,-74.117,142654
abnb_31071588,31071588,,entire_place,2,1.0,3.0,4.7,109.0,Apartment near Airport: 2 bedrooms,18897404.22,19154234.94,67.79,78088.45,357,12,Bogotá,cop,Low,4.67448,-74.10676,142654
abnb_913951806109515198,913951806109515198,,entire_place,1,1.0,4.0,4.7,13.0,Independent studio apartment in Bogota,18893718.36,19461672.53,81.36,65603.18,354,12,Bogotá,cop,Medium,4.698,-74.0926,142654
abnb_27246949,27246949,10810087ha,entire_place,2,1.0,5.0,4.7,358.0,airport US embassy take photos fingerprints visa,18882660.78,19112068.71,79.78,65564.8,361,12,Bogotá,cop,Low,4.70539,-74.12399,142654
abnb_879770495581808205,879770495581808205,,entire_place,2,1.0,5.0,4.7,57.0,Nice and comfortable apartment near the airport,18867917.34,18926891.1,45.05,115048.28,364,12,Bogotá,cop,Low,4.6948,-74.12139,142654
abnb_1440533754708795575,1440533754708795575,,entire_place,2,1.0,3.0,4.9,38.0,Apartment located in a downtown area near the airport,18786828.42,27113407.31,79.58,123597.55,191,12,Bogotá,cop,Medium,4.6891,-74.1079,142654
abnb_1252989291109701534,1252989291109701534,,entire_place,3,1.0,6.0,4.5,6.0,Cozy apartment near the airport,18720482.94,20826804.5,77.78,76410.13,315,12,Bogotá,cop,High,4.7052,-74.1311,142654
abnb_661021421867557150,661021421867557150,,entire_place,2,1.0,4.0,4.7,118.0,A beautiful apartment near the airport,18639394.02,20077764.03,77.84,71689.98,334,12,Bogotá,cop,Medium,4.6776151,-74.1049899,142654
abnb_44666435,44666435,,entire_place,2,1.0,5.0,4.7,40.0,Apto frente al CAS aeropuerto 201/202/302,18635708.16,18976981.94,67.61,77648.79,355,12,Bogotá,cop,High,4.6823,-74.1148,142654
abnb_1261148187506996760,1261148187506996760,,entire_place,1,1.0,3.0,4.9,15.0,"your perfect place ""80""",18617278.86,18722768.17,44.35,115635.27,363,12,Bogotá,cop,Low,4.703247862,-74.10298174,142654
abnb_1320346735286549310,1320346735286549310,,entire_place,1,1.0,3.0,4.9,30.0,Aparta private study,18539875.8,18539875.8,57.14,89134.02,364,12,Bogotá,cop,High,4.7062,-74.116,142654
abnb_865297035242694425,865297035242694425,11264320ha,entire_place,2,2.0,4.0,4.9,48.0,SantaMaria Apartment,18539875.8,18591588.42,48.48,115874.22,330,12,Bogotá,cop,High,4.70622,-74.09694,142654
abnb_1374125146250633329,1374125146250633329,,entire_place,1,1.0,4.0,4.9,47.0,"Cozy, central and 100% independent apartment",18521446.5,21302907.03,76.76,84960.76,284,12,Bogotá,cop,Low,4.670241001,-74.110100166,142654
abnb_41401152,41401152,,entire_place,1,1.0,3.0,4.9,70.0,"Charming LOFT-style apartment, central - Wi-Fi",18488273.76,18617131.43,89.5,57062.58,362,12,Bogotá,cop,Low,4.67764,-74.08729,142654
abnb_50260909,50260909,,entire_place,1,1.0,3.0,4.8,59.0,"Long stay special, studio apartmennt / Titan Plaza",18477216.18,18926080.21,89.64,57741.3,357,12,Bogotá,cop,Low,4.69226,-74.09402,142654
abnb_41746625,41746625,,private_room,9,10.0,2.0,5.0,22.0,Mr. Guest/ HAB 501 Near Airport and Terminal,18466158.6,18466158.6,77.81,65021.68,365,12,Bogotá,cop,Medium,4.6687,-74.1095,142654
abnb_1018944273154673924,1018944273154673924,,entire_place,2,1.0,3.0,4.9,23.0,"Safe, modern and family-friendly",18414556.56,18438182.92,52.47,96411.29,364,12,Bogotá,cop,Low,4.73118,-74.11871,142654
abnb_990021414570828983,990021414570828983,,entire_place,2,1.0,3.0,4.7,75.0,"Central, comfortable and affordable",18410870.7,18792504.64,57.06,96899.32,333,12,Bogotá,cop,Medium,4.6886,-74.1115,142654
abnb_36424885,36424885,2702131,entire_place,2,1.0,4.0,4.6,30.0,Beautiful apartment 2 Bedrooms 102,18355582.8,18355582.8,63.01,79806.88,365,12,Bogotá,cop,Low,4.7,-74.09958,142654
abnb_1110428470588751625,1110428470588751625,,entire_place,3,2.0,4.0,5.0,31.0,Beauty and Cozy apartment !,18167603.94,20739744.48,56.47,189245.87,170,12,Bogotá,cop,Medium,4.6641,-74.1096,142654
abnb_32966606,32966606,,private_room,1,1.0,2.0,4.7,239.0,West Air and Ground Terminal I,18071771.58,18071771.58,84.66,58484.7,365,12,Bogotá,cop,Low,4.67777,-74.11185,142654
abnb_727610031510553767,727610031510553767,,entire_place,1,1.0,2.0,5.0,21.0,Cozy studio apartment near the airport-Bogotá,18068085.72,18110325.68,88.24,60226.95,340,12,Bogotá,cop,Low,4.68596,-74.11006,142654
abnb_1278251523289738635,1278251523289738635,,entire_place,2,1.0,5.0,4.9,20.0,Cozy private apartment near the airport,18034912.98,18088210.52,55.49,89281.75,364,12,Bogotá,cop,Medium,4.7101,-74.1405,142654
abnb_1502362799336859633,1502362799336859633,,entire_place,4,3.0,7.0,5.0,4.0,5. Airport CAS Family House,18016483.68,31872294.87,49.53,339933.67,107,12,Bogotá,cop,Low,4.696931755,-74.109578446,142654
abnb_871959552584124785,871959552584124785,,entire_place,1,2.0,2.0,4.2,18.0,Cute apartamento,17986996.8,20212261.06,95.87,59559.59,315,12,Bogotá,cop,Medium,4.7198,-74.1282,142654
abnb_1150879172271467446,1150879172271467446,,entire_place,2,1.5,4.0,,,Modern apartment near the airport,17968567.5,17968567.5,100.0,143748.54,125,12,Bogotá,cop,Low,4.67459,-74.11569,142654
abnb_883005664599866502,883005664599866502,,entire_place,2,1.0,8.0,4.7,83.0,Comfort home,17953824.06,17953824.06,50.96,96525.93,365,12,Bogotá,cop,Medium,4.6947,-74.1215,142654
abnb_53547567,53547567,,entire_place,1,1.0,2.0,4.8,115.0,Affordable studio with everything you need,17942766.48,18251752.12,75.98,65966.05,358,12,Bogotá,cop,Medium,4.6843,-74.0851,142654
abnb_32447105,32447105,,private_room,1,1.5,2.0,4.7,116.0,Av26/Airport/Buses/Breakfast/SelfCheckIn/SmartTv,17931708.9,17931708.9,63.01,77963.95,365,12,Bogotá,cop,Low,4.6669,-74.10573,142654
abnb_43487927,43487927,,entire_place,1,1.0,3.0,4.8,81.0,"Flat WIFI, Mall Titan Plaza",17880106.86,18566856.3,61.76,85143.37,340,12,Bogotá,cop,Low,4.69724,-74.09176,142654
abnb_45897383,45897383,2352760,entire_place,1,1.0,3.0,4.9,96.0,"Apartment home away in Bogotá, Colombia.",17854305.84,17985411.88,33.98,145156.96,362,12,Bogotá,cop,Low,4.67053,-74.10607,142654
abnb_899458768798415325,899458768798415325,,entire_place,1,1.0,3.0,4.8,246.0,ºUnique Style and Comfortº,17824818.96,18004762.65,40.33,122087.8,362,12,Bogotá,cop,Medium,4.6766,-74.1119,142654
vrbo_11919623ha,,11919623ha,entire_place,1,1.0,2.0,,,Studio apartment,17732672.46,23129656.11,98.62,124004.7,145,12,Bogotá,cop,Low,4.684821,-74.11833,142654
abnb_842938988814224061,842938988814224061,,entire_place,0,2.0,4.0,4.8,9.0,"The Cortijo Puente de Guaduas, for family",17725300.74,17725300.74,59.94,94787.71,312,12,Bogotá,cop,Low,4.72446,-74.12135,142654
abnb_40057231,40057231,,entire_place,2,2.0,5.0,4.6,166.0,"Entire apartment near CAN airport, Embassy A",17725300.74,18275857.65,53.41,94283.51,352,12,Bogotá,cop,Low,4.67809,-74.10881,142654
abnb_977725512943080032,977725512943080032,,entire_place,3,2.0,6.0,4.7,91.0,"Spacious, safe and private apartment",17721614.88,18011065.47,50.42,97909.47,359,12,Bogotá,cop,Medium,4.6987,-74.1067,142654
abnb_771984421544839682,771984421544839682,,entire_place,1,1.0,2.0,5.0,10.0,Cozy studio apartment near the airport - Bogotá,17714243.16,18382600.15,82.49,63720.3,337,12,Bogotá,cop,Medium,4.6868,-74.1092,142654
abnb_895260016867730795,895260016867730795,,private_room,1,1.0,2.0,4.7,14.0,(B10) Room near the airport,17692128.0,17692128.0,86.85,55811.13,365,12,Bogotá,cop,Low,4.66875,-74.10649,142654
abnb_735358614240267292,735358614240267292,,entire_place,1,1.0,2.0,4.8,117.0,Comfortable and Independent  Apartment,17677384.56,17677384.56,72.88,66456.33,365,12,Bogotá,cop,Low,4.68345,-74.08399,142654
abnb_53998500,53998500,,entire_place,2,1.0,5.0,4.9,70.0,Entire apartment with parking - 700mbps WiFi,17677384.56,18542087.32,51.05,103984.62,333,12,Bogotá,cop,Low,4.72123,-74.11738,142654
abnb_579232254624820810,579232254624820810,,entire_place,1,1.0,2.0,5.0,18.0,Charming studio apartment near the airport,17537321.88,17599318.05,91.71,52823.26,362,12,Bogotá,cop,Low,4.68685,-74.10389,142654
abnb_1175413508136424917,1175413508136424917,,entire_place,2,1.0,5.0,5.0,5.0,APT Full 3 Floor WiFi 500 Mbps,17485719.84,18481712.93,90.32,56771.82,341,12,Bogotá,cop,Medium,4.714,-74.1377,142654
abnb_45786932,45786932,,entire_place,1,1.0,3.0,4.9,38.0,Attractive and luxury apartment in Bogotá,17485719.84,17895771.77,37.36,131471.58,356,12,Bogotá,cop,Medium,4.6701,-74.1055,142654
abnb_588377110039329219,588377110039329219,,entire_place,1,1.0,2.0,4.9,117.0,Cozy Studio Apartment with a Terrace,17404630.92,17559031.6,74.24,64942.66,361,12,Bogotá,cop,Low,4.68461,-74.08606,142654
abnb_836367589906583711,836367589906583711,,entire_place,1,1.0,2.0,4.7,69.0,Comfort and Location: Near MedPlus and Airport,17400945.06,17955261.55,81.02,60842.46,353,12,Bogotá,cop,Medium,4.7131,-74.1228,142654
abnb_607127802307990724,607127802307990724,,entire_place,1,1.0,2.0,4.8,108.0,Strategic Studio with Everything You Need,17353028.88,17492980.98,77.9,61535.57,362,12,Bogotá,cop,Low,4.6836,-74.08571,142654
abnb_45943533,45943533,,entire_place,2,2.5,7.0,5.0,68.0,Close to El Salitre Sports Unit and Airport,17349343.02,17637319.26,48.04,100868.28,358,12,Bogotá,cop,Low,4.67196,-74.09742,142654
abnb_41775312,41775312,,private_room,1,1.0,3.0,4.9,26.0,Mr. Guest/ HAB 301 Near Airport and Terminal,17341971.3,17341971.3,72.88,65195.38,365,12,Bogotá,cop,Medium,4.6687,-74.1095,142654
abnb_728352066117812249,728352066117812249,,entire_place,1,1.0,2.0,4.8,88.0,Private loft near El Dorado Airport Bogotá DC,17316170.28,17651546.68,69.27,69823.27,358,12,Bogotá,cop,High,4.67693,-74.10318,142654
abnb_1066727353536443510,1066727353536443510,,entire_place,2,1.0,5.0,4.7,66.0,Nice apartment near the airport and CAS,17268254.1,17314953.95,43.57,115894.32,342,12,Bogotá,cop,High,4.6951,-74.1217,142654
abnb_606031806818339234,606031806818339234,,entire_place,1,1.0,2.0,4.9,127.0,"Cozy, Comfortable and Strategic Studio",17212966.2,17212966.2,76.44,61695.22,365,12,Bogotá,cop,Medium,4.6843,-74.0851,142654
vrbo_11868824ha,,11868824ha,entire_place,4,3.5,12.0,5.0,,"Luxury house in Bogota, Col, central, patio, fireplace, bbq, jacuzzi, 12 people",17198222.76,20021775.81,54.79,429955.57,73,12,Bogotá,cop,Low,4.672977,-74.10398,142654
abnb_1147023548961793418,1147023548961793418,,entire_place,2,1.0,7.0,4.1,26.0,Studio apartment near the airport,17069217.66,17344330.25,34.92,155174.71,315,12,Bogotá,cop,Low,4.68041,-74.10824,142654
abnb_1292005261670997568,1292005261670997568,,entire_place,2,1.0,4.0,4.7,18.0,"New, near the airport, Movistar Arena Elegant",17050788.36,17050788.36,79.18,58999.27,365,12,Bogotá,cop,Low,4.681832291,-74.085862097,142654
vrbo_11946873ha,,11946873ha,entire_place,3,2.5,8.0,4.9,,Ideal for families/groups House 8 pax with 2 parking spaces near El Dorado Airport.,17017615.62,31795960.71,56.32,347298.28,87,12,Bogotá,cop,Low,4.674605,-74.10425,142654
abnb_928503110501775090,928503110501775090,,entire_place,3,2.0,6.0,5.0,4.0,Home in Engativá w/garage - 3km from airport,16954956.0,17133425.34,66.14,102138.29,251,12,Bogotá,cop,Low,4.6973,-74.12541,142654
abnb_1416243552611018527,1416243552611018527,,entire_place,1,1.0,2.0,,,Entire home Normandy,16892296.38,22681308.1,81.78,87524.86,236,12,Bogotá,cop,Medium,4.6675,-74.1057,142654
abnb_876797614920971336,876797614920971336,3647451,entire_place,2,1.0,4.0,4.8,53.0,"Beautiful New apartment near airport, Movistar arena",16884924.66,16884924.66,75.07,61623.82,365,12,Bogotá,cop,High,4.683,-74.0863,142654
abnb_1226746849334849444,1226746849334849444,,entire_place,1,1.0,2.0,5.0,13.0,The Best Apartaestudio,16840694.34,17151817.78,72.27,65274.01,357,12,Bogotá,cop,Medium,4.6844,-74.0859,142654
abnb_24656048,24656048,,entire_place,2,2.0,5.0,4.8,66.0,Comfort,16803835.74,18407664.0,87.25,62935.72,306,12,Bogotá,cop,Medium,4.6941,-74.1081,142654
abnb_33531873,33531873,,entire_place,1,1.0,3.0,4.8,212.0,Cómodo Apto en Normandia a 10 min del Aeropuerto,16781720.58,16865500.18,52.81,104885.75,303,12,Bogotá,cop,High,4.67052,-74.11228,142654
abnb_1333575293814950278,1333575293814950278,,entire_place,1,1.0,4.0,5.0,13.0,Loft cerca al Aeropuerto,16763291.28,16763291.28,66.96,73202.15,342,12,Bogotá,cop,High,4.673299812,-74.112355878,142654
abnb_36391468,36391468,,entire_place,4,2.0,7.0,4.9,9.0,Casa grande central,16645343.76,16919055.72,58.16,202991.99,141,12,Bogotá,cop,Low,4.70111,-74.09316,142654
abnb_1412367185105224083,1412367185105224083,11873625ha,entire_place,1,2.0,6.0,4.8,16.0,Comfortable Loft with Parking + Self check-in ·El Dorado,16626914.46,16626914.46,38.6,200324.26,215,12,Bogotá,cop,High,4.6675,-74.1057,142654
abnb_1000591714925674193,1000591714925674193,,entire_place,1,1.0,2.0,4.7,181.0,Loft near the airport 301,16586370.0,16586370.0,61.37,74046.29,365,12,Bogotá,cop,Low,4.67301,-74.09748,142654
abnb_51225163,51225163,,private_room,2,1.0,4.0,4.9,49.0,Comfortable Bed and Breakfast family atmosphere minutes from the Airport,16578998.28,16578998.28,60.33,75703.19,363,12,Bogotá,cop,Low,4.69161,-74.11317,142654
abnb_982967671276596675,982967671276596675,,entire_place,1,1.0,2.0,4.8,91.0,Loft 301 - Close to the Airport and MedPlus Coliseum,16556883.12,17054658.51,73.73,63436.33,354,12,Bogotá,cop,Medium,4.7132,-74.1231,142654
abnb_1032917443604529070,1032917443604529070,,private_room,1,1.0,2.0,4.9,146.0,Private Room 302 Near the Airport,16453679.04,16453679.04,81.64,55213.69,365,12,Bogotá,cop,Medium,4.7114,-74.1441,142654
abnb_42720350,42720350,,entire_place,4,2.0,12.0,4.5,37.0,"Second floor in Casa de Rosa, 10 minutes from the airport",16416820.44,16995721.61,33.88,159386.6,304,12,Bogotá,cop,Low,4.67581,-74.1089,142654
abnb_1282796252122504072,1282796252122504072,,entire_place,1,1.0,2.0,4.8,32.0,BogoLoft 101 Near airport and Medplus Coliseum,16402077.0,16973237.87,78.41,59427.81,352,12,Bogotá,cop,Medium,4.7132,-74.123,142654
abnb_939688908609795879,939688908609795879,,entire_place,1,1.0,3.0,4.8,85.0,New apartment near the airport with parking.,16402077.0,16486741.2,42.66,106507.0,361,12,Bogotá,cop,Low,4.68795,-74.10429,142654
abnb_1150379914560348393,1150379914560348393,,entire_place,3,1.0,6.0,4.9,32.0,"Apartamento en NalaLiving 3H,C,B",16379961.84,16746446.9,68.1,69113.76,348,12,Bogotá,cop,Low,4.71279,-74.13915,142654
abnb_1274539526219242181,1274539526219242181,,entire_place,2,1.0,6.0,4.9,32.0,Beautiful Private Apartment Near the Airport,16346789.1,16503106.42,49.17,91835.89,362,12,Bogotá,cop,Low,4.674051784,-74.11122842,142654
abnb_866172887463435318,866172887463435318,,entire_place,1,1.0,2.0,4.9,29.0,Studio close to El Dorado Airport,16295187.06,16400602.66,72.3,62433.67,361,12,Bogotá,cop,Low,4.69564,-74.11193,142654
abnb_1021700594107576008,1021700594107576008,,private_room,1,1.0,4.0,4.8,152.0,"Guest room with two double beds (airport, CAS)",16287815.34,16287815.34,58.9,75757.28,365,12,Bogotá,cop,Medium,4.6938,-74.1208,142654
abnb_48847291,48847291,,entire_place,0,1.0,2.0,4.9,32.0,Apartaestudio 205 Bogotá Near Airport,16280443.62,16573285.2,52.65,86139.91,359,12,Bogotá,cop,Low,4.67901,-74.10286,142654
abnb_1127710821686610319,1127710821686610319,,entire_place,1,1.0,4.0,4.7,23.0,Centrally located studio apartment in Salitre,16118265.78,16560384.69,76.34,59477.0,355,12,Bogotá,cop,Low,4.67424,-74.08832,142654
abnb_37658134,37658134,,private_room,2,1.0,4.0,4.9,16.0,Two Rooms 15 minutes from the Airport®,16074035.46,16074035.46,49.2,104376.85,313,12,Bogotá,cop,Low,4.69884,-74.10122,142654
abnb_42929911,42929911,,entire_place,1,1.0,2.0,4.7,45.0,Studio near the Titan Plaza Mall AP.201,16059292.02,17280933.46,85.71,56947.85,329,12,Bogotá,cop,Low,4.70372,-74.09487,142654
abnb_1171134656296936034,1171134656296936034,,private_room,2,,2.0,5.0,2.0,Studio apartment near the airport,15989260.68,16285235.24,78.26,148048.71,138,12,Bogotá,cop,Medium,4.6862,-74.1075,142654
abnb_1355031270951462337,1355031270951462337,,entire_place,1,1.0,2.0,4.7,11.0,Modern Loft Apartment Near the Airport,15981888.96,17605952.59,41.82,138972.96,275,12,Bogotá,cop,High,4.6675,-74.1057,142654
abnb_955823297577531759,955823297577531759,,private_room,1,1.0,2.0,4.8,6.0,The airport is five minutes away.,15933972.78,15933972.78,92.05,47422.54,365,12,Bogotá,cop,High,4.6726,-74.1099,142654
abnb_1253836823080451453,1253836823080451453,,entire_place,1,1.0,2.0,4.8,36.0,Bogoloft 201 Near Medplus  El Dorado Airport,15900800.04,16288810.52,73.88,60459.32,356,12,Bogotá,cop,Medium,4.7131,-74.123,142654
abnb_1160990367263223087,1160990367263223087,,entire_place,1,1.0,2.0,4.7,91.0,Georgeous apartment in Bogota 201,15867627.3,15867627.3,60.55,71799.21,365,12,Bogotá,cop,Low,4.67167,-74.09514,142654
abnb_41775525,41775525,,private_room,1,1.0,6.0,4.9,43.0,Mr. Guest/ HAB 302 Nearby Airport and Terminal,15797595.96,15797595.96,66.58,65010.68,365,12,Bogotá,cop,Medium,4.6687,-74.1095,142654
abnb_51289940,51289940,,private_room,2,1.0,3.0,5.0,10.0,Confortable Bed and Breakfast ambiente familiar,15790224.24,15790224.24,60.61,71773.75,363,12,Bogotá,cop,Low,4.69163,-74.11257,142654
abnb_960209975397145840,960209975397145840,,entire_place,1,1.0,2.0,4.9,283.0,Cozy El Dorado Apartment,15709135.32,15848423.97,46.69,92953.46,362,12,Bogotá,cop,High,4.6937,-74.1206,142654
abnb_1490776972030794963,1490776972030794963,,entire_place,1,1.0,2.0,5.0,13.0,Cozy apartment in Normandy Avanti,15698077.74,27862226.63,85.61,138921.04,132,12,Bogotá,cop,Medium,4.6676,-74.1051,142654
abnb_1373915377862594777,1373915377862594777,,entire_place,2,1.0,6.0,4.1,28.0,Studio apartment near the airport,15683334.3,21799760.96,37.37,149365.09,281,12,Bogotá,cop,Low,4.67879,-74.10839,142654
abnb_1180473190749681401,1180473190749681401,,entire_place,2,1.0,4.0,4.7,11.0,Entire apartment on the fifth floor,15628046.4,15846101.88,95.28,45562.82,360,12,Bogotá,cop,High,4.7085,-74.1332,142654
abnb_1028089043736157210,1028089043736157210,,entire_place,2,1.0,6.0,4.4,25.0,Welcome to Bogota,15602245.38,15662214.32,39.29,109106.61,364,12,Bogotá,cop,High,4.70138,-74.13172,142654
abnb_846222794043214318,846222794043214318,,entire_place,1,1.0,2.0,4.8,102.0,Loft 202 near the airport and Coliseo Medplus,15598559.52,15954539.88,78.99,55314.04,357,12,Bogotá,cop,Medium,4.7131,-74.1228,142654
abnb_528457816575055539,528457816575055539,,entire_place,1,1.0,3.0,4.7,77.0,near airport US embassy photos fingerprints visa,15598559.52,15598559.52,72.6,58862.49,365,12,Bogotá,cop,High,4.7061,-74.1248,142654
abnb_1097376798328449690,1097376798328449690,,entire_place,1,1.0,4.0,4.8,9.0,Nice central studio apartment,15594873.66,15594873.66,51.23,83395.04,365,12,Bogotá,cop,High,4.6826,-74.0979,142654
abnb_23751409,23751409,,entire_place,3,2.0,5.0,4.8,62.0,Apartment near the airport,15591187.8,16270786.67,75.61,100588.31,205,12,Bogotá,cop,Medium,4.68239,-74.09879,142654
abnb_43604803,43604803,,entire_place,2,1.0,4.0,4.6,34.0,2 bedroom studio near C.C. Titán,15580130.22,16498056.79,78.36,74191.09,268,12,Bogotá,cop,High,4.70335,-74.09513,142654
abnb_1211066850441953262,1211066850441953262,,private_room,1,1.0,2.0,5.0,4.0,"203 Double room, exterior bathroom",15569072.64,15569072.64,81.37,52421.12,365,12,Bogotá,cop,Medium,4.678184,-74.1025922,142654
abnb_48664846,48664846,,entire_place,0,1.0,3.0,4.8,35.0,Ideal place to stay,15487983.72,15487983.72,83.19,54921.93,339,12,Bogotá,cop,Low,4.69469,-74.11693,142654
abnb_47392245,47392245,,entire_place,2,2.0,4.0,4.9,50.0,"2. Apt. 1st floor, near P. S. Bolivar, embassy.",15484297.86,15951112.03,50.88,89504.61,340,12,Bogotá,cop,Medium,4.6718,-74.0931,142654
abnb_943369497533139261,943369497533139261,,entire_place,2,1.0,4.0,4.4,49.0,Nice apartment/CAS/airport/embassy,15425324.1,15507850.51,36.8,117750.57,356,12,Bogotá,cop,Low,4.69444,-74.12289,142654
abnb_52263831,52263831,,entire_place,1,1.0,2.0,4.4,11.0,"Beautiful studio apartment near the airport, connecta",15414266.52,15414266.52,77.53,54467.37,365,12,Bogotá,cop,Low,4.69558,-74.12403,142654
abnb_994271733729286066,994271733729286066,,entire_place,2,1.0,4.0,4.8,51.0,"Downtown apartment near the airport, Movistar Arena",15344235.18,15344235.18,65.48,64201.82,365,12,Bogotá,cop,Medium,4.683,-74.0863,142654
abnb_1317235519438321205,1317235519438321205,,entire_place,1,1.0,3.0,4.6,28.0,Studio apartment very close to Bogotá airport,15255774.54,15664020.39,65.35,65757.65,355,12,Bogotá,cop,Low,4.68335,-74.11561,142654
abnb_52304383,52304383,,entire_place,2,1.0,4.0,4.8,14.0,"Excellent location, security and comfort",15255774.54,15255774.54,50.78,94171.45,319,12,Bogotá,cop,Low,4.68414,-74.0823,142654
abnb_1490189354033202730,1490189354033202730,,entire_place,4,2.0,5.0,5.0,24.0,Apartment near the airport – Ideal for families,15252088.68,43332555.08,52.88,277310.73,104,12,Bogotá,cop,Medium,4.6669,-74.1064,142654
abnb_894835954630535446,894835954630535446,,private_room,1,1.0,2.0,4.9,55.0,(B9) Room near the airport,15241031.1,15241031.1,77.26,54046.21,365,12,Bogotá,cop,Low,4.66988,-74.10662,142654
abnb_1002114268732485522,1002114268732485522,,entire_place,2,1.0,8.0,4.9,75.0,"Spacious and beautiful apartment, with everything!",15233659.38,15278368.86,49.73,84163.86,364,12,Bogotá,cop,Medium,4.6811,-74.1044,142654
abnb_1431519254562344255,1431519254562344255,,private_room,2,1.0,6.0,4.9,63.0,Spectacular Penthouse - Airport,15207858.36,15207858.36,75.59,94458.75,213,12,Bogotá,cop,Medium,4.6968,-74.1229,142654
abnb_1447354602619702470,1447354602619702470,,entire_place,2,2.0,5.0,4.9,23.0,Spacious and cozy apartment near the airport,15185743.2,27471525.47,52.49,159849.92,181,12,Bogotá,cop,Low,4.66934,-74.1091,142654
abnb_760350768549790362,760350768549790362,,entire_place,1,1.0,2.0,,,Beautiful studio apartment/ Airport,15167313.9,15167313.9,69.04,60187.75,365,12,Bogotá,cop,Medium,4.696,-74.1231,142654
abnb_1479419536203168928,1479419536203168928,,entire_place,3,2.0,4.0,4.9,17.0,Cozy Duplex near the airport,15148884.6,24279681.29,68.66,164661.79,134,12,Bogotá,cop,Medium,4.6891,-74.1079,142654
abnb_1419705252706880341,1419705252706880341,,entire_place,1,1.0,3.0,4.7,6.0,your perfect place,15145198.74,22527349.72,53.04,124140.98,230,12,Bogotá,cop,High,4.7022,-74.1039,142654
abnb_1359010860705868408,1359010860705868408,,entire_place,3,2.0,6.0,4.9,28.0,Elegant and Modern Apartment in the West of Bogotá,15141512.88,16797016.9,69.74,71422.24,304,12,Bogotá,cop,Medium,4.7125,-74.1248,142654
abnb_1171378714264834654,1171378714264834654,,private_room,1,1.0,2.0,5.0,78.0,Room 401 with Private Bathroom Dorado Airport,15089910.84,15089910.84,73.7,56096.32,365,12,Bogotá,cop,Low,4.712281498,-74.143436769,142654
abnb_1073775352356161334,1073775352356161334,,entire_place,2,1.0,5.0,4.6,23.0,Normandy Apartment,15064109.82,15125737.4,29.2,142114.24,363,12,Bogotá,cop,Low,4.680006057,-74.110280533,142654
abnb_40692538,40692538,,private_room,1,1.0,2.0,4.9,482.0,Room301 in Normandia/Airport/U.S. Embassy,15045680.52,15045680.52,74.79,55112.38,365,12,Bogotá,cop,Medium,4.6666,-74.1077,142654
abnb_41773242,41773242,,private_room,1,10.0,2.0,4.9,295.0,Mr. Guest/ HAB 502 near Airport and terminal,15034622.94,15034622.94,63.01,65367.93,365,12,Bogotá,cop,Medium,4.6687,-74.1095,142654
abnb_731358588764143543,731358588764143543,,entire_place,1,1.0,2.0,4.7,79.0,Comfortable loft/Wifi/private near airport 303,15030937.08,15465979.14,62.89,67706.93,353,12,Bogotá,cop,High,4.67702,-74.10248,142654
abnb_1277901053187757767,1277901053187757767,,entire_place,1,1.0,2.0,4.4,8.0,The apartment is 10 minutes from the airport.,15027251.22,15027251.22,68.22,60350.4,365,12,Bogotá,cop,Medium,4.689,-74.1094,142654
abnb_1236160812334301717,1236160812334301717,,entire_place,2,2.0,6.0,4.8,8.0,Apt 2H/2B for groups near Airport and Embassy,15008821.92,15239925.34,41.51,170554.8,212,12,Bogotá,cop,Low,4.67851,-74.10412,142654
abnb_1361887015955873235,1361887015955873235,,entire_place,2,1.0,3.0,5.0,6.0,Affordable apartment in Bogotá,14964591.6,16409116.99,72.45,70256.3,294,12,Bogotá,cop,Medium,4.6781,-74.0884,142654
abnb_22803922,22803922,10771838ha,entire_place,2,1.0,5.0,4.8,101.0,"Nice apartment, near airport, US embassy",14942476.44,14942476.44,69.04,59295.54,365,12,Bogotá,cop,Medium,4.7061,-74.1247,142654
abnb_955109677810189310,955109677810189310,,entire_place,3,2.0,6.0,4.7,9.0,apartment in Pontevedra,14857701.66,14935768.17,28.34,212252.87,247,12,Bogotá,cop,Medium,4.6933,-74.0845,142654
abnb_1021227341703597758,1021227341703597758,,entire_place,1,1.0,2.0,4.8,56.0,"Studio apartment, cozy and independent.",14854015.8,15357430.56,85.23,49513.38,352,12,Bogotá,cop,Low,4.68362,-74.0916,142654
abnb_703116661300268781,703116661300268781,,entire_place,1,1.0,2.0,4.8,228.0,Entire loft-style apartment,14824528.92,14824528.92,45.48,89304.39,365,12,Bogotá,cop,Low,4.68096,-74.11034,142654
abnb_1114578577034207899,1114578577034207899,,private_room,1,1.0,2.0,5.0,1.0,The Bta airport is five minutes away.,14802413.76,15073324.47,98.25,43924.08,343,12,Bogotá,cop,High,4.6726,-74.1099,142654
abnb_1274571270895537024,1274571270895537024,11786169ha,entire_place,2,1.0,6.0,4.8,34.0,Beautiful private apartment near the airport,14761869.3,15193925.81,43.66,95237.86,355,12,Bogotá,cop,Medium,4.6736,-74.1109,142654
abnb_44004827,44004827,,entire_place,2,1.0,5.0,4.7,93.0,Your Home Away From Home- WI-FI Mall Titan Plaza,14669722.8,24261989.16,97.17,71212.25,212,12,Bogotá,cop,Low,4.69734,-74.09043,142654
abnb_1166033620978229989,1166033620978229989,,entire_place,1,1.0,2.0,4.9,15.0,"Comfortable Apartment Bogotá. Airport, CAS",14669722.8,14907866.21,70.83,61637.49,336,12,Bogotá,cop,Medium,4.6786,-74.1123,142654
abnb_1069016862935490756,1069016862935490756,,entire_place,2,2.0,4.0,4.9,16.0,"Modern, comfortable space and central location",14658665.22,16815409.34,68.15,136996.87,157,12,Bogotá,cop,Medium,4.664089374,-74.109554098,142654
abnb_40616176,40616176,,entire_place,1,1.0,2.0,4.8,247.0,Loft apartment located in Normandy,14614434.9,14614434.9,58.84,68612.37,362,12,Bogotá,cop,High,4.671,-74.1112,142654
abnb_1032818821143025908,1032818821143025908,,entire_place,2,1.0,5.0,4.9,21.0,Private apartment near El Dorado Airport,14588633.88,14836213.1,44.72,90612.63,360,12,Bogotá,cop,High,4.6735,-74.1108,142654
abnb_1404711117753807861,1404711117753807861,,entire_place,2,2.0,5.0,5.0,1.0,"Apt. 1st floor, near S. Bolivar Park, embassy",14559147.0,23634692.64,60.51,123382.6,195,12,Bogotá,cop,Low,4.679754156,-74.090103375,142654
abnb_1263778869749527053,1263778869749527053,,entire_place,1,1.0,4.0,4.9,12.0,Centrally located and cozy studio apartment,14514916.68,14731645.25,57.54,70460.76,358,12,Bogotá,cop,Low,4.70191,-74.1023,142654
abnb_45275577,45275577,,entire_place,2,1.0,5.0,4.4,14.0,Apt facing the airport CAS 202/201/302,14433827.76,15749053.18,57.58,75967.52,330,12,Bogotá,cop,Low,4.68179,-74.11539,142654
abnb_1276943131663955487,1276943131663955487,,entire_place,1,1.0,3.0,3.0,2.0,90 Medplus Studio Apartment,14426456.04,14426456.04,58.82,68697.41,357,12,Bogotá,cop,High,4.713120288,-74.096336768,142654
abnb_39860887,39860887,,entire_place,2,1.0,5.0,4.6,82.0,"airport US embassy, take photos visa fingerprints",14385911.58,14385911.58,68.77,57314.39,365,12,Bogotá,cop,Low,4.70497,-74.12435,142654
abnb_21435867,21435867,,entire_place,1,1.0,2.0,5.0,12.0,SEMI-DETACHED STUDIO APARTMENT NEAR THE AIRPORT LOFT,14382225.72,15835818.33,88.55,48919.14,332,12,Bogotá,cop,Medium,4.6774,-74.1006,142654
abnb_52584096,52584096,,private_room,1,1.0,2.0,4.9,73.0,Cozy accommodation very close to the MedPlus Coliseum,14286393.36,14684613.67,58.99,68030.45,356,12,Bogotá,cop,Medium,4.7149,-74.1204,142654
abnb_645199335982820419,645199335982820419,11083341ha,entire_place,2,2.0,3.0,5.0,9.0,Corporate Apartment near the Airport,14275335.78,14275335.78,69.73,110661.52,185,12,Bogotá,cop,High,4.67821,-74.10773,142654
abnb_896595139769550443,896595139769550443,,entire_place,1,1.0,2.0,4.8,74.0,Independent apartments near the airport,14245848.9,14245848.9,61.64,63314.88,365,12,Bogotá,cop,Medium,4.6958,-74.1191,142654
