property_id,airbnb_property_id,vrbo_property_id,listing_type,bedrooms,bathrooms,accommodates,rating,reviews,title,revenue_ltm,revenue_potential_ltm,occupancy_rate_ltm,average_daily_rate_ltm,days_available_ltm,market_id,market_name,currency,address_match_confidence,lat,lng,section
abnb_1018960896673775256,1018960896673775256,,entire_place,3,2.5,4.0,5.0,119.0,Wonderful View: VIP Penthouse,133457618.88,137127408.53,71.35,525423.69,356,12,Bogotá,cop,Low,4.59275,-74.07068,142652
abnb_17640047,17640047,1557986a,entire_place,4,4.0,7.0,5.0,188.0,Casita de Piedra - Historic Center La Candelaria,118176043.32,123569967.7,91.14,370457.81,350,12,Bogotá,cop,Medium,4.593,-74.0704,142652
abnb_28134373,28134373,,entire_place,2,2.0,4.0,5.0,671.0,Paraiso. La Candelaria Terrace 360 city view.,99492418.98,106763478.14,82.65,354065.55,340,12,Bogotá,cop,Low,4.59256,-74.0722,142652
abnb_674006234663483059,674006234663483059,3373083,entire_place,3,1.5,5.0,4.9,341.0,⊱La Candelaria Penthouse | Close to Everything⊰,97564714.2,101655171.05,81.43,342332.32,350,12,Bogotá,cop,Low,4.59778,-74.07211,142652
abnb_825347313511148238,825347313511148238,3371530,entire_place,2,2.0,6.0,5.0,265.0,Luxury 2BR Condo in La Candelaria | Chimney & BBQ°,89592199.02,92565545.42,85.23,298640.65,352,12,Bogotá,cop,Medium,4.6002,-74.0679,142652
abnb_708105403284985372,708105403284985372,,entire_place,2,2.0,4.0,4.9,375.0,Oasis. La Candelaria  Terrace 360 city view.,88722336.06,94940750.47,80.35,323804.15,341,12,Bogotá,cop,Medium,4.5939,-74.072,142652
abnb_1165883575468995666,1165883575468995666,,entire_place,3,2.0,5.0,4.7,48.0,Historic Apartment in La Candelaria!,84177670.68,84971088.9,55.43,423003.37,359,12,Bogotá,cop,Low,4.59454,-74.07099,142652
abnb_19948324,19948324,,entire_place,4,3.5,9.0,4.9,78.0,Unique Colonial House for 9 @ La Candelaria,82898677.26,110557776.14,60.84,476429.18,286,12,Bogotá,cop,Low,4.59406,-74.07077,142652
abnb_53834830,53834830,10987173ha,entire_place,2,2.0,4.0,5.0,296.0,Cozy Home Fireplace Views La Candelaria,79017466.68,83129928.12,76.37,298179.11,347,12,Bogotá,cop,Medium,4.5939,-74.072,142652
abnb_996525791159004503,996525791159004503,4034901,entire_place,3,3.0,7.0,4.9,64.0,Complete Casa Villalba,66363909.3,66453401.98,76.37,238719.11,364,12,Bogotá,cop,High,4.5937,-74.0735,142652
abnb_1195540438361502115,1195540438361502115,4167210,entire_place,2,3.0,6.0,4.4,41.0,NOK Stylish 2 Masters w/Patio & View,63923869.98,65283952.32,64.51,279143.56,355,12,Bogotá,cop,High,4.5926,-74.0714,142652
abnb_1206613996915247658,1206613996915247658,,entire_place,1,1.0,4.0,5.0,48.0,Fireplace | View to Monserrate | Close to Museums,60521821.2,60685325.95,66.48,250090.17,364,12,Bogotá,cop,Medium,4.5961,-74.072,142652
abnb_48450162,48450162,7148417ha,entire_place,1,1.0,3.0,4.6,26.0,New apartment in La Candelaria's historic center,59762534.04,60066322.62,52.41,323040.71,353,12,Bogotá,cop,High,4.59758,-74.0693,142652
abnb_48218124,48218124,,entire_place,1,1.0,2.0,4.9,491.0,Balconies. La Candelaria,59626157.22,64281508.98,80.59,217613.71,340,12,Bogotá,cop,Low,4.59475,-74.07111,142652
abnb_48215522,48215522,,entire_place,1,1.0,3.0,4.9,525.0,Garden. La Candelaria,57215604.78,64401336.28,83.54,212697.41,322,12,Bogotá,cop,Low,4.59377,-74.07304,142652
abnb_42049912,42049912,,entire_place,2,1.0,4.0,5.0,463.0,La PeRGOLA Spectacular Penthouse in La Candelaria!,55560653.64,57601735.47,82.1,192251.4,352,12,Bogotá,cop,Low,4.59277,-74.07289,142652
abnb_1028318547588731039,1028318547588731039,4442743,entire_place,2,2.0,4.0,4.7,153.0,2BR Condo in Candelaria W/Heating & Starlink | AV2,55192067.64,61817032.4,78.83,214755.12,326,12,Bogotá,cop,High,4.6003,-74.0711,142652
abnb_1329783462277068756,1329783462277068756,,entire_place,2,2.0,4.0,5.0,32.0,* Beautiful 2BR with Private Patio @ Casa Rosada*,54381178.44,55554129.67,65.03,241694.11,346,12,Bogotá,cop,High,4.596173354,-74.071957816,142652
abnb_1249550859122968783,1249550859122968783,4542392,entire_place,2,2.0,4.0,4.8,81.0,Retreat Fireplace & 360° View Bogotá Candelaria,52943693.04,54137911.68,66.76,221521.73,358,12,Bogotá,cop,High,4.5939,-74.072,142652
abnb_29598242,29598242,,entire_place,1,1.0,3.0,5.0,449.0,EL FIORI Lovely flat with a view in La Candelaria!,51764217.84,53902901.25,82.57,179114.93,350,12,Bogotá,cop,Low,4.59409,-74.0733,142652
abnb_791254993248116620,791254993248116620,,entire_place,5,2.0,9.0,4.9,10.0,Full House - Colonial atmosphere,51616783.44,53924426.67,59.12,256799.91,340,12,Bogotá,cop,Medium,4.5898,-74.0728,142652
abnb_881927463027987804,881927463027987804,,entire_place,3,2.0,6.0,4.8,142.0,Apartment in Magical Candelaria,51439862.16,51707713.61,78.79,179859.66,363,12,Bogotá,cop,Low,4.59936,-74.06686,142652
abnb_1143708436169393214,1143708436169393214,,entire_place,2,2.0,7.0,4.8,93.0,Colonial Apt 2BR La Candelaria fireplace WIFI 500M,49814397.9,51585969.65,68.95,205844.62,351,12,Bogotá,cop,High,4.5952,-74.0712,142652
abnb_1026160836161564966,1026160836161564966,4442770,entire_place,2,2.0,4.0,4.8,129.0,Beautiful & Vintage 2BR Apt W/Starlink | AV3A,49467927.06,50826166.47,69.3,201089.13,355,12,Bogotá,cop,Medium,4.6003,-74.0711,142652
abnb_868783803547876928,868783803547876928,3327023,entire_place,1,1.0,2.0,,,A Cozy Nest in the Historic Heart of Bogotá,49036681.44,49325063.13,58.29,232401.32,362,12,Bogotá,cop,Medium,4.5977,-74.0693,142652
abnb_1333487210084859518,1333487210084859518,,entire_place,1,2.0,4.0,4.9,34.0,* Fabulous Two Story Loft @ Casa Rosada *,47768745.6,48055247.5,72.62,189558.51,347,12,Bogotá,cop,Low,4.59721028,-74.07208614,142652
abnb_1448070881060024237,1448070881060024237,,entire_place,3,3.0,16.0,,,House in La Candelaria with a huge private terrace,47713457.7,67967000.39,78.84,320224.55,189,12,Bogotá,cop,High,4.5929487,-74.0722918,142652
abnb_38605309,38605309,,entire_place,1,1.0,2.0,4.8,742.0,House in the Air. La Candelaria,47669227.38,53624250.23,84.62,173342.64,325,12,Bogotá,cop,Medium,4.5944,-74.0715,142652
abnb_821553037461653730,821553037461653730,,entire_place,3,2.0,10.0,4.8,54.0,"""Retro District"" Exceptional Apartment  Three bedrooms",46828851.3,89313511.15,51.22,371657.56,246,12,Bogotá,cop,Low,4.59505,-74.07225,142652
abnb_1399512675061302913,1399512675061302913,4780592ha,entire_place,2,1.0,5.0,5.0,2.0,Apartment in La Candelaria,46342317.78,48050824.47,83.61,232875.97,238,12,Bogotá,cop,High,4.600353392,-74.072216866,142652
abnb_1046420245692453955,1046420245692453955,4442844,entire_place,1,1.0,4.0,4.8,98.0,Amazing Loft in La Candelaria W/Starlink | AV5,45848412.54,48701747.34,67.84,197622.47,342,12,Bogotá,cop,High,4.6003,-74.0711,142652
abnb_603090826156896643,603090826156896643,,entire_place,1,2.0,2.0,5.0,135.0,MAGNIFICENT APT IN LA CANDELARIA WITH 180º VIEW,45590402.34,45849776.31,62.81,199957.9,363,12,Bogotá,cop,Low,4.59209,-74.07073,142652
abnb_560139023591603950,560139023591603950,,entire_place,3,3.0,16.0,4.8,102.0,House in La Candelaria with large private terrace,43404687.36,44224791.21,42.66,355776.13,286,12,Bogotá,cop,High,4.5929487,-74.0722918,142652
abnb_1023149235023475284,1023149235023475284,4442784,entire_place,2,2.0,4.0,4.8,90.0,Vintage 2BR Apt in La Candelaria W/Starlink | AV4A,43312540.86,44668126.45,60.62,202395.06,353,12,Bogotá,cop,High,4.6003,-74.0711,142652
abnb_878392053789385026,878392053789385026,,entire_place,1,2.0,4.0,4.8,153.0,Stunning 1BR Apartment in La Candelaria°,42689630.52,43122608.49,73.48,160487.34,362,12,Bogotá,cop,Low,4.59408,-74.07149,142652
abnb_1186285904638241595,1186285904638241595,,entire_place,1,1.0,3.0,4.9,69.0,Luxury Architectural Design Loft. Candelaria,42638028.48,43721302.73,68.54,174746.02,356,12,Bogotá,cop,Medium,4.5926,-74.0714,142652
abnb_761520108853597439,761520108853597439,,entire_place,2,1.5,5.0,4.8,76.0,Casa Seta (La Candelaria),42262070.76,43060059.45,60.89,193862.71,358,12,Bogotá,cop,High,4.595,-74.0722,142652
abnb_17014896,17014896,,entire_place,1,1.0,5.0,4.9,78.0,Apartment in La Candelaria/museums/culture,41731306.92,45253735.89,75.74,163012.92,338,12,Bogotá,cop,Medium,4.5948,-74.0718,142652
abnb_1219119475277974014,1219119475277974014,,entire_place,1,1.0,2.0,5.0,77.0,Exclusive modern unit fast wi fi Candelaria Bogota,41524898.76,42894343.18,82.44,142697.24,353,12,Bogotá,cop,Medium,4.5926,-74.0714,142652
abnb_38843125,38843125,3657663,entire_place,1,1.0,3.0,5.0,269.0,360° Glam & View 401 Apartment in La Candelaria,41289003.72,41619699.08,67.4,169217.23,362,12,Bogotá,cop,High,4.59354,-74.07336,142652
abnb_855127156694572170,855127156694572170,11815183ha,entire_place,2,1.0,6.0,4.8,105.0,House in La Candelaria with amazing view & balcony,40883559.12,41321697.3,74.52,151983.49,361,12,Bogotá,cop,High,4.5936,-74.072,142652
abnb_989747046697710311,989747046697710311,,entire_place,2,2.0,6.0,5.0,60.0,Cozy and Modern Apartment in Historic Center,40043183.04,58509894.52,65.99,245663.71,247,12,Bogotá,cop,High,4.6016,-74.06729,142652
abnb_1148580347062624585,1148580347062624585,,entire_place,1,1.0,2.0,4.5,4.0,La Candelaria Terrace Suite,39405529.26,40499087.06,74.58,149263.37,354,12,Bogotá,cop,Medium,4.5948,-74.0718,142652
abnb_32165038,32165038,,entire_place,4,2.0,7.0,4.9,146.0,Beautiful colonial home with panoramic views,38502493.56,38822094.48,28.66,409601.0,328,12,Bogotá,cop,Low,4.594,-74.07315,142652
abnb_1004440119120566037,1004440119120566037,,entire_place,1,1.5,3.0,5.0,4.0,La Primera in La Candelaria exclusive apartment,38321886.42,39024706.2,60.61,176598.55,358,12,Bogotá,cop,Medium,4.5924,-74.0716,142652
abnb_37259126,37259126,,entire_place,1,1.0,4.0,4.8,226.0,A CHARMING DUPLEX ON THE BEST STREET WITH A 360° VIEW,37993844.88,38169660.4,89.26,117264.96,363,12,Bogotá,cop,Low,4.59366,-74.07059,142652
abnb_47453036,47453036,11461120ha,entire_place,1,1.0,3.0,4.8,220.0,Modern studio apartment in La Candelaria,37138725.36,37138725.36,75.07,135542.8,365,12,Bogotá,cop,High,4.5979,-74.0688,142652
abnb_1026118428472449948,1026118428472449948,4442718,entire_place,2,2.0,4.0,4.7,78.0,Perfect 2BRApt In La Candelaria W/Starlink | AV1,37101866.76,39473938.82,55.59,196306.18,340,12,Bogotá,cop,Medium,4.6003,-74.0711,142652
abnb_1067680899627730359,1067680899627730359,,entire_place,2,1.0,6.0,5.0,6.0,Group suite Historic Candelaria,36873343.44,40520501.91,56.46,196134.8,333,12,Bogotá,cop,Low,4.59397,-74.0707,142652
abnb_53725024,53725024,,entire_place,1,1.0,2.0,4.8,181.0,7th Heaven · 2 Terraces · Panoramic View · +Wi-Fi+,36066140.1,38140800.12,68.7,152177.81,345,12,Bogotá,cop,Low,4.59599,-74.07179,142652
abnb_869635030891788434,869635030891788434,4655399,entire_place,2,2.0,4.0,4.8,167.0,|Ahead| Elegant 2BR @La Candelaria + Laundry,35833930.92,48061955.76,79.57,191625.3,235,12,Bogotá,cop,Low,4.59492,-74.07079,142652
abnb_65762,65762,,entire_place,1,1.0,3.0,4.8,33.0,La Candelaria Apartaestudios,35645952.06,36009562.15,73.96,133505.44,361,12,Bogotá,cop,Medium,4.5948,-74.0719,142652
abnb_830452670468193517,830452670468193517,,entire_place,1,1.0,5.0,5.0,50.0,"Modern loft, view-town-La Candelaria neighborhood",35572234.86,35900644.99,61.6,159516.75,362,12,Bogotá,cop,High,4.5952,-74.0704,142652
abnb_1207228820076306799,1207228820076306799,,private_room,1,,4.0,5.0,5.0,Apartasuite in the historic center of Bogotá,35435858.04,35732385.48,66.85,146429.16,362,12,Bogotá,cop,Low,4.59556,-74.07266,142652
abnb_1333536672637460349,1333536672637460349,,entire_place,1,2.0,4.0,5.0,20.0,* Charming Two Story Loft @ Casa Rosada  *,35428486.32,36327283.28,58.41,178931.75,339,12,Bogotá,cop,Low,4.595850888,-74.072353094,142652
abnb_609453229162096378,609453229162096378,,entire_place,1,2.0,4.0,4.9,20.0,La Candelaria Spectacular 1BR Apartment,35306852.94,35888665.94,70.62,141227.41,354,12,Bogotá,cop,Low,4.59154,-74.0724,142652
abnb_23902018,23902018,9401055,entire_place,1,1.0,3.0,4.9,450.0,Cozy Loft Studio in La Candelaria.,35199963.0,35963009.74,63.31,155752.05,357,12,Bogotá,cop,Low,4.59515,-74.07126,142652
abnb_16859808,16859808,,entire_place,1,1.0,4.0,4.8,249.0,Beautiful colonial apartment with wonderful views,34989868.98,35743664.21,79.55,123203.76,357,12,Bogotá,cop,Medium,4.5974,-74.0759,142652
abnb_1333540977733324942,1333540977733324942,,entire_place,1,2.0,4.0,5.0,19.0,* Gorgeous Two Story Loft @ Casa Rosada*,34842434.58,35718452.93,57.18,178679.16,341,12,Bogotá,cop,Low,4.597411908,-74.070766818,142652
abnb_1333460649199836981,1333460649199836981,,entire_place,1,2.0,4.0,4.9,22.0,* Beautifully Renovated Two-Story Loft *,34477534.44,35086180.5,59.36,169840.08,342,12,Bogotá,cop,Low,4.59616,-74.07207,142652
abnb_683284308750864275,683284308750864275,,entire_place,3,2.0,10.0,4.7,56.0,"""EL DORADO"" Magical Place 3 bedrooms/ 2 bathrooms",34429618.26,63224146.32,48.84,409876.4,172,12,Bogotá,cop,Medium,4.5963,-74.0715,142652
abnb_33614279,33614279,7084807ha,entire_place,1,1.0,4.0,4.8,29.0,Colonial Apartment La Candelaria,34212152.52,34212152.52,76.55,126244.11,354,12,Bogotá,cop,Low,4.59873,-74.07048,142652
abnb_1268932411697674088,1268932411697674088,,entire_place,1,1.0,5.0,,,"Loft apartment, for family, parking and wifi",33861995.82,34612215.76,67.88,139349.77,358,12,Bogotá,cop,Low,4.599918004,-74.07131262,142652
abnb_908955156129171444,908955156129171444,,entire_place,2,2.0,4.0,4.8,91.0,Apartment - 1802B - Unique View,33655587.66,34479967.11,70.22,134622.35,356,12,Bogotá,cop,High,4.5977,-74.0728,142652
abnb_1330491154255810975,1330491154255810975,,entire_place,1,1.5,4.0,4.9,16.0,* Stunning Designer Loft @ Casa Rosada *,32837326.74,33090655.9,60.0,156368.22,350,12,Bogotá,cop,Low,4.597555217,-74.072032166,142652
abnb_1333451026376911896,1333451026376911896,,entire_place,1,1.0,2.0,5.0,18.0,*Casa Rosada Candelaria Studio 204*,32435568.0,33159028.6,68.92,138023.69,341,12,Bogotá,cop,Low,4.595603044,-74.070467177,142652
abnb_1333468942425154921,1333468942425154921,,entire_place,1,2.0,4.0,5.0,10.0,* Spectacular Two Story Loft @ Casa Rosada*,32339735.64,32952731.02,57.93,170209.13,328,12,Bogotá,cop,Low,4.597467301,-74.072321702,142652
abnb_1148563659624329339,1148563659624329339,,entire_place,1,1.0,3.0,,,"La Candelaria, Downtown",32284447.74,32797740.6,64.25,140367.16,358,12,Bogotá,cop,Medium,4.5948,-74.0718,142652
abnb_3155332,3155332,,entire_place,1,2.0,2.0,4.8,81.0,Magical studio apartment in La Candelaria,32225473.98,32496016.1,80.94,109984.55,362,12,Bogotá,cop,Low,4.59365,-74.07078,142652
abnb_44318429,44318429,,entire_place,1,1.0,3.0,4.7,176.0,*ML Cozy loft @ City Heritage Center W terrace!,32055924.42,32055924.42,70.14,125218.45,365,12,Bogotá,cop,Low,4.59757,-74.0699,142652
abnb_17559914,17559914,,entire_place,0,1.0,4.0,4.7,215.0,Beautiful Colonial place with view to the mountain,31436699.94,32755869.23,75.5,118629.06,351,12,Bogotá,cop,Low,4.59351,-74.072,142652
abnb_20679914,20679914,,entire_place,1,1.0,2.0,4.8,259.0,Charming Apt. Live the magic of the Candelaria,31329810.0,31483620.94,66.94,128929.26,363,12,Bogotá,cop,Medium,4.5961,-74.072,142652
abnb_1148543430379012681,1148543430379012681,,entire_place,1,1.0,2.0,,,Candelaria Apartment,31108658.4,31108658.4,74.79,113951.13,365,12,Bogotá,cop,Medium,4.5948,-74.0718,142652
abnb_54009068,54009068,,entire_place,3,2.5,6.0,4.8,52.0,Apartment in the heart of La Candelaria,30953852.28,32211246.56,71.68,124813.92,346,12,Bogotá,cop,Low,4.59642,-74.07153,142652
abnb_1148535664387083490,1148535664387083490,2535642,entire_place,1,1.0,2.0,,,Historic Candelaria Apartment,30740072.4,36349177.29,94.64,102466.91,317,12,Bogotá,cop,Medium,4.5948,-74.0718,142652
abnb_1198230830163999299,1198230830163999299,4776766,entire_place,1,1.0,2.0,4.8,50.0,NOK Amazing Studio in Candelaria,30647925.9,30647925.9,73.97,113510.84,365,12,Bogotá,cop,High,4.5923,-74.0715,142652
abnb_1148575321277380380,1148575321277380380,,entire_place,1,1.0,2.0,5.0,1.0,Small Candelaria Apartment,30386229.84,31412225.83,81.53,105875.37,352,12,Bogotá,cop,Medium,4.5948,-74.0718,142652
abnb_1263745677604473825,1263745677604473825,,entire_place,1,1.0,2.0,5.0,28.0,*Casa Rosada Candelaria Studio 201*,30098732.76,30685374.24,70.11,119915.26,358,12,Bogotá,cop,Low,4.596409844,-74.07084376,142652
abnb_773866675565463995,773866675565463995,11880558ha,entire_place,1,1.0,4.0,4.8,131.0,Cozy Flat Industrial Style in La Candelaria,29921811.48,30838153.13,59.6,141809.53,354,12,Bogotá,cop,Low,4.59803,-74.06927,142652
abnb_942686212738076335,942686212738076335,,entire_place,1,1.0,4.0,4.8,68.0,Stylish Loft: Historic Elegance in Bogotá's Heart,29903382.18,30612209.92,66.67,125644.46,357,12,Bogotá,cop,Medium,4.599,-74.0687,142652
abnb_994988061199948233,994988061199948233,,entire_place,1,1.0,2.0,4.9,127.0,Spectacular Candelaria Loft 304,29192011.2,29192011.2,66.3,120628.14,365,12,Bogotá,cop,Medium,4.5978,-74.0688,142652
abnb_1081040182579692099,1081040182579692099,,entire_place,1,1.0,4.0,4.9,128.0,Central Studio • Monserrate View • Parking,29077749.54,30557990.92,74.06,113143.0,347,12,Bogotá,cop,Medium,4.5922,-74.0747,142652
abnb_689753533404918945,689753533404918945,,entire_place,2,1.5,5.0,4.8,61.0,Amazing 1 room 1 bed apartment in the city center,28985603.04,29629522.78,57.7,140706.82,357,12,Bogotá,cop,Low,4.59197,-74.07231,142652
abnb_570227716474537613,570227716474537613,4655391,entire_place,1,1.0,3.0,4.6,252.0,|Ahead| Minimalist Loft @La Candelaria + Parking,28823425.2,30747259.83,73.47,114378.67,343,12,Bogotá,cop,Low,4.5949,-74.07009,142652
abnb_766542612444454347,766542612444454347,,entire_place,1,1.0,4.0,4.9,137.0,Loft in the Historic Center,28819739.34,29814294.94,77.34,105566.81,353,12,Bogotá,cop,Low,4.59909,-74.06943,142652
abnb_52701202,52701202,,entire_place,3,2.0,5.0,4.6,96.0,Tourist apartment in La Candelaria Bogotá,28687048.38,28721326.88,48.46,165821.08,357,12,Bogotá,cop,High,4.59806,-74.06999,142652
abnb_860984787737143071,860984787737143071,,entire_place,2,2.0,5.0,4.8,102.0,Beautiful 2 bedroom apartment LaCandelaria/18,28587530.16,28874179.49,47.09,168161.94,361,12,Bogotá,cop,Low,4.59313,-74.07505,142652
abnb_1329149533797960580,1329149533797960580,,entire_place,1,1.0,2.0,5.0,14.0,*Beautiful Designer Studio @ Casa Rosada*,28513812.96,29007976.21,66.19,123436.42,349,12,Bogotá,cop,Low,4.597825716,-74.072544084,142652
abnb_1265944303646650334,1265944303646650334,,entire_place,2,1.0,3.0,4.8,25.0,La Sapiente Emplumada · 2 Bedrooms · Fireplace · Wi-Fi+,28488011.94,29422377.45,82.77,97228.71,354,12,Bogotá,cop,Medium,4.5953,-74.0726,142652
abnb_1149206383723991888,1149206383723991888,,entire_place,1,1.0,4.0,4.0,1.0,Historic La Candelaria Flat,28443781.62,29080108.49,54.62,145865.55,357,12,Bogotá,cop,Medium,4.5948,-74.0718,142652
abnb_1263230037907313546,1263230037907313546,,entire_place,1,2.0,4.0,5.0,25.0,New High Loft Colonial Desing @laCandelaria,28296347.22,29190610.57,55.65,143636.28,354,12,Bogotá,cop,Medium,4.5926,-74.0714,142652
abnb_25099424,25099424,,entire_place,1,1.0,2.0,4.6,29.0,Duplex Suite downtown Bogota,28163656.26,31872663.46,59.19,148229.77,321,12,Bogotá,cop,Low,4.59396,-74.07066,142652
abnb_11566250,11566250,,entire_place,1,1.0,2.0,4.9,542.0,Perfect location in La Candelaria !,28156284.54,28156284.54,59.73,129157.26,365,12,Bogotá,cop,High,4.59513,-74.07106,142652
abnb_582552987678143283,582552987678143283,,entire_place,1,1.0,2.0,4.8,91.0,*ML Loft Private Terrace Hammock @Candelaria,28141541.1,28141541.1,75.34,102332.88,365,12,Bogotá,cop,Low,4.59768,-74.06966,142652
abnb_18648528,18648528,,entire_place,1,1.0,3.0,4.9,38.0,Downtown La Candelaria Duplex,28078881.48,28195133.5,78.02,98869.3,364,12,Bogotá,cop,Medium,4.5948,-74.0718,142652
abnb_681200942388780036,681200942388780036,,entire_place,1,1.5,2.0,4.9,33.0,Apartment in the historic center of Bogotá,27828243.0,28220787.09,39.83,194603.1,359,12,Bogotá,cop,High,4.5926,-74.0714,142652
abnb_682508015563865603,682508015563865603,11361458ha,entire_place,2,2.0,5.0,4.8,87.0,"Cosy apartment with terrace in Candelaria, Bogotá",27588662.1,27683867.86,34.18,228005.48,354,12,Bogotá,cop,Medium,4.5926,-74.0714,142652
abnb_1244283640452352753,1244283640452352753,20145871ha,entire_place,1,0.0,3.0,4.8,36.0,NOK Stunning Studio in Candelaria,27485458.02,27485458.02,67.67,111277.16,365,12,Bogotá,cop,High,4.592949132,-74.070399646,142652
abnb_52723441,52723441,,entire_place,1,1.0,2.0,4.9,107.0,Contemporary Candelaria Loft 402,27315908.46,27315908.46,68.49,109263.63,365,12,Bogotá,cop,Medium,4.5978,-74.0689,142652
abnb_943609255519159454,943609255519159454,,entire_place,1,1.0,2.0,4.8,106.0,Historic Center Hideaway: Loft in La Candelaria,26792516.34,26878544.31,68.96,106743.1,364,12,Bogotá,cop,High,4.599,-74.0687,142652
abnb_773978101049970432,773978101049970432,,entire_place,1,1.0,4.0,4.7,122.0,Cozy Flat Industrial Design in La Candelaria,26785144.62,27577641.38,56.9,132599.72,355,12,Bogotá,cop,Medium,4.599,-74.0687,142652
abnb_968987546646287937,968987546646287937,,entire_place,1,1.0,2.0,4.9,170.0,30th floor/ Amazing city View Loft Dowtown Bogotá,26165920.14,27629132.84,64.16,117864.51,346,12,Bogotá,cop,Low,4.60136,-74.06781,142652
abnb_43565977,43565977,,entire_place,0,1.0,2.0,4.8,148.0,TB1602 - 1 bed flat - Candelaria - Great Views H07,26158548.42,26565209.35,66.85,108993.95,359,12,Bogotá,cop,Low,4.60038,-74.0712,142652
abnb_21634111,21634111,,entire_place,1,1.0,2.0,4.7,253.0,Original apartment on the best historic street,26151176.7,26345163.51,82.92,86880.98,363,12,Bogotá,cop,Low,4.59373,-74.07125,142652
abnb_1208075168733670697,1208075168733670697,20155139ha,entire_place,1,0.0,2.0,4.6,27.0,NOK Amazing Studio in Candelaria,26062716.06,26062716.06,66.02,109969.27,359,12,Bogotá,cop,Medium,4.5926,-74.0714,142652
abnb_1228315351699572408,1228315351699572408,,entire_place,1,1.5,3.0,4.8,26.0,New Icon Condo Monserrate mountain View Candelaria,26007428.16,26639774.3,53.98,136881.19,352,12,Bogotá,cop,Medium,4.5925,-74.0716,142652
abnb_947256505360467409,947256505360467409,,entire_place,2,2.0,5.0,4.9,89.0,Apartment in the historic center,25981627.14,25981627.14,36.75,201407.96,351,12,Bogotá,cop,Low,4.59826,-74.07159,142652
abnb_1232749258899193974,1232749258899193974,4206089,entire_place,1,1.5,2.0,4.6,34.0,NOK Great Studio,25867365.48,25867365.48,58.9,120313.33,365,12,Bogotá,cop,High,4.5926,-74.0714,142652
abnb_1148558647122100168,1148558647122100168,7566146ha,entire_place,1,1.0,2.0,,,La Candelaria Apartment.,25815763.44,25857782.24,68.13,104095.82,364,12,Bogotá,cop,Medium,4.5948,-74.0718,142652
abnb_975499656790166098,975499656790166098,,entire_place,1,2.0,3.0,4.8,76.0,Beautiful Loft in La Candelaria.,25672014.9,28140066.76,53.13,144224.81,335,12,Bogotá,cop,Low,4.59216,-74.07251,142652
abnb_773866245827434659,773866245827434659,,entire_place,1,1.0,2.0,4.7,158.0,Modern Industrial Loft in La Candelaria,25638842.16,25638842.16,68.22,102967.24,365,12,Bogotá,cop,Low,4.59987,-74.06911,142652
abnb_43941366,43941366,,entire_place,1,1.0,2.0,4.8,44.0,TB1502-  1 bed flat perfect for remote working H06,25631470.44,25631470.44,71.51,98204.87,365,12,Bogotá,cop,Low,4.60079,-74.06932,142652
abnb_22602302,22602302,,entire_place,1,1.0,4.0,4.8,213.0,"Great view, apartment in La Candelaria",25336601.64,25336601.64,84.11,82529.65,365,12,Bogotá,cop,Medium,4.6024,-74.0673,142652
abnb_771634198032440362,771634198032440362,,entire_place,1,1.0,5.0,4.9,25.0,studio in the historic center,25325544.06,25325544.06,71.51,97032.73,365,12,Bogotá,cop,Low,4.59645,-74.07013,142652
abnb_1198193034909105594,1198193034909105594,20155137ha,entire_place,1,0.0,2.0,4.7,28.0,NOK Amazing Studio in Candelaria,25244455.14,25244455.14,67.67,102204.27,365,12,Bogotá,cop,High,4.5926,-74.0714,142652
abnb_1329675381123566728,1329675381123566728,,entire_place,1,1.0,2.0,5.0,32.0,*Beautiful Light-Filled Studio @ Casa Rosada,25200224.82,30221508.76,65.04,135485.08,286,12,Bogotá,cop,Low,4.59599,-74.07256,142652
abnb_656089878209539995,656089878209539995,,entire_place,1,1.0,4.0,4.9,157.0,"Loft in historic center, Wi-Fi View and culture.",25008560.1,25746395.55,71.75,98458.9,354,12,Bogotá,cop,Low,4.59253,-74.07506,142652
abnb_35159913,35159913,,entire_place,1,1.0,2.0,4.9,71.0,Welcome to La Cajita del Chorro!,24835324.68,27379858.13,79.62,97776.87,319,12,Bogotá,cop,Medium,4.5944,-74.0717,142652
abnb_1420319195442117435,1420319195442117435,4057885,entire_place,2,2.0,4.0,4.4,12.0,NOK Cozy 2 Br apt in Candelaria,24628916.52,24977820.03,32.48,243850.67,311,12,Bogotá,cop,Medium,4.5926,-74.0714,142652
abnb_48193120,48193120,,entire_place,1,1.0,4.0,4.8,73.0,"Balcony in historic center, loft, Externado and Uniandes",24514654.86,25299448.17,71.95,96514.39,353,12,Bogotá,cop,Medium,4.5978,-74.0689,142652
abnb_54039135,54039135,,entire_place,3,1.5,6.0,4.8,19.0,Eclectic House in Historic Downtown Bogotá,24499911.42,24499911.42,83.93,173758.24,168,12,Bogotá,cop,Low,4.5941,-74.06977,142652
abnb_909557642473358396,909557642473358396,,entire_place,1,1.0,2.0,5.0,79.0,Apt 1802A - Unique View,24400393.2,25063295.12,70.14,97993.55,355,12,Bogotá,cop,High,4.5978,-74.0727,142652
abnb_1184061201186200922,1184061201186200922,,entire_place,1,1.0,3.0,4.7,19.0,*ML 3rd Floor with View of @plaza de la concordia.,24359848.74,24427189.4,57.42,116554.3,364,12,Bogotá,cop,Low,4.59687,-74.06987,142652
abnb_15067501,15067501,,entire_place,1,1.0,2.0,4.8,275.0,Cozy Studio in Bogotá's Historic Center,24348791.16,24693161.06,74.44,90853.7,360,12,Bogotá,cop,Low,4.59936,-74.0716,142652
abnb_1330610220201763622,1330610220201763622,,entire_place,1,1.0,3.0,4.9,22.0,Studio apartment in La Candelaria,23947032.42,24000956.55,74.72,91053.36,352,12,Bogotá,cop,Low,4.593787553,-74.072708698,142652
abnb_1343613351447462628,1343613351447462628,4419451,entire_place,1,1.0,3.0,4.9,9.0,"Apartment in La Candelaria, Bogotá, comfort and style.",23943346.56,26950713.45,70.03,119121.13,287,12,Bogotá,cop,Medium,4.5921,-74.0746,142652
abnb_1387052935821256161,1387052935821256161,,entire_place,1,2.0,4.0,4.8,49.0,Modern studio in La Candelaria,23862257.64,29514966.25,82.77,107974.01,267,12,Bogotá,cop,Low,4.593178694,-74.070266546,142652
abnb_942686123907554568,942686123907554568,,entire_place,1,1.0,4.0,4.8,58.0,Urban Haven:  In Heart of Historic Bogotá,23847514.2,24468802.76,48.31,138648.34,356,12,Bogotá,cop,Medium,4.599,-74.0686,142652
abnb_1025955752588328641,1025955752588328641,4442904,entire_place,1,1.0,2.0,4.8,175.0,Room W/Heating & Starlink in La Candelaria | AV4B,23814341.46,25568405.38,62.83,111804.42,339,12,Bogotá,cop,High,4.6003,-74.0711,142652
abnb_17042315,17042315,,entire_place,0,1.0,2.0,4.8,26.0,Candelaria Loft,23784854.58,25370769.56,63.95,108112.97,344,12,Bogotá,cop,Medium,4.5948,-74.0718,142652
abnb_52776430,52776430,,entire_place,1,1.0,3.0,4.8,80.0,*ML Loft With Private Terrace in @Candelaria 1st floor,23652163.62,23652163.62,55.89,115941.98,365,12,Bogotá,cop,Low,4.59699,-74.06834,142652
abnb_593496721244352235,593496721244352235,,entire_place,1,1.0,4.0,4.8,81.0,*ML Downtown Loft 1st Floor @Comfortable in Candelaria,23604247.44,23604247.44,63.01,102627.17,365,12,Bogotá,cop,Low,4.59849,-74.06904,142652
abnb_1007188439349567523,1007188439349567523,3032946,entire_place,1,1.0,4.0,5.0,29.0,Comfy loft in La Candelaria,23497357.5,23497357.5,63.56,101281.72,365,12,Bogotá,cop,High,4.5922,-74.0746,142652
abnb_810431958271167995,810431958271167995,,entire_place,1,1.0,2.0,4.9,81.0,El Ventorrillo: Queen Bed • Colonial House • Patio,23265148.32,25264432.5,66.57,104328.02,335,12,Bogotá,cop,Low,4.59601,-74.07279,142652
abnb_1292881209220042797,1292881209220042797,,entire_place,1,1.5,4.0,4.8,24.0,New Loft. Luxury in Historic center Candelaria,23235661.44,23760159.32,49.44,132020.8,356,12,Bogotá,cop,Medium,4.5926,-74.0714,142652
abnb_609446279077610396,609446279077610396,,entire_place,1,1.0,2.0,,,La Candelaria Beautiful and Comfortable Studio Apartment,23202488.7,23202488.7,56.94,117779.13,346,12,Bogotá,cop,Low,4.59305,-74.07056,142652
abnb_49249087,49249087,,entire_place,1,1.0,2.0,4.9,79.0,1902A Apartment in the Heart of the City. Unique View,23088227.04,23666317.32,57.58,112625.5,356,12,Bogotá,cop,High,4.59741,-74.07408,142652
abnb_869050921688704645,869050921688704645,11422660ha,entire_place,1,1.0,3.0,5.0,5.0,Beautiful studio apartment in the historic center,23010823.98,23097183.68,57.97,109056.04,364,12,Bogotá,cop,High,4.592,-74.0741,142652
abnb_1487103672331859194,1487103672331859194,4753538,entire_place,4,3.0,9.0,4.8,11.0,Chic 4BR House in Vibrant La Candelaria,22929735.06,25374566.0,47.37,509549.69,95,12,Bogotá,cop,High,4.5946,-74.0753,142652
abnb_46899432,46899432,,entire_place,0,1.5,2.0,4.7,93.0,Apartment in the heart of Bogotá with a spectacular view,22778614.8,23498868.7,65.44,98608.72,353,12,Bogotá,cop,High,4.5977,-74.07303,142652
abnb_857217123336734013,857217123336734013,,entire_place,2,1.0,4.0,4.8,67.0,Cozy apartment in front of Monserrate -Casita del viento,22598007.66,22998402.63,36.77,171197.02,359,12,Bogotá,cop,Medium,4.6005,-74.0686,142652
abnb_1119608327118659041,1119608327118659041,,entire_place,1,1.0,2.0,5.0,41.0,"Modern loft, mountain view",22561149.06,23411956.12,77.23,84183.39,347,12,Bogotá,cop,Medium,4.5922,-74.0747,142652
abnb_40524814,40524814,,entire_place,2,1.0,4.0,4.8,144.0,Cozy apartment with amazing view,22539033.9,22604126.19,43.57,151268.68,342,12,Bogotá,cop,Medium,4.5935,-74.0725,142652
abnb_1325564043424148970,1325564043424148970,,entire_place,1,1.0,2.0,4.9,32.0,*Cozy Designer Studio @ Casa Rosada*,22387913.64,28304198.1,58.16,136511.67,282,12,Bogotá,cop,Low,4.59612,-74.07109,142652
abnb_942912645779864313,942912645779864313,,entire_place,1,1.0,3.0,4.8,148.0,Warm and modern loft in historic center/Parking,22343683.32,23201235.51,59.94,107421.55,347,12,Bogotá,cop,Low,4.59308,-74.07534,142652
abnb_587801805218097354,587801805218097354,,private_room,1,1.0,2.0,4.8,10.0,La Candelaria Centro MUISCA Republicana Private H,22284709.56,22284709.56,72.78,87735.08,349,12,Bogotá,cop,High,4.5979,-74.069,142652
abnb_1198073273130397342,1198073273130397342,,entire_place,2,2.0,4.0,4.8,73.0,Forest and Quiet 2 Bedroom Apartment,21916123.56,23903649.85,78.74,83331.26,334,12,Bogotá,cop,Medium,4.6001,-74.0677,142652
abnb_10518393,10518393,,entire_place,1,1.0,2.0,4.9,39.0,Cosy apt with beautiful views!  - La Candelaria,21875579.1,22015641.78,98.07,61448.26,363,12,Bogotá,cop,Medium,4.6,-74.0683,142652
abnb_1244985339904745485,1244985339904745485,,entire_place,1,1.0,2.0,5.0,3.0,Loft Candelaria downtown Bogotá,21765003.3,22407043.25,59.72,102665.11,355,12,Bogotá,cop,High,4.5911,-74.0746,142652
abnb_1142939737045527500,1142939737045527500,,entire_place,1,1.5,6.0,4.8,54.0,Macondo La Candelaria Apartment,21728144.7,22456986.66,71.1,86566.31,353,12,Bogotá,cop,High,4.5922,-74.0747,142652
abnb_49884768,49884768,,entire_place,0,1.0,4.0,4.5,32.0,Loft-style apartment in La Candelaria Centro,21702343.68,21763418.38,93.41,63830.43,364,12,Bogotá,cop,Low,4.59216,-74.07532,142652
abnb_48149151,48149151,,entire_place,1,1.0,3.0,4.8,89.0,New and cozy studio apartment in La Candelaria.,21190009.14,21190009.14,56.99,101875.04,365,12,Bogotá,cop,Low,4.59713,-74.06935,142652
abnb_1026178091524804556,1026178091524804556,4442879,entire_place,1,1.0,2.0,4.8,108.0,Cozy Vintage Room in Candelaria W/Starlink | AV3B,21020459.58,21110394.56,52.47,110054.76,364,12,Bogotá,cop,High,4.6003,-74.0711,142652
abnb_15164434,15164434,,entire_place,1,1.0,2.0,4.9,35.0,"Cozy loft, spectacular mountain views",20998344.42,26515007.94,91.94,83658.74,273,12,Bogotá,cop,Low,4.59542,-74.07155,142652
abnb_692005246096005446,692005246096005446,11139210ha,entire_place,1,1.5,3.0,5.0,17.0,R2/Modern Loft in the historic Candelaria.,20460208.86,23486815.94,85.71,113667.82,210,12,Bogotá,cop,High,4.59355,-74.07239,142652
abnb_51276495,51276495,,entire_place,1,1.0,2.0,4.8,119.0,"Loft La Candelaria, U Externado Amplio 202 H09 (Spacious)",20264858.28,20264858.28,59.18,93818.79,365,12,Bogotá,cop,Low,4.59706,-74.068,142652
abnb_1496750371469533552,1496750371469533552,,entire_place,3,2.0,5.0,5.0,14.0,Uni Los Andes Apartment – Historic Center Bogotá,20250114.84,38473559.56,86.67,194712.64,120,12,Bogotá,cop,Low,4.60184,-74.06713,142652
abnb_53704326,53704326,,entire_place,1,1.0,2.0,4.8,152.0,"Beautiful place, La Candelaria Historic Center.",20146910.76,20768641.62,64.41,88363.64,354,12,Bogotá,cop,Low,4.59745,-74.0678,142652
abnb_9950994,9950994,,entire_place,0,1.0,2.0,4.9,216.0,"Studio Historical Center La Candelaria, Bogota",20117423.88,20382474.07,66.67,83822.6,360,12,Bogotá,cop,Medium,4.5962,-74.0721,142652
abnb_1244274075425437848,1244274075425437848,,entire_place,1,0.0,2.0,4.4,19.0,Lovely Studio in Candelaria,20087937.0,20280596.9,46.69,118863.53,362,12,Bogotá,cop,High,4.592917907,-74.071937281,142652
abnb_1148589655837120859,1148589655837120859,,entire_place,1,1.0,2.0,,,Suite downtown historico Bogotá,20076879.42,31796550.45,77.31,120220.84,216,12,Bogotá,cop,Medium,4.5948,-74.0718,142652
abnb_985604827280878279,985604827280878279,,entire_place,1,1.0,3.0,4.9,37.0,Apartment in Centro Histórico,20051078.4,20287710.61,91.69,60577.27,361,12,Bogotá,cop,Medium,4.5985643,-74.06961,142652
abnb_1008960576959903055,1008960576959903055,,entire_place,1,1.0,2.0,4.7,109.0,Private Loft Belén Paradise Vintage,19866785.4,20260324.67,72.63,76410.72,358,12,Bogotá,cop,High,4.5915,-74.075,142652
abnb_856730322466412402,856730322466412402,,entire_place,1,1.0,3.0,4.5,15.0,New perfect apartment in the heart of Bogotá,19859413.68,19859413.68,74.79,74379.83,357,12,Bogotá,cop,Low,4.5925,-74.07358,142652
abnb_657155927175008815,657155927175008815,,entire_place,1,1.0,2.0,4.8,13.0,B - Studio with Wifi and TV near the Gold Museum,19653005.52,19653005.52,97.26,55360.58,365,12,Bogotá,cop,Low,4.60229,-74.07507,142652
abnb_884280250011589050,884280250011589050,,entire_place,1,1.0,2.0,5.0,39.0,Apartment in La Candelaria - Historic Center,19439225.64,20733257.37,88.53,64582.15,340,12,Bogotá,cop,High,4.6003,-74.0708,142652
abnb_1398954222447132726,1398954222447132726,,entire_place,1,1.0,4.0,5.0,21.0,Modern Loft | Historic Bogotá + Parking,19317592.26,25377330.39,67.86,112968.37,252,12,Bogotá,cop,Medium,4.5922,-74.0747,142652
abnb_1376197404444815722,1376197404444815722,,entire_place,1,1.5,3.0,4.7,28.0,Beautiful apartment with hot tub,19048524.48,42287097.75,59.26,198422.13,162,12,Bogotá,cop,Medium,4.592416612,-74.071549546,142652
abnb_700732446438743782,700732446438743782,,entire_place,1,1.0,5.0,5.0,41.0,Lovely loft downtown - La Candelaria,19004294.16,19016346.92,50.84,104996.1,356,12,Bogotá,cop,High,4.59279,-74.0754,142652
abnb_741167537959576492,741167537959576492,,entire_place,1,1.0,3.0,4.8,17.0,Cozy Duplex in the Heart of Bogota H61,18982179.0,18982179.0,66.97,85892.21,330,12,Bogotá,cop,Medium,4.5922,-74.0747,142652
abnb_52307447,52307447,,entire_place,1,1.0,4.0,4.8,106.0,Candelaria spectacular apartment studio loft/04,18937948.68,18937948.68,56.16,92380.24,365,12,Bogotá,cop,Low,4.59184,-74.0732,142652
abnb_1203132767639717961,1203132767639717961,20155125ha,entire_place,1,1.0,2.0,4.6,23.0,NOK Amazing Studio in Candelaria,18838430.46,18882181.62,48.63,106431.81,364,12,Bogotá,cop,High,4.5926,-74.0714,142652
abnb_919138587652707562,919138587652707562,,entire_place,1,1.0,2.0,4.7,21.0,Apartment in La Candelaria,18823687.02,19658055.15,60.57,88790.97,350,12,Bogotá,cop,High,4.5994,-74.06817,142652
abnb_1186944054481065866,1186944054481065866,4328193,entire_place,1,1.0,2.0,5.0,4.0,Modern apartment in La Candelaria - Bogotá,18775770.84,18847460.82,44.51,115899.82,364,12,Bogotá,cop,Medium,4.5978,-74.0688,142652
abnb_1390907341130121335,1390907341130121335,11738345ha,entire_place,1,1.0,4.0,4.0,4.0,NEW Loft in Historic District of Bogotá and UExternado,18724168.8,18818526.82,68.28,102317.86,268,12,Bogotá,cop,Medium,4.597922823,-74.068839848,142652
abnb_585576651896373909,585576651896373909,,private_room,1,1.0,2.0,4.8,37.0,La Candelaria Centro TAIRONA Republicana Private H,18595163.7,18595163.7,50.96,99974.0,365,12,Bogotá,cop,Medium,4.5979,-74.069,142652
abnb_19326309,19326309,7213462ha,entire_place,1,1.0,2.0,4.7,13.0,Aparta Suites La Candelaria Bogotá,18532504.08,29917093.58,70.3,130510.59,202,12,Bogotá,cop,Medium,4.5948,-74.0718,142652
abnb_1467553006281741900,1467553006281741900,,entire_place,2,1.5,8.0,4.6,59.0,* Incredible View with Jacuzzi near museums *,18440357.58,23919277.89,92.76,130782.68,152,12,Bogotá,cop,Medium,4.5946,-74.0728,142652
abnb_1352270500943040133,1352270500943040133,,entire_place,1,1.0,3.0,4.8,40.0,Lotf Candelaria Mystic,18289237.32,20735616.32,77.78,79174.19,297,12,Bogotá,cop,High,4.5922,-74.0747,142652
abnb_929104675381180490,929104675381180490,,entire_place,1,1.0,2.0,4.7,45.0,*ML Super cool Loft  moderno cozy Candelaria,18278179.74,18278179.74,45.73,110109.51,363,12,Bogotá,cop,Low,4.59891,-74.07005,142652
abnb_46793626,46793626,,entire_place,1,1.0,2.0,4.9,50.0,Beautiful loft in front of Bogotá Historic Center.,18274493.88,23453864.35,90.0,75203.68,270,12,Bogotá,cop,Low,4.59161,-74.0753,142652
abnb_1149216064647335109,1149216064647335109,,entire_place,1,1.0,2.0,5.0,1.0,La Candelaria Small Loft Apartment,18263436.3,32633461.82,84.29,113437.49,191,12,Bogotá,cop,Medium,4.5948,-74.0718,142652
abnb_1349337779268384883,1349337779268384883,,private_room,1,1.0,2.0,5.0,2.0,Studio in the historic center,18241321.14,18336932.35,71.34,77954.36,328,12,Bogotá,cop,Low,4.593666408,-74.070749053,142652
abnb_612845051355437608,612845051355437608,,entire_place,1,2.0,3.0,4.8,12.0,La Candelaria Bogotá- Morph Luxurious Apartment,18230263.56,18230263.56,29.41,182302.64,340,12,Bogotá,cop,Low,4.59311,-74.07221,142652
abnb_1351516497264073934,1351516497264073934,11826058ha,entire_place,2,1.0,4.0,4.5,26.0,Cozy Loft 2BR | La Candelaria | Best Location,18211834.26,18506187.04,48.18,137968.45,274,12,Bogotá,cop,High,4.5943449,-74.0714916,142652
abnb_1148568880480993669,1148568880480993669,,entire_place,1,1.0,2.0,5.0,1.0,La Candelaria Small Loft Apartment,18171289.8,29699332.97,81.0,112168.45,200,12,Bogotá,cop,Medium,4.5948,-74.0718,142652
abnb_48627634,48627634,,entire_place,1,1.0,2.0,4.8,69.0,Studio in La Candelaria near historic downtown,18104944.32,18532762.09,46.59,110396.0,352,12,Bogotá,cop,Low,4.59762,-74.06775,142652
vrbo_11888441ha,,11888441ha,entire_place,5,3.5,9.0,,,"Tourist Housing of colonial architecture in La Candelaria-Bogota, Colombia.",18005426.1,18314190.59,34.07,290410.09,182,12,Bogotá,cop,Low,4.593277,-74.07211,142652
abnb_17651219,17651219,,entire_place,1,1.0,2.0,5.0,59.0,Bright 1 bedroom in the heart of Bogota,17905907.88,19849609.29,74.51,78534.69,306,12,Bogotá,cop,Low,4.60123,-74.06695,142652
abnb_52408246,52408246,2520783,entire_place,1,1.5,2.0,4.7,181.0,|Ahead| Cute 1BR @La Calendaria + Best view,17806389.66,19997670.29,61.92,120313.44,239,12,Bogotá,cop,Low,4.59557,-74.06934,142652
abnb_53000036,53000036,,private_room,1,1.0,3.0,4.9,175.0,"room in La Candelaria, historic center",17721614.88,17721614.88,72.6,66874.02,365,12,Bogotá,cop,Low,4.59845,-74.06785,142652
abnb_607975907636835313,607975907636835313,,entire_place,1,1.0,2.0,4.8,9.0,La Candelaria comfortable and cozy apartment,17684756.28,17820911.95,35.29,163747.74,306,12,Bogotá,cop,Low,4.59185,-74.0718,142652
abnb_648004060574191420,648004060574191420,,entire_place,0,1.0,2.0,4.8,45.0,Amazing New Loft in Historic Downtown Btá,17607353.22,17849993.38,58.06,108687.36,279,12,Bogotá,cop,High,4.5935,-74.07035,142652
abnb_758074342850179912,758074342850179912,,entire_place,1,1.0,3.0,4.8,109.0,Apartment located in the Historical Center,17552065.32,17687262.66,94.77,51023.44,363,12,Bogotá,cop,Medium,4.5985643,-74.06961,142652
abnb_1456663306514069798,1456663306514069798,4655389,entire_place,1,1.5,2.0,5.0,28.0,|Ahead| Nice 1BR @La Candelaria with laundry room,17522578.44,17891754.18,82.94,124273.61,170,12,Bogotá,cop,Low,4.59551,-74.06981,142652
abnb_797656433608823554,797656433608823554,,entire_place,1,1.0,2.0,4.7,45.0,Cozy Loft in La Candelaria,17467290.54,17552433.91,81.16,65420.56,329,12,Bogotá,cop,Low,4.59283,-74.07497,142652
abnb_1198204597207898585,1198204597207898585,20155131ha,entire_place,1,1.5,2.0,4.4,17.0,NOK Amazing Studio in Candelaria,17323542.0,17323542.0,40.0,118654.39,365,12,Bogotá,cop,High,4.5926,-74.0714,142652
abnb_856494079286969981,856494079286969981,,entire_place,1,1.0,3.0,4.5,82.0,"Modern apartment in La Candelaria, Bogotá",17319856.14,17319856.14,59.45,79815.0,365,12,Bogotá,cop,Low,4.59161,-74.07536,142652
abnb_1148619243734321641,1148619243734321641,,entire_place,1,1.0,2.0,5.0,3.0,Candelaria Studio,17282997.54,28622988.13,83.25,99327.58,209,12,Bogotá,cop,Medium,4.5948,-74.0718,142652
abnb_862229726647427885,862229726647427885,,entire_place,1,2.0,4.0,4.9,66.0,Aparta-studio - Historic Center of Bogotá,17161364.16,17161364.16,52.33,89850.07,365,12,Bogotá,cop,Medium,4.5922,-74.0747,142652
abnb_1195545055757719941,1195545055757719941,4165425,entire_place,1,1.5,2.0,4.4,18.0,NOK Amazing 1 Br in Candelaria,16988128.74,16988128.74,39.23,119634.7,362,12,Bogotá,cop,High,4.5926,-74.0714,142652
abnb_828671702816188582,828671702816188582,,entire_place,1,1.0,2.0,4.8,37.0,Apartment in the heart of Bogotá,16837008.48,17872108.54,56.12,89558.56,335,12,Bogotá,cop,Low,4.60129,-74.0682,142652
abnb_18580600,18580600,,private_room,2,1.0,3.0,4.8,55.0,Private Room w/ a View Downtown Bogota (Las Aguas),16748547.84,16748547.84,86.58,53001.73,365,12,Bogotá,cop,Medium,4.6003,-74.0678,142652
abnb_1105137615377466155,1105137615377466155,,entire_place,1,1.0,3.0,5.0,24.0,"La Canderia, Peaceful Apt + Parking&Laundry",16634286.18,27066375.74,49.55,149858.44,224,12,Bogotá,cop,High,4.5952,-74.0704,142652
abnb_562349612472540415,562349612472540415,,entire_place,1,2.0,2.0,4.4,10.0,Great Studio,16409448.72,16409448.72,60.56,95403.77,284,12,Bogotá,cop,Low,4.5931,-74.07033,142652
abnb_1466634391025121814,1466634391025121814,,entire_place,2,2.0,6.0,4.9,23.0,Fully equipped apt at trendy historic center,16169867.82,27095752.04,81.53,126327.09,157,12,Bogotá,cop,Low,4.593006069,-74.0741125,142652
abnb_1395308939472297339,1395308939472297339,,entire_place,7,7.0,16.0,5.0,1.0,Colonial House with 7 Bedrooms in the Historic Center,16048234.44,16048234.44,18.69,802411.72,107,12,Bogotá,cop,Medium,4.5936987,-74.0734275,142652
abnb_1466163859141429556,1466163859141429556,,entire_place,3,1.5,6.0,4.7,25.0,Beautiful and cozy house in downtown - Candelaria,15863941.44,32906657.77,54.55,203383.86,143,12,Bogotá,cop,Medium,4.595,-74.0701,142652
abnb_620337134029020909,620337134029020909,,private_room,1,1.0,2.0,5.0,123.0,Spacious and beautiful room in the Historic Center,15745993.92,18359010.65,92.61,59870.7,284,12,Bogotá,cop,Low,4.59873,-74.07127,142652
abnb_53460910,53460910,,entire_place,1,1.5,4.0,4.8,58.0,Wonderful corner studio Candelaria/05,15723878.76,15723878.76,54.07,84536.98,344,12,Bogotá,cop,Medium,4.5922,-74.0747,142652
abnb_588536467861692831,588536467861692831,,entire_place,1,1.0,4.0,4.7,87.0,Terrace with panoramic views of La Candelaria/03,15687020.16,15687020.16,46.54,93375.12,361,12,Bogotá,cop,Medium,4.59216,-74.07471,142652
abnb_566008242109786658,566008242109786658,,entire_place,1,1.0,2.0,4.6,8.0,Studio apartment in the heart of Bogota,15668590.86,15668590.86,87.12,49272.3,365,12,Bogotá,cop,Low,4.59974,-74.06967,142652
abnb_34201861,34201861,,entire_place,1,1.0,3.0,4.7,55.0,"Lightly Apt with Yard View, Fireplace & Balcony",15576444.36,22954061.74,78.33,82853.43,240,12,Bogotá,cop,Medium,4.593748093,-74.072143555,142652
abnb_1059688366470350605,1059688366470350605,,entire_place,1,3.0,3.0,4.9,68.0,Studio apartment in Casa Candelaria,15521156.46,16960632.22,78.08,59696.76,333,12,Bogotá,cop,Medium,4.5909,-74.0749,142652
abnb_1234846572438288417,1234846572438288417,,private_room,1,,4.0,4.8,73.0,Bogotá Silvestre Loft,15447439.26,15447439.26,63.29,66872.03,365,12,Bogotá,cop,High,4.5922,-74.0747,142652
abnb_595889299246019668,595889299246019668,,entire_place,1,1.5,4.0,4.8,128.0,Loft-LaCandelaria-BOG-3 Beds-1 Bath+Kitchen-WIFI,15358978.62,16032016.66,69.71,62946.64,350,12,Bogotá,cop,Medium,4.592,-74.0746,142652
abnb_576671843677532841,576671843677532841,,private_room,1,1.0,3.0,4.8,37.0,Room in the historic center,15344235.18,15344235.18,65.75,63934.31,365,12,Bogotá,cop,Low,4.59821,-74.06741,142652
abnb_585578516314665705,585578516314665705,,private_room,1,1.0,3.0,4.9,37.0,Private H La Candelaria Centro CALIMA Republicana,15340549.32,15340549.32,40.27,104357.48,365,12,Bogotá,cop,High,4.5979,-74.069,142652
abnb_1413117499411885214,1413117499411885214,,entire_place,1,1.0,3.0,5.0,15.0,Modern Loft in La Candelaria + Local experience,15277889.7,28859067.47,41.71,184070.96,199,12,Bogotá,cop,Medium,4.5927,-74.0714,142652
abnb_1404331265312175153,1404331265312175153,,entire_place,1,1.0,2.0,4.8,28.0,Apartment in the historic center 403,15178371.48,19041889.93,88.62,69625.56,246,12,Bogotá,cop,Medium,4.5914,-74.0745,142652
abnb_8980675,8980675,,entire_place,1,1.0,2.0,4.8,338.0,Apartment in the historic center,15119397.72,16349553.5,82.24,57270.45,321,12,Bogotá,cop,Medium,4.597,-74.0729,142652
abnb_1292887234996743165,1292887234996743165,,private_room,1,,2.0,2.0,1.0,Private Double Room with Bathroom. 102,15034622.94,15034622.94,54.25,75932.44,365,12,Bogotá,cop,Medium,4.6004,-74.0692,142652
abnb_24699011,24699011,,entire_place,1,1.0,3.0,4.7,143.0,"Cozy Apartment - WIFI 70mg, Fireplace and Patio",14949848.16,15320866.83,45.79,91716.86,356,12,Bogotá,cop,Medium,4.5948,-74.0716,142652
abnb_1059668986782512549,1059668986782512549,,entire_place,1,3.0,2.0,4.9,64.0,Casa del Viento Double Studio. Private bathroom + kitchen,14924047.14,15947831.61,73.82,59458.35,340,12,Bogotá,cop,Medium,4.5909,-74.0749,142652
abnb_17876426,17876426,,entire_place,1,1.0,4.0,4.7,156.0,Stunning Apt with Fireplace and Garden View,14850329.94,19864021.0,50.36,106073.79,278,12,Bogotá,cop,Medium,4.5941,-74.0723,142652
abnb_1207185143891722949,1207185143891722949,,entire_place,1,1.0,3.0,4.8,19.0,Candelaria Bogotá Loft-style apartment,14725010.7,25530109.29,90.22,88704.88,184,12,Bogotá,cop,High,4.5925,-74.0749,142652
abnb_52866652,52866652,,private_room,2,1.0,3.0,4.9,59.0,Private Room in Downtown,14603377.32,14603377.32,85.48,46805.7,365,12,Bogotá,cop,Low,4.59962,-74.06834,142652
abnb_29612587,29612587,,entire_place,3,2.0,5.0,4.8,40.0,Beautiful Light-Filled House in La Candelaria,14485429.8,14701974.08,27.84,268248.71,194,12,Bogotá,cop,Medium,4.5937,-74.072,142652
abnb_1264645588268530996,1264645588268530996,,private_room,1,1.0,2.0,5.0,7.0,Jazz house,14470686.36,14470686.36,81.11,49557.15,360,12,Bogotá,cop,Medium,4.5996,-74.0687,142652
abnb_1125485958750901270,1125485958750901270,,entire_place,1,1.0,2.0,4.7,74.0,"Spectacular Loft Apartment - La Candelaria, Bogotá",14422770.18,25088285.25,70.73,99467.38,205,12,Bogotá,cop,High,4.5926305,-74.0714208,142652
abnb_718415902679117300,718415902679117300,11157831ha,entire_place,1,1.0,5.0,5.0,59.0,"Candelaria Mágica, luxury and cozy apartment.",14352738.84,14352738.84,22.33,214219.99,300,12,Bogotá,cop,Low,4.59906,-74.07272,142652
abnb_841303649581226329,841303649581226329,,entire_place,1,1.0,4.0,4.8,59.0,Comfortable duplex apartment in Candelaria/14,14013639.72,14013639.72,37.4,103804.74,361,12,Bogotá,cop,Low,4.59241,-74.07523,142652
abnb_1059695742024969751,1059695742024969751,,entire_place,1,3.0,2.0,4.8,68.0,Studio apartment in Gran Casa La Candelaria,13995210.42,14925705.78,72.57,56891.1,339,12,Bogotá,cop,Low,4.59181,-74.07571,142652
abnb_925286431594608031,925286431594608031,,entire_place,1,1.0,2.0,,,"102 Casa Aranjuez, La Candelaria",13954665.96,14194283.72,36.89,122409.35,309,12,Bogotá,cop,Medium,4.5936,-74.0699,142652
abnb_53518669,53518669,,entire_place,1,1.0,3.0,4.7,66.0,Candelaria loft (Your home in La Candelaria) | 3 pax,13939922.52,14850845.96,70.03,59067.47,337,12,Bogotá,cop,Medium,4.5913,-74.0725,142652
abnb_1448968499938243472,1448968499938243472,,private_room,1,1.0,2.0,5.0,11.0,Double room in La Candelaria,13921493.22,13984042.26,75.41,100880.39,183,12,Bogotá,cop,Medium,4.5961,-74.0721,142652
abnb_23559551,23559551,,entire_place,1,1.0,2.0,4.7,235.0,"R6 - Cozy studio apartment, kitchen and private bathroom",13796173.98,13887841.32,37.28,106947.08,346,12,Bogotá,cop,Low,4.59563,-74.07191,142652
abnb_1259587461827891492,1259587461827891492,,entire_place,1,1.0,3.0,4.9,10.0,Brand new apartment in the heart of Bogotá,13704027.48,20254648.45,82.38,79214.03,210,12,Bogotá,cop,Low,4.59287,-74.07544,142652
abnb_41474387,41474387,,private_room,1,1.0,2.0,4.8,232.0,203Casa Florida  + free parking,13622938.56,13622938.56,31.78,117439.12,365,12,Bogotá,cop,Medium,4.5974,-74.072,142652
abnb_48890475,48890475,,entire_place,2,2.5,5.0,4.8,50.0,Spacious apartment Ed Continental downtown Bogotá,13560278.94,13593193.67,24.88,271205.58,201,12,Bogotá,cop,Low,4.60004,-74.06932,142652
abnb_5953045,5953045,,private_room,1,1.0,1.0,,,"Bedroom, bathroom, fridge, TV, kitchen if you want",13434959.7,13459912.97,90.0,55287.9,270,12,Bogotá,cop,Low,4.59746,-74.0764,142652
abnb_838446660592694544,838446660592694544,,private_room,1,1.0,2.0,4.8,4.0,Candelaria Cozy Room Terrace & Wellness in Bogotá,13398101.1,13649071.31,43.11,93042.37,334,12,Bogotá,cop,Medium,4.599,-74.0673,142652
abnb_1149501773752421594,1149501773752421594,,entire_place,1,1.0,5.0,5.0,25.0,Splendid loft- La Candelaria,13353870.78,13353870.78,36.47,104327.12,351,12,Bogotá,cop,Medium,4.5922,-74.0747,142652
abnb_1335061581639051628,1335061581639051628,,entire_place,1,1.0,3.0,4.8,11.0,Your home in the heart of Bogotá,13320698.04,14214039.93,61.09,79289.87,275,12,Bogotá,cop,Low,4.598815448,-74.070097928,142652
abnb_20955318,20955318,,entire_place,1,1.0,4.0,4.7,74.0,Duplex w/Terrace Amazing 360º View of Bogotá,13184321.22,13247312.57,48.44,141766.89,192,12,Bogotá,cop,Medium,4.594,-74.0724,142652
abnb_1075612511918487179,1075612511918487179,,entire_place,1,1.5,4.0,5.0,75.0,"Entire loft in Bogotá, Colombia",13125347.46,22544857.56,72.19,97224.79,187,12,Bogotá,cop,Medium,4.5918,-74.0747,142652
abnb_1158415932473822745,1158415932473822745,,entire_place,1,1.0,4.0,4.9,46.0,The corner suite - magic starts here in downtown!,13003714.08,22365872.2,79.05,78335.63,210,12,Bogotá,cop,High,4.595513259,-74.070977904,142652
abnb_1238645965227533031,1238645965227533031,,entire_place,1,1.0,2.0,5.0,3.0,Cozy Brand New Flat: Candelaria,12952112.04,16046244.08,91.57,79460.81,178,12,Bogotá,cop,Low,4.59219,-74.07172,142652
abnb_887044254395593172,887044254395593172,,private_room,1,1.0,2.0,4.9,61.0,217 Cozy room in a Art Déco Home,12952112.04,12952112.04,52.94,71956.18,340,12,Bogotá,cop,Medium,4.5974,-74.0721,142652
abnb_1308348886455237403,1308348886455237403,,private_room,1,1.0,1.0,5.0,1.0,Private room Centro - Colonial House - Zafiro,12907881.72,12907881.72,38.56,104942.13,319,12,Bogotá,cop,Medium,4.5983,-74.0741,142652
abnb_1318800433212241127,1318800433212241127,,entire_place,1,1.0,4.0,3.0,2.0,Modern Loft in La Candelaria,12893138.28,12893138.28,76.42,73675.07,229,12,Bogotá,cop,Medium,4.5921609,-74.0747102,142652
abnb_1278944140313178110,1278944140313178110,,private_room,1,1.0,2.0,,,Bogotá House Garden interior,12830478.66,12830478.66,71.43,95040.58,189,12,Bogotá,cop,Medium,4.5993,-74.0681,142652
abnb_856690711743120881,856690711743120881,,private_room,1,1.0,2.0,4.8,68.0,"213 ""In the heart of the historic center""",12793620.06,12793620.06,43.49,81488.02,361,12,Bogotá,cop,Low,4.59784,-74.07306,142652
abnb_25479197,25479197,,entire_place,0,1.0,2.0,4.8,60.0,Downtown Bogota suite apartment,12705159.42,20819137.91,52.49,133738.52,181,12,Bogotá,cop,Low,4.59401,-74.07206,142652
abnb_25141929,25141929,11124453ha,entire_place,1,1.0,3.0,4.9,57.0,Spectacular Apartment @ Historic Center,12686730.12,12686730.12,68.21,107514.66,173,12,Bogotá,cop,High,4.59671,-74.0695,142652
abnb_623176415427325428,623176415427325428,,entire_place,1,1.0,3.0,5.0,4.0,Morph Candelaria Bogotá- Loft with Terrace,12668300.82,12668300.82,31.52,156398.78,257,12,Bogotá,cop,Low,4.59383,-74.07077,142652
abnb_24332881,24332881,,entire_place,1,1.0,3.0,4.7,197.0,R8 - Comfortable ApartoStudio Kitchen and private bathroom,12664614.96,12681901.64,41.54,112076.24,272,12,Bogotá,cop,Low,4.59403,-74.07234,142652
abnb_48626605,48626605,,entire_place,1,1.0,2.0,4.8,79.0,"Heating studio, Candelaria, Monserrate Bogotá",12660929.1,12889968.44,32.67,110095.04,352,12,Bogotá,cop,Low,4.59876,-74.06788,142652
abnb_42378465,42378465,,private_room,1,2.0,2.0,5.0,15.0,Mono Apto Big House of Candelaria 200m2,12642499.8,13637645.14,68.67,55449.56,332,12,Bogotá,cop,Low,4.59064,-74.07565,142652
abnb_766894371373018043,766894371373018043,,entire_place,1,1.0,3.0,4.0,5.0,New Studio Apartment in La Candelaria,12524552.28,23324527.52,86.71,83497.02,173,12,Bogotá,cop,Low,4.5915,-74.07573,142652
abnb_1113253284510632520,1113253284510632520,,entire_place,1,1.0,3.0,4.9,22.0,Apartment in the historic center of Bogotá.,12502437.12,12502437.12,43.71,89945.59,318,12,Bogotá,cop,Medium,4.5922,-74.0747,142652
abnb_54264774,54264774,,private_room,0,8.0,2.0,5.0,3.0,Casa Aranjuez 204. La Candelaria.,12469264.38,12704975.13,29.07,148443.63,289,12,Bogotá,cop,Medium,4.5936,-74.0699,142652
abnb_3280643,3280643,,private_room,1,1.0,2.0,4.7,141.0,Comfortable Room in La Candelaria,12461892.66,12461892.66,25.48,133998.85,365,12,Bogotá,cop,Low,4.59982,-74.07094,142652
abnb_54280865,54280865,,private_room,1,1.0,2.0,4.9,67.0,Beautiful and spacious room in the Historic Center,12454520.94,13403261.3,61.24,60166.77,338,12,Bogotá,cop,Low,4.59859,-74.07049,142652
abnb_1448982131110246945,1448982131110246945,,private_room,1,1.0,2.0,5.0,2.0,Double room in La Candelaria,12284971.38,14091632.52,68.48,97499.77,184,12,Bogotá,cop,Medium,4.5961,-74.0721,142652
abnb_1151771556199718776,1151771556199718776,,private_room,1,3.0,3.0,4.7,19.0,Studio Apartment with a Private Double Bathroom and Kitchen,12222311.76,13133824.94,73.37,49283.52,338,12,Bogotá,cop,Medium,4.591,-74.0749,142652
abnb_54142929,54142929,,entire_place,1,1.0,4.0,4.4,8.0,Comfortable Apartment in La Candelaria,12222311.76,12222311.76,27.12,123457.7,365,12,Bogotá,cop,Low,4.5928,-74.07418,142652
abnb_1012429424359451663,1012429424359451663,,entire_place,1,1.5,3.0,4.9,11.0,Bohemian SaMai Studio,12144908.7,12357914.55,69.43,76383.07,229,12,Bogotá,cop,Medium,4.5935,-74.0744,142652
abnb_39409376,39409376,,private_room,1,1.0,4.0,4.7,49.0,201 ArtDeco room BEST part of Candelaria,12115421.82,12115421.82,29.86,111150.66,365,12,Bogotá,cop,Medium,4.5975,-74.0721,142652
abnb_42380209,42380209,,private_room,1,1.0,2.0,4.9,98.0,Nice Room in Candelaria's traditional Neighborhood,12052762.2,12926716.46,79.65,44639.86,339,12,Bogotá,cop,Low,4.59185,-74.07543,142652
abnb_573984055958973005,573984055958973005,,private_room,1,1.0,3.0,4.9,57.0,La Candelaria Centro ELDORADORepublicana Private H,12019589.46,12019589.46,32.6,101004.96,365,12,Bogotá,cop,Medium,4.5979,-74.069,142652
abnb_1270378713675624011,1270378713675624011,,private_room,1,1.0,4.0,4.4,28.0,Room in Colonial House,12008531.88,12008531.88,48.22,68230.3,365,12,Bogotá,cop,Medium,4.5946,-74.0735,142652
abnb_1392282775538025163,1392282775538025163,,entire_place,1,1.0,3.0,5.0,7.0,Modern apartment in historic center,12001160.16,16893770.72,88.1,64871.14,210,12,Bogotá,cop,Medium,4.5922,-74.0747,142652
abnb_1502243633740336192,1502243633740336192,,entire_place,3,4.0,8.0,4.0,3.0,Mini house Quinta Bolivar | Full Andes Monserrate,11967987.42,45749668.35,42.86,306871.47,91,12,Bogotá,cop,Medium,4.6022,-74.064,142652
abnb_1333493216085665172,1333493216085665172,4655398,entire_place,2,2.0,6.0,4.0,8.0,|Ahead| Stylish 2BR @La Candelaria + Laundry,11956929.84,29074026.82,70.69,145816.21,116,12,Bogotá,cop,Low,4.594591918,-74.071019438,142652
abnb_1277499521936088614,1277499521936088614,,entire_place,1,1.0,4.0,4.8,9.0,Cozy Tiny House in the Heart of Bogotá,11945872.26,13430757.82,73.75,67490.8,240,12,Bogotá,cop,High,4.5927715,-74.0708801,142652
abnb_1268312929422198955,1268312929422198955,,entire_place,1,1.0,2.0,4.8,8.0,La Sabana Apartment,11938500.54,11996221.11,33.9,99487.51,354,12,Bogotá,cop,Low,4.600559375,-74.069977151,142652
abnb_589077751009800393,589077751009800393,,entire_place,1,2.0,4.0,4.8,127.0,HC|Modern & Cozy Apartment In The City Old Quarter,11846354.04,12171962.91,54.12,128764.72,170,12,Bogotá,cop,High,4.592095,-74.070946,142652
abnb_573984879065490284,573984879065490284,,private_room,1,1.0,2.0,4.9,12.0,La Candelaria Centro QUIMBAYA Republican Private H,11787380.28,11787380.28,32.14,100746.84,364,12,Bogotá,cop,High,4.5979,-74.069,142652
abnb_54264690,54264690,,private_room,1,1.0,2.0,,,"Casa Aranjuez, 201",11687862.06,11875103.75,32.36,105296.06,343,12,Bogotá,cop,Medium,4.5936,-74.0699,142652
abnb_6731302,6731302,,private_room,1,1.0,1.0,5.0,2.0,Comfortable room in La Candelaria,11614144.86,12140964.83,91.3,36870.3,345,12,Bogotá,cop,Low,4.60032,-74.07059,142652
abnb_1443419470967453908,1443419470967453908,,entire_place,2,1.0,6.0,4.8,18.0,"Apartment with shed, historic center La Candelaria",11477768.04,26761886.84,51.7,126129.32,176,12,Bogotá,cop,Low,4.59322,-74.07399,142652
abnb_1448975843558021155,1448975843558021155,,private_room,1,1.0,2.0,,,Double room in La Candelaria,11455652.88,13194604.77,70.05,87447.73,187,12,Bogotá,cop,Medium,4.5961,-74.0721,142652
abnb_1147743458257853363,1147743458257853363,,entire_place,1,1.0,3.0,5.0,5.0,La Candelaria,11400364.98,15282091.58,61.0,93445.61,200,12,Bogotá,cop,Low,4.59152956,-74.074333066,142652
abnb_1465371054414240780,1465371054414240780,,entire_place,1,1.0,4.0,4.4,20.0,* Exceptional Loft in a Colonial House *,11378249.82,15253673.6,86.23,79015.62,167,12,Bogotá,cop,Medium,4.5946,-74.0728,142652
abnb_1268267676255210787,1268267676255210787,,entire_place,1,1.0,3.0,4.8,21.0,Senda Bogotana Apartment,11341391.22,11635264.84,30.25,119383.06,314,12,Bogotá,cop,Low,4.600483274,-74.071673446,142652
abnb_649356545889003857,649356545889003857,,entire_place,1,1.0,2.0,4.8,99.0,Spectacular studio apartment in the Historic Center,11337705.36,15706223.49,74.79,63694.98,238,12,Bogotá,cop,Low,4.59179,-74.07528,142652
abnb_972470096847605664,972470096847605664,,entire_place,1,1.0,2.0,,,Spectacular Duplex in La Candelaria,11234501.28,13527143.06,69.68,104023.16,155,12,Bogotá,cop,Low,4.59189,-74.07424,142652
abnb_1308215006873094099,1308215006873094099,,entire_place,1,1.0,4.0,4.9,10.0,Candelaria Mágica II,11164469.94,11164469.94,27.27,169158.64,242,12,Bogotá,cop,Low,4.599173214,-74.073223849,142652
abnb_1177512021518469785,1177512021518469785,,entire_place,2,2.0,4.0,4.5,31.0,Cozy 2 Br apt in Candelaria,11134983.06,11455247.44,32.47,222699.66,154,12,Bogotá,cop,Medium,4.5926,-74.0714,142652
abnb_1340067876852791840,1340067876852791840,,entire_place,1,1.0,3.0,5.0,10.0,"Modern Loft Apartment,  La Candelaria",11061265.86,11346920.01,47.54,76284.59,305,12,Bogotá,cop,Low,4.592604972,-74.075822627,142652
abnb_803048976004805213,803048976004805213,,private_room,1,1.0,2.0,4.8,104.0,205Casa florida + free parking,10980176.94,10980176.94,36.99,81334.65,365,12,Bogotá,cop,Medium,4.5974,-74.072,142652
abnb_857933895981776018,857933895981776018,,entire_place,1,1.0,4.0,4.8,19.0,Loft full amenities La Candelaria,10862229.42,10862229.42,35.54,92052.79,332,12,Bogotá,cop,Medium,4.5922,-74.0747,142652
abnb_1345016862785820693,1345016862785820693,,entire_place,1,1.0,1.0,5.0,17.0,Candelaria Centro Accommodation,10795883.94,10795883.94,61.4,64646.01,272,12,Bogotá,cop,Low,4.599140679,-74.068832469,142652
abnb_1309786645752666046,1309786645752666046,,private_room,1,1.0,2.0,,,Workspace Room - Downtown Bogota-Diamante,10762711.2,10762711.2,28.21,122303.54,312,12,Bogotá,cop,Medium,4.5983,-74.0741,142652
abnb_626149128107807480,626149128107807480,,entire_place,1,1.0,4.0,4.7,30.0,Cozy Loft  in La Candelaria - Downtown,10755339.48,10931707.88,46.67,85359.84,270,12,Bogotá,cop,Medium,4.5922,-74.0747,142652
abnb_1201585979511780142,1201585979511780142,,private_room,1,,2.0,4.8,22.0,Private Room - Historic Center,10622648.52,10622648.52,53.35,55615.96,358,12,Bogotá,cop,Medium,4.6001,-74.0677,142652
abnb_671602827370830410,671602827370830410,,private_room,1,1.5,2.0,4.8,84.0,The Tower 2 -Our beautiful view in the Candelaria,10357266.6,10357266.6,55.06,52843.2,356,12,Bogotá,cop,Low,4.59251,-74.07309,142652
abnb_1290698662902888672,1290698662902888672,,private_room,1,1.0,2.0,,,Double Room Shared Bathroom. 202,10287235.26,10287235.26,47.4,59463.79,365,12,Bogotá,cop,Medium,4.6004,-74.0692,142652
abnb_1372008685132597973,1372008685132597973,,entire_place,1,1.0,2.0,5.0,11.0,Ideal accommodation - La Candelaria,10095570.54,12445564.3,63.14,62705.41,255,12,Bogotá,cop,High,4.591883186,-74.074345417,142652
abnb_1059709583142280814,1059709583142280814,,private_room,1,2.0,1.0,4.8,80.0,Single Room y Traditional House,9973937.16,10809042.46,70.54,42084.12,336,12,Bogotá,cop,Low,4.59055,-74.07597,142652
abnb_692006028309772866,692006028309772866,11139211ha,entire_place,1,1.5,2.0,4.3,7.0,R1/ Artistic loft in La Candelaria,9933392.7,9933392.7,54.41,89490.03,204,12,Bogotá,cop,Low,4.59171,-74.07091,142652
abnb_573983474928407727,573983474928407727,,private_room,1,1.0,2.0,4.9,131.0,La Candelaria Centro CHIBCHA Republicana Private H,9911277.54,9911277.54,29.72,92628.76,360,12,Bogotá,cop,Medium,4.5979,-74.069,142652
abnb_1448918303626778509,1448918303626778509,,private_room,1,1.0,2.0,5.0,2.0,Double room in La Candelaria,9867047.22,10018499.21,53.3,101722.14,182,12,Bogotá,cop,Medium,4.5961,-74.0721,142652
abnb_1008692968627243844,1008692968627243844,,private_room,1,1.0,2.0,4.8,126.0,"210 Nice room, very comfortable",9767529.0,9767529.0,32.12,84935.03,358,12,Bogotá,cop,Medium,4.5974,-74.072,142652
abnb_639107826535884043,639107826535884043,,entire_place,1,1.0,2.0,4.7,48.0,Loft with panoramic view in Bogotá,9741727.98,10065272.77,44.8,68603.72,317,12,Bogotá,cop,Low,4.59146,-74.07371,142652
abnb_1026086243087516177,1026086243087516177,,private_room,1,1.0,2.0,4.3,9.0,Room #12 Historic Downtown,9730670.4,9730670.4,50.97,52884.08,361,12,Bogotá,cop,High,4.59983,-74.07017,142652
abnb_1318977844488354264,1318977844488354264,,entire_place,1,1.0,4.0,4.6,16.0,Loft in La Candelaria. Historic center!,9726984.54,9789939.03,44.63,70999.89,307,12,Bogotá,cop,Medium,4.5913,-74.0745,142652
abnb_1084666992734786155,1084666992734786155,,private_room,1,1.0,1.0,4.9,55.0,Historic Downtown Room,9679068.36,9679068.36,38.08,69633.58,365,12,Bogotá,cop,Low,4.59941,-74.07288,142652
abnb_1503683220522247513,1503683220522247513,,entire_place,2,1.0,4.0,4.9,11.0,Uni Los Andes Apartment – Historic Center Bogotá,9638523.9,25354183.19,77.53,139688.76,89,12,Bogotá,cop,Medium,4.6014,-74.0666,142652
abnb_925258090872676318,925258090872676318,,entire_place,0,1.0,2.0,5.0,1.0,Casa Aranjuez 203,9609037.02,9789865.31,29.35,105593.81,310,12,Bogotá,cop,Medium,4.5936,-74.0699,142652
abnb_1145268406023613914,1145268406023613914,,entire_place,1,1.0,3.0,4.9,10.0,A brightly lit loft in Historic Downtown - La Candelaria,9572178.42,9926094.7,38.21,83236.34,301,12,Bogotá,cop,Low,4.60038,-74.07292,142652
abnb_1268229900559918440,1268229900559918440,,entire_place,1,1.0,2.0,4.7,9.0,Monserrate apartment.,9299424.78,9357882.52,25.71,102191.48,354,12,Bogotá,cop,Low,4.599948263,-74.071465987,142652
abnb_1268070865566761239,1268070865566761239,,entire_place,1,1.0,2.0,,,El Cerro · Central and Functional Apartasuite,9295738.92,9401228.23,27.83,102150.97,327,12,Bogotá,cop,Low,4.600227592,-74.070159013,142652
abnb_728428062299571174,728428062299571174,,entire_place,1,1.0,2.0,5.0,6.0,Beautiful apartment in the historic center.,9277309.62,21046186.88,100.0,82100.08,113,12,Bogotá,cop,Medium,4.598,-74.0712,142652
abnb_609919287347624547,609919287347624547,,entire_place,1,1.5,2.0,4.6,18.0,"La Candelaria, a cozy and comfortable apartment",9240451.02,9240451.02,23.11,168008.2,238,12,Bogotá,cop,Low,4.59226,-74.07068,142652
abnb_1268239552794639537,1268239552794639537,,entire_place,1,1.0,2.0,,,Andes Chic · Comfortable Apartment Suite for Couples,9233079.3,9255673.62,28.57,98224.24,329,12,Bogotá,cop,Low,4.600591782,-74.069460239,142652
abnb_1059713792619191193,1059713792619191193,,private_room,1,1.0,1.0,4.8,48.0,Single Room Historical Center,9207278.28,9707486.34,67.54,39516.22,345,12,Bogotá,cop,Low,4.5904,-74.07462,142652
abnb_1421031205425017248,1421031205425017248,,private_room,0,1.0,2.0,,,Interior Window Room in La Candelaria,9199906.56,10055210.37,94.34,45999.53,212,12,Bogotá,cop,Medium,4.5941737,-74.0728395,142652
abnb_41479187,41479187,,entire_place,1,1.0,2.0,4.8,104.0,202Casa Florida +free parking,9192534.84,9192534.84,36.01,70711.81,361,12,Bogotá,cop,Medium,4.5975,-74.0721,142652
abnb_971000967296066155,971000967296066155,,entire_place,1,1.0,4.0,,,La Candelaria Apartment,9155676.24,9155676.24,28.47,117380.46,274,12,Bogotá,cop,Low,4.59325,-74.07524,142652
abnb_4196893,4196893,,entire_place,1,1.0,2.0,4.6,51.0,R Rooms For Rent in la Candelaria,9074587.32,9110819.32,18.93,141790.43,338,12,Bogotá,cop,Low,4.60072,-74.07288,142652
abnb_1304276870416974340,1304276870416974340,,entire_place,1,1.0,2.0,,,Bohemian hideaway a few meters from the museums,9000870.12,9000870.12,70.75,86546.83,147,12,Bogotá,cop,High,4.596316671,-74.072338119,142652
abnb_36554312,36554312,10329768ha,entire_place,2,2.0,3.0,4.8,152.0,The Monkey House,8978754.96,26702212.77,32.41,191037.35,145,12,Bogotá,cop,Low,4.59519,-74.07068,142652
abnb_1417561584757113555,1417561584757113555,,entire_place,1,1.0,3.0,4.6,19.0,Candelaria Loft Soft Breeze,8728116.48,15417546.94,46.7,82340.72,227,12,Bogotá,cop,High,4.5922,-74.0747,142652
abnb_933362288169664240,933362288169664240,,private_room,1,1.0,2.0,4.9,49.0,209 Cozy room in art Déco Home!,8613854.82,8613854.82,25.21,93628.86,365,12,Bogotá,cop,Low,4.59639,-74.07151,142652
abnb_25325651,25325651,,entire_place,1,1.0,2.0,4.9,49.0,Apartment with terrace in Candelaria.,8576996.22,9988090.86,38.76,124304.29,178,12,Bogotá,cop,Medium,4.595234871,-74.070426941,142652
abnb_1315430126949297658,1315430126949297658,,entire_place,1,1.0,2.0,,,Studio apartment in La Candelaria,8433247.68,9370856.75,68.03,101605.39,122,12,Bogotá,cop,Low,4.596633052,-74.073707015,142652
abnb_1074561239067265758,1074561239067265758,,private_room,0,1.0,2.0,4.4,16.0,R7 - Cozy Room with Private Bathroom,8414818.38,8414818.38,41.34,61873.66,329,12,Bogotá,cop,Low,4.59522,-74.07048,142652
abnb_704973596715392610,704973596715392610,11137681ha,entire_place,1,2.0,3.0,4.8,7.0,R3/ Unique loft in historic Candelaria,8381645.64,12142918.34,53.12,164345.99,96,12,Bogotá,cop,Low,4.5934,-74.07113,142652
abnb_35667959,35667959,,private_room,1,1.0,5.0,4.6,42.0,Duplex private room Private room Downtown,8274755.7,9909287.18,63.01,89943.0,146,12,Bogotá,cop,Low,4.59569,-74.07286,142652
abnb_20709509,20709509,,private_room,4,1.0,2.0,5.0,1.0,Spacious and comfortable bedroom,8256326.4,8256326.4,83.83,58973.76,167,12,Bogotá,cop,Medium,4.5977,-74.0717,142652
abnb_720385124263263633,720385124263263633,,entire_place,1,1.0,2.0,4.9,36.0,Loft with style and history in the heart of Bogotá,8182609.2,8350500.12,31.53,82652.62,314,12,Bogotá,cop,Medium,4.5911,-74.0783,142652
abnb_1420973661623478576,1420973661623478576,,private_room,1,2.5,2.0,,,Interior Window Room in La Candelaria,8145750.6,12095960.48,94.0,43328.46,200,12,Bogotá,cop,Medium,4.5941737,-74.0728395,142652
abnb_1420844491235900151,1420844491235900151,,private_room,1,2.5,2.0,,,Room in La Candelaria,8094148.56,9224970.41,86.5,46786.99,200,12,Bogotá,cop,Medium,4.594088145,-74.072812678,142652
abnb_1009316734083967610,1009316734083967610,,entire_place,0,1.0,3.0,4.8,41.0,Comfortable Loft near Historic Center-Candelaria,8075719.26,11505928.01,78.85,65656.25,156,12,Bogotá,cop,Medium,4.5922,-74.0747,142652
abnb_1268157367289787475,1268157367289787475,,entire_place,1,1.0,3.0,4.2,4.0,Apartment history and comfort,8009373.78,8274866.28,24.04,106791.65,312,12,Bogotá,cop,Low,4.60054,-74.07113,142652
abnb_1446525869660294668,1446525869660294668,,entire_place,1,1.0,2.0,,,Candelaria Apartment,7931970.72,15261671.92,59.72,92232.22,144,12,Bogotá,cop,High,4.5922,-74.0747,142652
abnb_1268111053193970513,1268111053193970513,,entire_place,1,1.0,3.0,4.5,10.0,Santa Fe Apartment,7920913.14,7920913.14,25.57,101550.17,305,12,Bogotá,cop,Low,4.60022,-74.07126,142652
abnb_1415412887760314760,1415412887760314760,,private_room,1,1.0,2.0,4.7,21.0,Colonial house room in the historic center 3,7872996.96,8744592.27,63.27,55055.92,226,12,Bogotá,cop,Medium,4.599,-74.0688,142652
abnb_1456629144387134919,1456629144387134919,,entire_place,2,1.0,3.0,,,Cozy and centrally located flat near Monserrate,7825080.78,38510786.75,54.0,289817.81,50,12,Bogotá,cop,High,4.60304,-74.0663,142652
abnb_807245014169169231,807245014169169231,,private_room,1,1.0,2.0,4.7,99.0,206 Beautiful art déco house,7802965.62,7802965.62,28.69,75756.95,359,12,Bogotá,cop,Low,4.59781,-74.07249,142652
abnb_1548849428183932969,1548849428183932969,,entire_place,2,1.0,5.0,5.0,14.0,La Candelaria Colonial Loft with Fireplace,7795593.9,29556432.18,74.0,210691.73,50,12,Bogotá,cop,Low,4.596410871,-74.073795304,142652
abnb_1415387312552417397,1415387312552417397,,private_room,1,1.0,2.0,4.8,34.0,Colonial house room in the historic center 2,7758735.3,8631325.8,62.11,55026.49,227,12,Bogotá,cop,High,4.599,-74.0688,142652
abnb_48346568,48346568,,entire_place,0,1.0,4.0,5.0,19.0,NEW CENTRAL APT - LA CANDELARIA HISTORIC DISTRICT,7640787.78,7640787.78,19.41,144165.82,273,12,Bogotá,cop,Low,4.59808,-74.06903,142652
abnb_38650037,38650037,,entire_place,1,1.0,3.0,4.7,35.0,* Aripar * Private in Candelaria Historic Center,7585499.88,11007562.88,80.0,52677.08,180,12,Bogotá,cop,Low,4.59815,-74.0699,142652
abnb_35945127,35945127,,private_room,1,1.0,4.0,4.2,22.0,Private room Historic Candelaria 200MB Fibra,7537583.7,9167692.14,76.92,83750.93,117,12,Bogotá,cop,Low,4.59516,-74.07263,142652
abnb_1061542019543585366,1061542019543585366,,private_room,1,1.0,2.0,4.9,50.0,"212 Nice room, very central!",7526526.12,7526526.12,26.06,94081.58,307,12,Bogotá,cop,Medium,4.5974,-74.072,142652
abnb_898689486415993695,898689486415993695,,private_room,2,1.0,4.0,5.0,19.0,El Dorado Rhythm: Afro-Inspired Music,7515468.54,7515468.54,57.14,56935.37,231,12,Bogotá,cop,Medium,4.6001,-74.0677,142652
abnb_32779857,32779857,,private_room,1,1.0,4.0,,,Double room in a colonial house in La Candelaria,7504410.96,9142259.71,58.33,134007.34,96,12,Bogotá,cop,Medium,4.5929,-74.0723,142652
abnb_1408958431297970374,1408958431297970374,11846096ha,private_room,1,1.0,2.0,4.8,12.0,Room with private bathroom in historic center,7471238.22,7471238.22,46.93,69824.66,228,12,Bogotá,cop,High,4.59683264,-74.068141106,142652
abnb_840703610012536995,840703610012536995,,entire_place,1,1.0,4.0,4.6,16.0,Beautiful Duplex Apartment La Candelaria/16,7445437.2,7445437.2,24.38,95454.32,320,12,Bogotá,cop,Low,4.59171,-74.0743,142652
abnb_607854746807269358,607854746807269358,,entire_place,1,1.5,2.0,,,Modern and Cozy Historic Center Studio,7441751.34,7563016.13,20.71,181506.14,198,12,Bogotá,cop,Low,4.59161,-74.07215,142652
abnb_752718152333594089,752718152333594089,,entire_place,1,1.5,5.0,4.9,79.0,Cozy LOFT studio apartment La Candelaria ALL NEW!,7331175.54,7662571.21,31.02,96462.84,245,12,Bogotá,cop,Medium,4.592,-74.0746,142652
abnb_1376081449146924913,1376081449146924913,,private_room,0,1.0,2.0,4.5,10.0,Room # 15 Historic Center,7294316.94,7294316.94,42.76,60283.61,283,12,Bogotá,cop,Low,4.596741745,-74.072703347,142652
abnb_1338034355615362238,1338034355615362238,,private_room,1,1.0,2.0,3.0,1.0,Room in Downtown Bogota Granate,7239029.04,7239029.04,22.5,100542.07,320,12,Bogotá,cop,Medium,4.5983,-74.0741,142652
abnb_1464850806874579481,1464850806874579481,,entire_place,1,1.0,2.0,5.0,3.0,Candelaria Studio Apartment,7110023.94,17088568.43,46.88,118500.4,128,12,Bogotá,cop,Medium,4.5924,-74.0747,142652
abnb_841282137673335180,841282137673335180,,entire_place,1,1.0,4.0,4.8,37.0,Free parking apartment La Candelaria/15,7080537.06,7080537.06,26.56,104125.54,256,12,Bogotá,cop,Low,4.59098,-74.07359,142652
abnb_1362348932577833511,1362348932577833511,,private_room,1,1.0,2.0,4.9,23.0,Room with two single beds Casa La Candelaria,7017877.44,7433163.29,63.96,38772.8,283,12,Bogotá,cop,Low,4.590569116,-74.075513913,142652
abnb_16002455,16002455,,entire_place,1,1.0,2.0,4.8,49.0,Colonial Charm in Bogotá's University Area,6995762.28,8968323.98,38.28,87447.03,209,12,Bogotá,cop,Medium,4.5981,-74.0706,142652
abnb_1498659272418564844,1498659272418564844,,entire_place,1,1.0,2.0,4.6,11.0,MF102 Cozy apartment near Plaza de Bolívar,6940474.38,21095245.68,54.31,110166.26,116,12,Bogotá,cop,Medium,4.5921609,-74.0747102,142652
abnb_1391638541122354391,1391638541122354391,,entire_place,2,1.0,5.0,,,Apartment in Bogotá's Historic Center,6907301.64,19802245.99,9.94,406311.85,171,12,Bogotá,cop,High,4.597926029,-74.071393089,142652
abnb_818945897391209262,818945897391209262,,entire_place,1,1.0,2.0,5.0,1.0,Studio Apt - La Candelaria,6903615.78,6971988.48,50.44,60031.44,228,12,Bogotá,cop,Low,4.59577,-74.07257,142652
abnb_1421023963937409140,1421023963937409140,,private_room,1,2.5,2.0,,,Room with a Window in La Candelaria,6815155.14,7945976.99,100.0,42862.61,159,12,Bogotá,cop,Medium,4.5941737,-74.0728395,142652
abnb_1517744903419144137,1517744903419144137,,entire_place,1,1.0,4.0,4.8,16.0,Charming apartment in La Candelaria Bogotá,6748809.66,22664832.3,71.11,105450.15,90,12,Bogotá,cop,Low,4.59191,-74.07254,142652
abnb_1090517859947749872,1090517859947749872,11675094ha,entire_place,1,1.0,4.0,5.0,2.0,* Beautiful house with terrace & 360 view *,6623490.42,7773478.74,99.11,59671.09,112,12,Bogotá,cop,Medium,4.5945,-74.0727,142652
abnb_37962314,37962314,,entire_place,1,1.0,2.0,4.9,75.0,Terrace suite La Candelaria,6623490.42,6623490.42,65.38,129872.36,78,12,Bogotá,cop,Low,4.59427,-74.07302,142652
abnb_643321261139225731,643321261139225731,,private_room,1,1.0,2.0,4.7,30.0,"207 In the heart of Candelaria ,art déco home!",6590317.68,6590317.68,20.59,94147.39,340,12,Bogotá,cop,Low,4.59715,-74.07246,142652
abnb_1395146803303641552,1395146803303641552,,private_room,1,1.0,2.0,,,Double Room + Private Bathroom Cabin,6575574.24,7082379.99,32.58,76460.17,264,12,Bogotá,cop,Low,4.600748676,-74.069548026,142652
abnb_910819879366339549,910819879366339549,,entire_place,1,1.0,4.0,5.0,2.0,Apartment in La Candelaria.,6516600.48,6516600.48,37.44,85744.75,203,12,Bogotá,cop,Low,4.59335,-74.07547,142652
abnb_1467525850227412831,1467525850227412831,,entire_place,1,1.0,2.0,4.7,43.0,* Cozy Studio in La Candelaria *,6435511.56,11627229.66,75.76,51484.09,165,12,Bogotá,cop,Medium,4.5946,-74.0728,142652
abnb_1409761029172337034,1409761029172337034,,private_room,1,1.0,3.0,5.0,7.0,The Red Bed - Colonial Coliving,6409710.54,18211723.68,66.09,55736.61,174,12,Bogotá,cop,Medium,4.5946359,-74.0735257,142652
abnb_50399806,50399806,,entire_place,1,2.0,3.0,5.0,6.0,Beautiful apartment in La Candelaria,6324935.76,6324935.76,80.0,52707.8,150,12,Bogotá,cop,Low,4.60124,-74.07351,142652
abnb_26269528,26269528,,entire_place,1,1.0,2.0,4.6,131.0,R5 - Beautiful Studio Apartment with kitchen and private bathroom,6243846.84,6243846.84,31.34,74331.51,268,12,Bogotá,cop,Low,4.59578,-74.07153,142652
abnb_857929027089376426,857929027089376426,,entire_place,1,1.0,4.0,4.9,14.0,Best studio apartment in the heart of Bogotá,6240160.98,23876227.05,98.9,69335.12,91,12,Bogotá,cop,Low,4.59303,-74.0754,142652
abnb_1460473372543958885,1460473372543958885,,private_room,1,1.0,2.0,,,Cabin room in La Candelaria,6218045.82,8583778.2,57.23,65453.11,166,12,Bogotá,cop,Medium,4.5943,-74.0691,142652
abnb_593447982279101059,593447982279101059,,private_room,1,,2.0,,,Candelaria House Garden,6188558.94,6188558.94,30.77,257856.63,78,12,Bogotá,cop,Medium,4.5994,-74.0683,142652
abnb_1264618595553351220,1264618595553351220,,entire_place,1,1.0,3.0,4.7,6.0,*ML Bohemian Loft with balcony @Heritage Center!,6177501.36,6177501.36,35.92,121127.47,142,12,Bogotá,cop,Medium,4.5978022,-74.0688283,142652
abnb_1503014620822753839,1503014620822753839,,entire_place,1,1.0,2.0,4.9,7.0,* Charming Studio in unique Colonial House *,6041124.54,13039061.48,80.87,64958.33,115,12,Bogotá,cop,Medium,4.5946,-74.0728,142652
abnb_1121934935407221621,1121934935407221621,,entire_place,1,1.0,3.0,4.9,28.0,Encantador y moderno By TSI Property Management,6004265.94,16310741.39,100.0,125088.87,48,12,Bogotá,cop,High,4.60034,-74.06975,142652
abnb_1528990730961107036,1528990730961107036,,private_room,1,0.0,3.0,,,Room # 8 Hostal Doña Eliza,5971093.2,19423229.01,98.08,117080.26,52,12,Bogotá,cop,Low,4.59422,-74.07037,142652
abnb_1395082778634239767,1395082778634239767,,private_room,1,1.0,2.0,4.5,2.0,Ideal corner in Candelaria.,5915805.3,6422611.05,32.45,68788.43,265,12,Bogotá,cop,Medium,4.6003,-74.0692,142652
abnb_1502985744082686731,1502985744082686731,,private_room,1,,2.0,4.5,13.0,* Cozy Room in a Colonial Historical House *,5912119.44,9831884.12,92.17,55774.71,115,12,Bogotá,cop,Low,4.59402,-74.07342,142652
abnb_1111088596341298442,1111088596341298442,,private_room,1,1.0,2.0,4.8,20.0,211 Modern room Historic Center,5897376.0,5897376.0,21.68,88020.53,309,12,Bogotá,cop,Medium,4.5974,-74.0721,142652
abnb_609463731175642286,609463731175642286,,entire_place,1,1.5,2.0,5.0,10.0,Comfortable Loft in Bogotá's Historic Center,5842088.1,5842088.1,15.09,166916.8,232,12,Bogotá,cop,Low,4.59169,-74.07211,142652
abnb_1061477238004603371,1061477238004603371,,private_room,1,1.0,2.0,4.8,5.0,"Room with private bathroom, closet and great view",5801543.64,5826865.5,57.69,48346.2,208,12,Bogotá,cop,Low,4.59906,-74.07407,142652
abnb_1095778341294658432,1095778341294658432,11641838ha,entire_place,1,1.5,2.0,5.0,7.0,"Yogüi Suite, the best for you",5794171.92,5794171.92,32.34,107299.48,167,12,Bogotá,cop,High,4.59292,-74.07362,142652
abnb_1421696761608746452,1421696761608746452,,private_room,0,1.0,,,,Comfortable room in La Candelaria,5764685.04,5843415.01,87.92,31674.1,207,12,Bogotá,cop,Medium,4.5941737,-74.0728395,142652
abnb_766699601655556563,766699601655556563,,entire_place,1,1.5,5.0,4.9,8.0,Cozy loft in La Candelaria Bogotá 5 stars,5683596.12,5943412.39,28.04,94726.6,214,12,Bogotá,cop,Medium,4.5922,-74.0747,142652
abnb_1415420322013348989,1415420322013348989,11846095ha,private_room,2,1.0,2.0,4.6,15.0,Colonial house room in the historic center 4,5661480.96,5661480.96,44.21,54965.84,233,12,Bogotá,cop,Medium,4.599,-74.0688,142652
abnb_681652297830642360,681652297830642360,,private_room,1,1.0,4.0,4.8,119.0,204 Cozy and neat room in the heart of Candelaria,5598821.34,5598821.34,14.37,109780.81,355,12,Bogotá,cop,Medium,4.5974,-74.072,142652
abnb_609375560963558364,609375560963558364,,entire_place,1,1.0,2.0,4.8,5.0,Candelaria Comfortable Loft,5528790.0,5528790.0,15.79,167539.09,209,12,Bogotá,cop,Low,4.59225,-74.0707,142652
abnb_1502258609017706932,1502258609017706932,,entire_place,1,2.0,3.0,1.0,1.0,Mini House Quinta Bolívar - Andes,5322381.84,15122530.7,21.36,241926.43,103,12,Bogotá,cop,Medium,4.6022,-74.064,142652
abnb_856691492813852209,856691492813852209,,private_room,1,1.0,2.0,4.8,55.0,"208, very close to the Botero Museum",5285523.24,5285523.24,18.95,91129.71,306,12,Bogotá,cop,Medium,4.5974,-74.072,142652
abnb_804877248263740313,804877248263740313,,entire_place,1,2.0,4.0,,,Spectacular 1BR apartment,5241292.92,20921936.54,15.06,209651.72,166,12,Bogotá,cop,Medium,4.5926,-74.0714,142652
abnb_590755333627248230,590755333627248230,,entire_place,0,1.0,2.0,5.0,4.0,Lovely renovated & bright apt in colonial house,5230235.34,16582573.56,31.68,163444.85,101,12,Bogotá,cop,Low,4.59537,-74.07267,142652
abnb_868329696564542200,868329696564542200,11760183ha,entire_place,1,1.0,2.0,3.5,2.0,Spectacular Apartment in La Candelaria,5215491.9,5215491.9,15.19,108656.08,316,12,Bogotá,cop,High,4.59316,-74.07424,142652
abnb_1382110101536889084,1382110101536889084,,private_room,1,1.0,2.0,4.0,1.0,Bogotá house garden! Wooden room,5208120.18,5208120.18,79.7,33172.74,197,12,Bogotá,cop,Medium,4.5993,-74.0682,142652
abnb_557911839121520876,557911839121520876,11558354ha,entire_place,1,1.0,2.0,5.0,2.0,Spectacular Apartment in La Candelaria,5204434.32,5204434.32,16.15,123915.11,260,12,Bogotá,cop,Low,4.59348,-74.07552,142652
abnb_1502267676376772069,1502267676376772069,,entire_place,2,2.0,5.0,,,Mini House Quinta Bolivar | Monserrate,5141774.7,33214685.09,34.33,223555.41,67,12,Bogotá,cop,Medium,4.6022,-74.064,142652
abnb_32839751,32839751,,entire_place,1,1.0,3.0,4.8,10.0,Cool Vintage Duplex Studio+Terrace @LaCandelaria,5093858.52,5093858.52,65.38,99879.58,78,12,Bogotá,cop,Low,4.59428,-74.07267,142652
abnb_742584544490206915,742584544490206915,,entire_place,1,2.0,2.0,4.8,58.0,Authentic Loft in La Candelaria,5068057.5,39937067.13,89.39,85899.28,66,12,Bogotá,cop,Low,4.59361,-74.07214,142652
abnb_872672001709186689,872672001709186689,,private_room,1,1.0,2.0,4.6,48.0,Room # 6 Historic Center,5042256.48,5042256.48,26.58,51982.03,365,12,Bogotá,cop,Low,4.59945,-74.07278,142652
abnb_37018287,37018287,,private_room,0,1.0,1.0,4.6,53.0,Cozy Private room in Candelaria 200MB Fibra Optica,5009083.74,5156518.14,84.83,33172.74,178,12,Bogotá,cop,Low,4.59478,-74.07333,142652
abnb_1439934810860720832,1439934810860720832,,private_room,1,1.0,2.0,4.7,3.0,Colonial house - Historic center,4806361.44,6619435.97,49.7,58614.16,165,12,Bogotá,cop,High,4.5956,-74.0722,142652
abnb_1508707616052067871,1508707616052067871,,entire_place,1,1.5,3.0,4.7,3.0,Modern and Central Loft in La Candelaria/01,4787932.14,19378593.24,47.12,97712.9,104,12,Bogotá,cop,Low,4.59141,-74.07416,142652
abnb_15565052,15565052,,entire_place,0,1.0,2.0,4.8,40.0,Casa Aranjuez 104,4780560.42,4973109.75,19.7,91933.86,264,12,Bogotá,cop,Medium,4.5936,-74.0699,142652
abnb_858054146647211198,858054146647211198,,private_room,1,1.0,2.0,4.4,27.0,Room # 5 Historic Center,4754759.4,4754759.4,24.23,54652.41,359,12,Bogotá,cop,Low,4.59949,-74.07313,142652
abnb_822397164673906545,822397164673906545,,private_room,1,1.0,2.0,4.7,64.0,Room #2 Historic Downtown,4699471.5,4699471.5,32.71,53403.08,269,12,Bogotá,cop,Medium,4.598368309,-74.073291309,142652
abnb_35946413,35946413,,private_room,1,1.0,2.0,4.5,26.0,Altillo-Private room in Candelaria downtown 200MB,4644183.6,6639339.62,76.92,51602.04,117,12,Bogotá,cop,Low,4.59561,-74.074,142652
abnb_1379092972039259486,1379092972039259486,,entire_place,1,1.0,3.0,4.6,8.0,New and cozy loft La Candelaria/03,4640497.74,7036306.74,31.22,78652.51,189,12,Bogotá,cop,Low,4.591547415,-74.074465327,142652
abnb_558945018801373769,558945018801373769,,entire_place,2,1.0,6.0,5.0,1.0,House with balcony and panoramic view - La Candelaria,4636811.88,17138622.4,25.17,125319.24,147,12,Bogotá,cop,High,4.5935675,-74.0720081,142652
abnb_929891814779089593,929891814779089593,,entire_place,1,1.5,4.0,4.7,31.0,HC|Elegant Loft In The Old City,4588895.7,4640976.9,26.25,109259.42,160,12,Bogotá,cop,Low,4.58992,-74.07229,142652
abnb_1448596673787649539,1448596673787649539,,private_room,1,,2.0,4.9,8.0,Bedroom/Bathroom - Colonial House,4581523.98,10469832.76,60.38,47724.21,159,12,Bogotá,cop,Medium,4.5958,-74.0721,142652
abnb_1292664073145453887,1292664073145453887,,private_room,1,1.0,,5.0,2.0,Great location / downtwon Bogota room,4555722.96,4555722.96,42.94,65081.76,163,12,Bogotá,cop,Low,4.600410638,-74.070907809,142652
abnb_972425082179602012,972425082179602012,,entire_place,1,1.0,3.0,,,Spectacular Suite in La Candelaria,4552037.1,4552037.1,17.62,105861.33,244,12,Bogotá,cop,Low,4.59272,-74.07444,142652
abnb_1327533252181464066,1327533252181464066,,entire_place,1,1.0,4.0,4.5,6.0,Modern Loft  City Colonial Center,4544665.38,4544665.38,30.99,103287.85,142,12,Bogotá,cop,High,4.5979,-74.0689,142652
abnb_1515976508482931841,1515976508482931841,,entire_place,1,1.0,2.0,4.0,3.0,*ML Loft With Private Terrace and Cozy@Candelaria,4515178.5,16522236.04,52.38,102617.7,84,12,Bogotá,cop,Medium,4.5978,-74.0688,142652
abnb_1179094906513251549,1179094906513251549,,entire_place,1,1.0,3.0,4.9,40.0,Cozy Loft - Historic Downtown,4456204.74,4456204.74,26.29,96874.01,175,12,Bogotá,cop,Low,4.59097,-74.07407,142652
abnb_1415412197846739472,1415412197846739472,,private_room,1,2.0,2.0,4.7,3.0,Colonial house room in the historic center 5,4408288.56,8099972.22,41.58,52479.62,202,12,Bogotá,cop,Low,4.5983,-74.06765,142652
abnb_1080385895791505465,1080385895791505465,,entire_place,2,2.0,5.0,4.7,14.0,Spectacular Apartaestudio Duplex La Candelaria,4408288.56,8075829.84,22.81,169549.56,114,12,Bogotá,cop,Medium,4.5922,-74.0747,142652
abnb_827033988374988790,827033988374988790,,entire_place,1,1.0,2.0,4.8,42.0,Magic cabin in front of Monserrate - Casita del Viento,4305084.48,4363689.65,28.16,148451.2,103,12,Bogotá,cop,Medium,4.6007,-74.0686,142652
abnb_1485553042428956153,1485553042428956153,,entire_place,1,1.0,3.0,4.2,9.0,MF C102 Beautiful Apartment Located in Candelaria Btá DC26,4282969.32,15711162.54,31.54,104462.66,130,12,Bogotá,cop,High,4.5922,-74.0747,142652
abnb_1290664035075493634,1290664035075493634,,private_room,2,1.0,4.0,4.7,9.0,Candelaria Peace and Style,4257168.3,4257168.3,24.6,92547.14,187,12,Bogotá,cop,Medium,4.600226574,-74.069175178,142652
abnb_897799769289198091,897799769289198091,,private_room,1,1.0,1.0,4.8,13.0,Candelaria Downtown BGT,4187136.96,4187136.96,51.48,48128.01,169,12,Bogotá,cop,Low,4.60121,-74.06705,142652
abnb_1468385088875193280,1468385088875193280,,entire_place,1,1.0,2.0,5.0,1.0,Historic Center Hideaway,4183451.1,12980308.87,32.84,95078.43,134,12,Bogotá,cop,Low,4.59649,-74.07207,142652
abnb_42979574,42979574,10766185ha,entire_place,1,1.0,4.0,4.9,16.0,La Candelaria Private Apartment 200MB Fibra Optica,4131849.06,4131849.06,68.6,70031.34,86,12,Bogotá,cop,High,4.59564,-74.07379,142652
abnb_1376066237310238077,1376066237310238077,,private_room,1,1.0,2.0,4.5,4.0,Room # 14 historic center,4109733.9,4109733.9,26.91,55536.95,275,12,Bogotá,cop,Medium,4.5983,-74.0733,142652
abnb_35943173,35943173,,private_room,1,1.0,2.0,4.5,36.0,Private Room in Historic downtown 200MB Fibra,3980728.8,5975884.82,76.92,44230.32,117,12,Bogotá,cop,Low,4.59398,-74.07348,142652
abnb_1564465893893655034,1564465893893655034,,entire_place,3,3.5,10.0,4.2,4.0,"Republican Colonial Jewel, in the historic heart",3973357.08,32502798.09,31.03,441484.13,29,12,Bogotá,cop,Medium,4.5975,-74.0721,142652
abnb_1004515434636125734,1004515434636125734,,private_room,1,1.0,1.0,5.0,4.0,Room in La Candelaria,3951241.92,3951241.92,34.6,43420.24,263,12,Bogotá,cop,Low,4.59815,-74.06631,142652
abnb_18506254,18506254,,entire_place,2,1.5,4.0,4.7,20.0,DOWNTOWN BOGOTA - Amazing APT - NexttoUniversities,3907011.6,3907011.6,66.25,73717.2,80,12,Bogotá,cop,Medium,4.6007,-74.0702,142652
abnb_822390267150223532,822390267150223532,,private_room,1,1.0,2.0,4.7,105.0,Room # 1 Historic Center,3862781.28,3862781.28,20.94,54405.37,339,12,Bogotá,cop,Medium,4.5987,-74.0734,142652
abnb_858054494630283954,858054494630283954,,private_room,1,1.0,2.0,4.6,104.0,Room # 4 Historic Downtown,3807493.38,3807493.38,26.3,53626.66,270,12,Bogotá,cop,Low,4.59891,-74.07227,142652
abnb_41797150,41797150,,entire_place,1,1.0,3.0,5.0,10.0,Stylish Loft in Historic House – Work & Explore,3770634.78,19434581.46,53.97,110901.03,63,12,Bogotá,cop,Medium,4.5946,-74.0717,142652
abnb_21501319,21501319,,private_room,1,1.0,2.0,4.0,1.0,Private Double Room at Hostal Yarumo,3759577.2,3759577.2,38.64,221151.6,44,12,Bogotá,cop,Low,4.59739,-74.07117,142652
abnb_1194215703111102989,1194215703111102989,,entire_place,1,1.0,2.0,,,Stylish Loft W/ Kitchen & Bath in La Candelaria 02,3652687.26,3652687.26,62.77,42473.1,137,12,Bogotá,cop,Low,4.59368,-74.07212,142652
abnb_1268152151635936253,1268152151635936253,,entire_place,2,1.0,4.0,4.5,10.0,Jazz House (Full),3645315.54,3645315.54,26.43,98522.04,140,12,Bogotá,cop,Medium,4.5996,-74.0687,142652
abnb_884886847248721140,884886847248721140,,private_room,1,2.5,2.0,4.9,14.0,Premium private room,3553169.04,3553169.04,20.43,53032.37,328,12,Bogotá,cop,Medium,4.5934,-74.0716,142652
abnb_1443797708232883309,1443797708232883309,,entire_place,2,1.0,4.0,,,The Colonial Hideaway @Fagua,3542111.46,26456808.21,100.0,114261.66,31,12,Bogotá,cop,Medium,4.595468809,-74.074373916,142652
abnb_21504149,21504149,,private_room,1,1.0,2.0,3.0,1.0,Private Double Room with Balcon in  Hostal,3505252.86,3505252.86,38.18,166916.8,55,12,Bogotá,cop,Low,4.59665,-74.07105,142652
abnb_1103850949132985719,1103850949132985719,,private_room,1,1.0,1.0,4.9,18.0,Habitación en apartamento familiar,3464708.4,3464708.4,27.92,51712.07,240,12,Bogotá,cop,Medium,4.5924,-74.0762,142652
abnb_1373475080862743342,1373475080862743342,,entire_place,2,1.0,4.0,5.0,1.0,Casa Tsao #A1: Cozy Apartment,3449964.96,5847506.31,17.14,191664.72,105,12,Bogotá,cop,Medium,4.5999,-74.0697,142652
abnb_1374806549212285833,1374806549212285833,,entire_place,1,1.0,2.0,,,Cozy Flat Candelaria Center,3361504.32,11952654.24,64.0,70031.34,75,12,Bogotá,cop,Medium,4.594095561,-74.07121622,142652
abnb_841299122479073244,841299122479073244,,entire_place,1,1.0,4.0,4.5,30.0,New great apartment in Bogotá/17,3350446.74,3350446.74,13.06,104701.46,245,12,Bogotá,cop,Low,4.59287,-74.0751,142652
abnb_832810457077213615,832810457077213615,,private_room,1,1.0,2.0,4.7,40.0,Room #3 Historic Downtown,3250928.52,3250928.52,18.13,54182.14,331,12,Bogotá,cop,Low,4.59803,-74.07224,142652
abnb_1545592831488420327,1545592831488420327,,entire_place,2,1.0,4.0,5.0,1.0,Spectacular apartment in La Candelaria,3239870.94,17766950.96,100.0,66119.82,49,12,Bogotá,cop,Medium,4.5913,-74.0762,142652
abnb_1381942769532381040,1381942769532381040,,entire_place,2,2.0,4.0,,,Spectacular 2BR in Candelaria,3239870.94,10214844.97,14.14,231419.35,99,12,Bogotá,cop,High,4.59267,-74.071428,142652
abnb_1242791972237773130,1242791972237773130,,entire_place,1,1.0,2.0,4.7,12.0,Spectacular apartment,3228813.36,3228813.36,15.64,97842.83,211,12,Bogotá,cop,Medium,4.594048801,-74.070495106,142652
abnb_775233105586195236,775233105586195236,,private_room,0,1.0,2.0,5.0,1.0,Colonial room in Candelaria,3225127.5,5561962.74,76.92,35834.75,117,12,Bogotá,cop,Medium,4.5946,-74.0733,142652
abnb_822157989512761404,822157989512761404,,entire_place,3,2.5,6.0,4.8,4.0,Incredible apartamento Candelaria,3221441.64,16914042.95,88.46,140062.68,26,12,Bogotá,cop,Medium,4.59827,-74.07038,142652
abnb_1528632308543739470,1528632308543739470,,private_room,1,0.0,2.0,,,Room # 4 Hostal Doña Eliza,3132981.0,12004108.85,53.62,84675.16,69,12,Bogotá,cop,Low,4.59557,-74.07161,142652
abnb_6143765,6143765,,private_room,1,1.0,2.0,4.0,9.0,Bedroom in touristic area,3029776.92,3516310.44,88.39,22115.16,155,12,Bogotá,cop,Low,4.59806,-74.06969,142652
abnb_1008878767679527698,1008878767679527698,,entire_place,12,14.0,16.0,,,"Entire Hostel, 12 rooms",3000290.04,3000290.04,12.9,750072.51,31,12,Bogotá,cop,Medium,4.5972,-74.0691,142652
abnb_1343774697785930911,1343774697785930911,,entire_place,1,1.5,3.0,4.7,3.0,New Stylish Loft Private Terrace @LaCandelaria,2937630.42,3201648.57,21.79,172801.8,78,12,Bogotá,cop,Low,4.593011494,-74.070624035,142652
abnb_579524727162722317,579524727162722317,,entire_place,1,2.0,2.0,5.0,2.0,LOFT Historic Center LONG STAY 100% EQUIPPED,2856541.5,2856541.5,54.24,89266.92,59,12,Bogotá,cop,Low,4.59241,-74.07202,142652
abnb_52761721,52761721,,entire_place,2,1.0,4.0,,,Beautiful apartment in the Candelaria.,2852855.64,19944446.47,52.63,95095.19,57,12,Bogotá,cop,Low,4.60031,-74.07037,142652
abnb_35944086,35944086,,private_room,1,1.0,3.0,4.4,8.0,*Private Room 3Blocks Bolivar square 200MB Fibra,2827054.62,3946081.72,68.6,47916.18,86,12,Bogotá,cop,Low,4.59561,-74.07396,142652
abnb_1528474212664323501,1528474212664323501,,private_room,1,0.0,2.0,5.0,10.0,Room # 1 Hostal Doña Eliza,2827054.62,11698809.06,48.53,85668.32,68,12,Bogotá,cop,Low,4.595923144,-74.071826207,142652
abnb_17746590,17746590,,entire_place,1,1.0,2.0,4.5,55.0,RW Room  Studio Type in La Candelaria,2823368.76,2823368.76,17.59,148598.36,108,12,Bogotá,cop,Low,4.60197,-74.07493,142652
abnb_1446546540646085082,1446546540646085082,,entire_place,1,1.0,2.0,,,the old historic candelabra,2812311.18,8739911.23,56.06,76008.41,66,12,Bogotá,cop,Medium,4.594500636,-74.072817899,142652
abnb_1422588700669083219,1422588700669083219,,entire_place,1,3.0,2.0,,,Candelaria Double Studio Apartment,2764395.0,6134118.79,32.5,70881.93,120,12,Bogotá,cop,Medium,4.590922,-74.074963,142652
abnb_1145695696670574320,1145695696670574320,,entire_place,1,2.0,4.0,4.7,17.0,"Magnificent loft @La Candelaria + Parking, gym",2727536.4,28122411.49,100.0,170471.02,16,12,Bogotá,cop,Low,4.592996156,-74.070485777,142652
abnb_38223629,38223629,,private_room,3,2.0,6.0,4.9,11.0,"colonial house in downtown, La Candelaria",2712792.96,2712792.96,18.24,93544.58,159,12,Bogotá,cop,Low,4.59913,-74.06737,142652
abnb_1040225535717160179,1040225535717160179,,entire_place,1,1.5,3.0,5.0,3.0,Beautiful apartment with city view,2686991.94,23589946.3,20.78,167937.0,77,12,Bogotá,cop,Medium,4.5926,-74.0714,142652
abnb_876669501067836757,876669501067836757,,private_room,1,1.0,2.0,5.0,3.0,Room # 7 Historic Center,2679620.22,2679620.22,16.05,51531.16,324,12,Bogotá,cop,Low,4.59781,-74.07264,142652
vrbo_4501314,,4501314,entire_place,1,1.0,2.0,,,NOK Amazing Studio in Candelaria,2664876.78,9144876.67,67.65,115864.21,34,12,Bogotá,cop,Low,4.59263,-74.07142,142652
abnb_1135568714502160691,1135568714502160691,,private_room,1,0.0,2.0,5.0,1.0,Large private room in Colonial house,2616960.6,2616960.6,27.59,81780.02,116,12,Bogotá,cop,Medium,4.5923,-74.0738,142652
abnb_1258742502028774109,1258742502028774109,,private_room,1,2.0,1.0,4.8,4.0,303,2613274.74,2613274.74,29.95,42149.59,207,12,Bogotá,cop,Low,4.589912929,-74.071880051,142652
abnb_1281456851604774079,1281456851604774079,,entire_place,1,1.0,2.0,,,Casa Candelaria,2609588.88,3482842.83,73.0,35747.79,100,12,Bogotá,cop,Medium,4.5983,-74.0733,142652
abnb_1394982182721777028,1394982182721777028,,private_room,1,,2.0,,,Sus Mercedes House,2580102.0,2580102.0,10.09,112178.35,228,12,Bogotá,cop,High,4.5947,-74.0761,142652
abnb_949543057050384849,949543057050384849,,entire_place,1,1.0,4.0,5.0,2.0,Cozy Apt. Est. La Candelaria Bogotá,2550615.12,2559350.61,21.55,102024.6,116,12,Bogotá,cop,High,4.591562014,-74.074838946,142652
abnb_1232779695663170204,1232779695663170204,,private_room,1,1.0,4.0,4.6,5.0,Bedroom 1,2347892.82,2361604.22,28.0,37268.14,225,12,Bogotá,cop,Low,4.59937,-74.07133,142652
abnb_1555904097882686190,1555904097882686190,,entire_place,1,1.5,2.0,4.7,3.0,La Candelaria: nice and comfortable apartment,2336835.24,12016861.92,71.43,77894.51,42,12,Bogotá,cop,Low,4.59094,-74.07366,142652
abnb_12400718,12400718,,entire_place,3,1.5,6.0,4.8,25.0,"Colonial Cozy House, Historic District",2336835.24,25791621.06,21.43,194736.27,56,12,Bogotá,cop,High,4.595,-74.0701,142652
abnb_817027608815197793,817027608815197793,,entire_place,1,2.0,4.0,4.8,60.0,HC|Beautiful Apartment In The Old Center,2329463.52,2329463.52,9.74,155297.57,154,12,Bogotá,cop,Low,4.59368,-74.07037,142652
abnb_47810962,47810962,,entire_place,1,1.0,2.0,4.9,9.0,Colorful flat in the artistic heart of Bogotá,2311034.22,2356923.18,55.0,70031.34,60,12,Bogotá,cop,Low,4.59829,-74.06923,142652
abnb_33500047,33500047,,entire_place,1,1.5,4.0,4.7,24.0,Bohemian private apartment in the heart of Bogotá,2244688.74,2244688.74,18.56,124704.93,97,12,Bogotá,cop,Low,4.59982,-74.06925,142652
abnb_22017481,22017481,,private_room,1,1.0,3.0,4.0,1.0,Private Room King Superior Hostal Yarumo,2222573.58,2222573.58,37.21,138910.85,43,12,Bogotá,cop,Low,4.59729,-74.06946,142652
abnb_1528639522806070124,1528639522806070124,,private_room,1,0.0,2.0,4.0,1.0,Room # 5 Studio apartment Hostal Doña Eliza,2207830.14,3551620.98,31.88,100355.91,69,12,Bogotá,cop,Low,4.59388,-74.07073,142652
abnb_35945789,35945789,,private_room,1,1.0,2.0,4.0,22.0,**PRIVATE room CANDELARIA MAIN square 50MB Fibra,2174657.4,3285759.9,68.6,36858.6,86,12,Bogotá,cop,Low,4.595,-74.07369,142652
abnb_1528595840363966387,1528595840363966387,,private_room,1,1.0,3.0,5.0,2.0,Room # 2 Hostal Doña Eliza,2174657.4,7332355.02,31.88,98848.06,69,12,Bogotá,cop,Low,4.59481,-74.07085,142652
abnb_31282880,31282880,,entire_place,1,1.0,2.0,4.6,14.0,Independent apartment in downtown Bogotá,2148856.38,6817329.8,42.86,59690.46,84,12,Bogotá,cop,Medium,4.58948803,-74.072143555,142652
abnb_909601700664922552,909601700664922552,,private_room,2,1.0,4.0,5.0,7.0,"Room for 1, 2 or Family (4)-City ​​View",2119369.5,2119369.5,23.14,37845.89,242,12,Bogotá,cop,Medium,4.5985,-74.0678,142652
abnb_1286590282602144571,1286590282602144571,,entire_place,1,1.0,5.0,4.7,9.0,Cozy flat in Historic District La Candelaria,2119369.5,2119369.5,21.84,111545.77,87,12,Bogotá,cop,Medium,4.6005,-74.0679,142652
abnb_1497417546203510354,1497417546203510354,,entire_place,1,1.0,2.0,5.0,4.0,Studio apartment in the historic center.,2097254.34,10220115.75,52.24,59921.55,67,12,Bogotá,cop,Medium,4.5906,-74.0714,142652
abnb_779701040947826742,779701040947826742,,entire_place,1,1.0,3.0,4.8,5.0,Studio apartment in Historic Center of Bogotá,2075139.18,2075139.18,20.59,148224.23,68,12,Bogotá,cop,Medium,4.5922,-74.0747,142652
abnb_1447382616748943444,1447382616748943444,,entire_place,1,1.0,2.0,,,Old Town Bogotá Hideaway,2019851.28,7947451.33,51.79,69650.04,56,12,Bogotá,cop,Medium,4.5954879,-74.07279,142652
abnb_1321877363866203974,1321877363866203974,,entire_place,1,1.0,2.0,4.7,3.0,Cozy loft in La Candelaria,1990364.4,1990364.4,24.47,86537.58,94,12,Bogotá,cop,Medium,4.59216,-74.07471,142652
abnb_1528653596869426164,1528653596869426164,,private_room,1,0.0,2.0,,,Room # 7 Hostal Doña Eliza,1982992.68,10852756.76,36.23,79319.71,69,12,Bogotá,cop,Low,4.59582,-74.071,142652
abnb_1549673167291721228,1549673167291721228,,private_room,1,2.0,2.0,4.8,16.0,* Close to Museums and Universities * Top Location,1898217.9,11908571.36,82.69,44144.61,52,12,Bogotá,cop,Medium,4.5994,-74.0677,142652
abnb_1562370264341793771,1562370264341793771,,entire_place,1,1.0,4.0,5.0,1.0,Luxury and history accommodation in Candelaria,1813443.12,23515012.77,66.67,151120.26,18,12,Bogotá,cop,Medium,4.5926,-74.0714,142652
abnb_44244049,44244049,,private_room,1,1.0,2.0,4.5,16.0,A spacious room with a bathroom,1772898.66,8000048.55,83.33,50654.25,42,12,Bogotá,cop,Low,4.59977,-74.07261,142652
abnb_1549659588620426320,1549659588620426320,,private_room,1,2.0,2.0,4.4,11.0,* Close to Museums and Universities * Top Location,1761841.08,11739685.25,80.77,41948.6,52,12,Bogotá,cop,Medium,4.5994,-74.0677,142652
abnb_1528595227893689066,1528595227893689066,,private_room,1,0.0,3.0,,,Room # 3 Hostal Doña Eliza,1684438.02,14812291.86,23.19,105277.38,69,12,Bogotá,cop,Low,4.59407,-74.07207,142652
abnb_1528646156037313160,1528646156037313160,,private_room,1,0.0,3.0,,,Room # 6 Studio apartment Hostal Doña Eliza,1599663.24,14707466.01,23.19,99978.95,69,12,Bogotá,cop,Low,4.59474,-74.072,142652
abnb_1148553413109792642,1148553413109792642,,private_room,1,1.0,2.0,,,Candelaria Studio,1588605.66,1588605.66,22.58,113471.84,62,12,Bogotá,cop,Medium,4.5948,-74.0718,142652
abnb_22377890,22377890,,private_room,1,1.0,2.0,4.9,190.0,Casa UMAÑA,1581233.94,1581233.94,8.74,98827.12,183,12,Bogotá,cop,Low,4.59582,-74.07261,142652
abnb_769590620752780085,769590620752780085,,private_room,1,1.0,2.0,5.0,4.0,The heart of La Candelaria,1577548.08,1577548.08,8.74,98596.76,183,12,Bogotá,cop,Medium,4.5949,-74.0737,142652
abnb_1440817355547114886,1440817355547114886,,entire_place,2,2.0,4.0,,,Amazing 2 BR in Candelaria,1570176.36,19459977.03,14.63,261696.06,41,12,Bogotá,cop,Medium,4.59267,-74.07143,142652
abnb_1422639171252465324,1422639171252465324,,private_room,1,3.0,3.0,,,StudioApartmentBathroom/Kitchen,1537003.62,2671142.74,32.14,56926.06,84,12,Bogotá,cop,Medium,4.590922,-74.074963,142652
abnb_1549664820712491089,1549664820712491089,,private_room,1,2.0,2.0,4.5,6.0,* Close to Museums and Universities * Top Location,1507516.74,11463098.32,71.15,40743.7,52,12,Bogotá,cop,Medium,4.5994,-74.0677,142652
abnb_1313139926904874502,1313139926904874502,,entire_place,1,1.5,3.0,,,"Amazing Apto Loft - Bogota, La Candelaria",1489087.44,13842615.82,20.9,106363.39,67,12,Bogotá,cop,Medium,4.5926,-74.0714,142652
