property_id,airbnb_property_id,vrbo_property_id,listing_type,bedrooms,bathrooms,accommodates,rating,reviews,title,revenue_ltm,revenue_potential_ltm,occupancy_rate_ltm,average_daily_rate_ltm,days_available_ltm,market_id,market_name,currency,address_match_confidence,lat,lng,section
abnb_1466715657569789129,1466715657569789129,,entire_place,1,1.0,3.0,,,New and furnished apartment with an ideal location 30,284710569.84,284710569.84,100.0,1768388.64,161,12,Bogotá,cop,Low,4.652421593,-74.07636529,142650
abnb_1466863206431114744,1466863206431114744,,entire_place,1,1.0,3.0,,,New and furnished apartment with an ideal location 35,284710569.84,284710569.84,100.0,1768388.64,161,12,Bogotá,cop,Low,4.653014274,-74.074281981,142650
abnb_546484945723241941,546484945723241941,,entire_place,5,6.5,10.0,4.9,78.0,Modern House close to Stadium & Simón Bolívar Park,267567634.98,276901080.25,53.69,1415701.75,352,12,Bogotá,cop,Low,4.65418,-74.08424,142650
abnb_1464173983753556311,1464173983753556311,,entire_place,1,1.0,3.0,,,New and furnished apartment with an ideal location,212935818.06,260992392.47,99.22,1663561.09,129,12,Bogotá,cop,Low,4.652378915,-74.07624521,142650
abnb_1466704582412769222,1466704582412769222,,entire_place,1,1.0,3.0,,,New and furnished apartment with an ideal location,204904329.12,258469421.3,100.0,1552305.54,132,12,Bogotá,cop,Low,4.652940155,-74.075715607,142650
vrbo_3919846,,3919846,entire_place,1,1.0,3.0,4.7,0.0,"En la mejor zona de todo Bogota, a solo 5 minutos de la zona rosa caminando.",168314796.9,198096213.97,76.97,689814.74,317,12,Bogotá,cop,Low,4.659856,-74.07597,142650
abnb_1334405305533001602,1334405305533001602,,entire_place,1,1.0,4.0,5.0,21.0,"Luxury penthouse with Jacuzzi near the ""T"" area",131964845.58,136098832.44,76.05,519546.66,334,12,Bogotá,cop,High,4.6712,-74.065,142650
abnb_1004484242178125989,1004484242178125989,,entire_place,1,0.0,3.0,4.9,104.0,*Private Botanical Jacuzzi |Queen Bed|W&D|Balcony*,113642435.52,117881579.96,63.92,505077.49,352,12,Bogotá,cop,Medium,4.6758,-74.0732,142650
abnb_1160204289646223025,1160204289646223025,,entire_place,2,2.0,4.0,4.9,95.0,Duplex penthouse  city view,110660574.78,113139794.79,77.87,398059.65,357,12,Bogotá,cop,Medium,4.6772,-74.0602,142650
abnb_842135317767077248,842135317767077248,,entire_place,3,2.0,8.0,5.0,241.0,The best in 69 street,99186492.6,103635878.5,73.07,388966.63,349,12,Bogotá,cop,Low,4.65518,-74.06327,142650
abnb_1464614746547219935,1464614746547219935,,entire_place,1,1.0,3.0,,,Apartamento nuevo y amoblado con ubicación ideal10,98279771.04,98279771.04,95.31,1611143.77,64,12,Bogotá,cop,Low,4.652445033,-74.07440839,142650
abnb_1466858220867292388,1466858220867292388,,entire_place,1,1.0,3.0,,,New and furnished apartment with an ideal location,86960494.98,86960494.98,100.0,1552865.94,56,12,Bogotá,cop,Low,4.652815142,-74.075029476,142650
abnb_791274666494227261,791274666494227261,,entire_place,3,2.5,10.0,4.9,30.0,Casa Linda,83377839.06,83377839.06,85.53,320683.99,304,12,Bogotá,cop,High,4.67399,-74.08641,142650
abnb_1255729485936023114,1255729485936023114,,entire_place,6,5.5,16.0,4.8,55.0,Large house minutes from Zona T and Parque la 93,81041003.82,83903958.72,57.51,399216.79,353,12,Bogotá,cop,Medium,4.6736,-74.062,142650
abnb_50697527,50697527,,entire_place,3,2.0,6.0,4.8,183.0,❤️Mountain View/newly renovated/chimney/washer-drye,80395978.32,84998548.56,74.13,315278.34,344,12,Bogotá,cop,Low,4.65407,-74.0636,142650
abnb_644187293282683851,644187293282683851,,entire_place,2,2.0,6.0,4.9,87.0,Luxury High Rise Apartment + City & Mountains View,75928716.0,76971261.5,44.13,480561.51,358,12,Bogotá,cop,Low,4.65724,-74.06252,142650
abnb_1264765452954552783,1264765452954552783,,entire_place,2,2.0,6.0,4.5,50.0,Elegant Duplex: 2 bedrooms/coworking/city view,70315151.22,72413290.17,55.24,360590.52,353,12,Bogotá,cop,Medium,4.6772,-74.0602,142650
abnb_1153675642589304200,1153675642589304200,,entire_place,2,2.0,5.0,4.8,27.0,Chic Escape w/ Terrace & Top View,69802816.68,69802816.68,87.95,217454.25,365,12,Bogotá,cop,Low,4.65937,-74.06271,142650
abnb_43134393,43134393,,entire_place,5,3.0,12.0,4.8,115.0,Large house in Bogota /Perfect for groups,65799972.72,68614605.99,58.45,322548.87,349,12,Bogotá,cop,Low,4.68724,-74.06985,142650
abnb_1204982882073286463,1204982882073286463,,entire_place,2,2.0,6.0,4.6,77.0,Modern 2-bedroom apartment–Comfort and strategic location,63982843.74,65252143.35,89.39,199946.39,358,12,Bogotá,cop,Low,4.66404,-74.06959,142650
abnb_53358210,53358210,,entire_place,3,2.0,6.0,4.8,146.0,A LARGE APARTMENT WITH A BEAUTIFUL VIEW OF THE HILLS,63610571.88,63959696.54,59.12,297245.66,362,12,Bogotá,cop,Low,4.65536,-74.0766,142650
abnb_980587397762020489,980587397762020489,,entire_place,2,1.0,4.0,5.0,9.0,72 HUB Apartamento 613,62921316.06,62921316.06,66.03,261084.28,365,12,Bogotá,cop,Medium,4.6629,-74.0684,142650
abnb_974840875723399660,974840875723399660,,entire_place,2,2.0,3.0,4.9,44.0,"B | F10 Great Mountain View, near G Zone 1015",62198887.5,63043649.75,74.37,232954.64,359,12,Bogotá,cop,Medium,4.6588,-74.0626,142650
abnb_1415280123578151179,1415280123578151179,,entire_place,4,3.5,10.0,4.9,23.0,"Spacious house indoor fireplace,4BR - self checkin",61012040.58,69143121.46,79.28,346659.33,222,12,Bogotá,cop,Low,4.684051497,-74.072066213,142650
abnb_1127563203714687736,1127563203714687736,,entire_place,3,2.0,5.0,4.1,30.0,Modern Castellana penthouse with terrace,59913654.3,61049599.49,79.27,211709.03,357,12,Bogotá,cop,Low,4.68179,-74.06221,142650
abnb_20818497,20818497,4714849ha,entire_place,5,3.0,10.0,4.7,288.0,Spacious and Comfortable | Close to Zona T and G,59803078.5,60532952.5,46.54,355970.7,361,12,Bogotá,cop,Low,4.66134,-74.06445,142650
abnb_1212481701498175126,1212481701498175126,,entire_place,2,2.0,5.0,4.6,62.0,"Spacious apartment, beautiful view in the north",58347163.8,59692060.4,76.12,215303.19,356,12,Bogotá,cop,Medium,4.6772,-74.0602,142650
abnb_44343511,44343511,,entire_place,5,3.0,11.0,4.8,35.0,Spacious house for families and companies (Calle 100),58081781.88,58597359.98,51.45,328145.67,344,12,Bogotá,cop,Low,4.68738,-74.07066,142650
abnb_1369899149053991010,1369899149053991010,,private_room,6,3.5,15.0,,,Bamuka everyone's house,57440442.24,63119099.31,49.63,425484.75,272,12,Bogotá,cop,Medium,4.6678,-74.0836,142650
abnb_749124501181203943,749124501181203943,,entire_place,1,1.0,4.0,4.9,28.0,Great location with amazing view,56751186.42,56751186.42,91.78,169406.52,365,12,Bogotá,cop,Low,4.65745,-74.06258,142650
abnb_50898838,50898838,,entire_place,2,2.0,4.0,4.9,25.0,"Comfort and style, mountain view, 2 rooms, pool",56168820.54,63757969.42,75.34,251878.15,296,12,Bogotá,cop,Low,4.66425,-74.06692,142650
abnb_1044848854702152615,1044848854702152615,,entire_place,2,2.5,5.0,4.6,35.0,New and Exclusive Apartment,54359063.28,66337444.83,92.44,202078.31,291,12,Bogotá,cop,Low,4.6581,-74.06259,142650
abnb_52814547,52814547,,entire_place,2,2.0,5.0,4.9,84.0,Lovely 2 Bedroom Flat/Stunning view/Fast WIFI,53032153.68,57933794.6,66.96,233621.82,339,12,Bogotá,cop,Medium,4.6634,-74.068,142650
abnb_1376010544450701171,1376010544450701171,11814605ha,entire_place,4,3.0,16.0,4.8,35.0,Spacious house in the heart of northern Bogotá,52906834.44,57262562.64,53.36,369977.87,268,12,Bogotá,cop,Medium,4.6755,-74.0659,142650
abnb_932105603611152321,932105603611152321,,entire_place,1,1.0,4.0,4.9,111.0,Deluxe Duplex / fireplace near Parque El Virrey,52877347.56,55615941.54,76.88,198787.02,346,12,Bogotá,cop,Medium,4.6773,-74.0602,142650
abnb_872450366337381545,872450366337381545,,private_room,3,3.0,8.0,4.9,12.0,"Three private rooms, M. arena, 7 guests",52656195.96,54397875.39,55.49,274251.02,346,12,Bogotá,cop,Low,4.65112,-74.07208,142650
abnb_53324847,53324847,,entire_place,3,2.0,6.0,4.8,67.0,A Home and Office Away from Your Home,52291295.82,52775654.68,62.32,243215.33,345,12,Bogotá,cop,Medium,4.6823,-74.0694,142650
abnb_1278313288280783775,1278313288280783775,,entire_place,1,1.0,4.0,5.0,8.0,B | P17 Exclusive View of the Hills 1712,50614229.52,50879242.85,71.63,194670.11,363,12,Bogotá,cop,Low,4.659168288,-74.062047966,142650
abnb_1373369172972103604,1373369172972103604,,entire_place,1,1.5,4.0,4.9,33.0,Park Virrey/93. Zone T. Parking Free. GYM.,50190355.62,57630116.6,84.89,212671.0,278,12,Bogotá,cop,Low,4.67418386,-74.059386444,142650
abnb_1283641856044375706,1283641856044375706,,entire_place,6,2.0,11.0,4.8,6.0,"Apartment 4, Chapinero Tourist Sector",50124010.14,50912083.87,52.15,275406.65,349,12,Bogotá,cop,Medium,4.6586,-74.0626,142650
abnb_1304515364085567154,1304515364085567154,,entire_place,2,2.0,5.0,4.8,33.0,Peaceful & private 2 BR retreat - Self check in,49132513.8,50237313.48,77.53,178016.35,356,12,Bogotá,cop,Medium,4.6857,-74.0726,142650
abnb_38521688,38521688,,entire_place,1,1.0,2.0,4.8,201.0,Holtz Luxury Loft with amazing view.,48951906.66,50272439.72,61.13,225584.83,355,12,Bogotá,cop,Low,4.66254,-74.0685,142650
abnb_592774573124229139,592774573124229139,,entire_place,4,2.5,7.0,4.7,49.0,Large house ideal for large families,47448075.78,47824807.53,35.69,392132.86,339,12,Bogotá,cop,Medium,4.6692,-74.0622,142650
abnb_1174202958995554156,1174202958995554156,,entire_place,3,2.5,7.0,4.8,55.0,Penthouse with a hot tub and terrace 2,47131091.82,49079363.7,44.99,300198.04,349,12,Bogotá,cop,Low,4.67423,-74.08483,142650
abnb_1189252493700999108,1189252493700999108,,entire_place,2,2.0,4.0,5.0,7.0,Flawless and cozy apartment,46305459.18,47173442.35,74.15,177415.55,352,12,Bogotá,cop,Low,4.687298629,-74.059329633,142650
abnb_953839136771196050,953839136771196050,,entire_place,1,1.0,2.0,4.9,131.0,Deluxe duplex with a terrace and view,45759951.9,47489099.4,70.17,185262.96,352,12,Bogotá,cop,Medium,4.6772,-74.0602,142650
abnb_791327018591747885,791327018591747885,,entire_place,1,1.5,2.0,4.8,114.0,Bird's eye view APTO. Cozy/ Bright/ Well-Located,45678862.98,45985415.96,74.38,169180.97,363,12,Bogotá,cop,Medium,4.679404,-74.059469,142650
abnb_569038399732116562,569038399732116562,,entire_place,5,1.0,9.0,4.3,24.0,"1. Apartment on Coffe, close Zona G & Movistar",44230320.0,46137531.4,43.53,320509.56,317,12,Bogotá,cop,Low,4.65191,-74.0679,142650
abnb_1281247715184849974,1281247715184849974,,entire_place,2,1.0,6.0,4.6,5.0,Impeccable 2 bedroom apartment with balcony,42958698.3,46936257.26,76.05,169128.73,334,12,Bogotá,cop,Low,4.67137,-74.08543,142650
abnb_1281123414300095889,1281123414300095889,,entire_place,2,1.0,6.0,4.9,13.0,Impeccable 2 bedroom apartment,41602301.82,44487150.72,71.39,171910.33,339,12,Bogotá,cop,Low,4.671317559,-74.086894416,142650
abnb_1161615961653078230,1161615961653078230,,entire_place,1,1.0,3.0,4.8,38.0,Modern Loft Near Movistar Arena and Stadium,41123140.02,41249823.03,54.75,209811.94,358,12,Bogotá,cop,Low,4.65515,-74.079,142650
abnb_38385367,38385367,,entire_place,2,1.0,5.0,4.9,120.0,Cozy Chapinero,41012564.22,42676029.7,84.86,138089.44,350,12,Bogotá,cop,Low,4.65285,-74.06415,142650
abnb_876626106139845490,876626106139845490,,entire_place,1,1.0,4.0,4.8,47.0,"Style, terrace and location: all in one!",40968333.9,41055430.77,68.61,165863.7,360,12,Bogotá,cop,High,4.6587,-74.0622,142650
abnb_1345850528826855074,1345850528826855074,,entire_place,1,2.0,5.0,4.8,31.0,Luxury & cosy Industrial flat in Virrey,40857758.1,45354470.44,69.33,180786.53,326,12,Bogotá,cop,Medium,4.6772,-74.0602,142650
abnb_929006993434920390,929006993434920390,3539226,entire_place,1,1.0,2.0,5.0,94.0,"The Varón Condo, Apartment in Bogotá",40772983.32,40952853.29,74.1,151572.43,363,12,Bogotá,cop,Medium,4.6877,-74.062,142650
abnb_1071814687914943898,1071814687914943898,,entire_place,1,1.0,3.0,4.8,65.0,Exclusive apartment - Prime spot,40341737.7,40781976.82,85.6,130555.78,361,12,Bogotá,cop,Low,4.67595,-74.06122,142650
abnb_1263232168981246328,1263232168981246328,,entire_place,1,1.0,2.0,4.8,20.0,NEW Loft Luxury 5 Stars+WiFi+Cowork+Gym at Bogota,40308564.96,40308564.96,61.0,184057.37,359,12,Bogotá,cop,Medium,4.6868,-74.062,142650
abnb_1014831407004604646,1014831407004604646,,entire_place,2,2.0,4.0,4.9,63.0,"Unbeatable location, nice apartment in Bogotá!",40057926.48,42044420.73,78.16,147271.79,348,12,Bogotá,cop,Medium,4.6655,-74.0652,142650
abnb_1281137945335436160,1281137945335436160,,entire_place,2,1.0,5.0,4.8,8.0,Impeccable 2 bedroom apartment with balcony,39608251.56,43065551.38,69.25,170725.22,335,12,Bogotá,cop,Low,4.67076,-74.08624,142650
abnb_698620961366230524,698620961366230524,,entire_place,1,1.0,3.0,4.8,82.0,° Rest and Comfort in 5-Star Club House,39328126.2,39646473.93,77.56,140457.59,361,12,Bogotá,cop,Medium,4.6631,-74.0681,142650
abnb_1165925634811881864,1165925634811881864,,entire_place,3,2.0,8.0,4.8,38.0,Penthouse with a hot tub and terrace 1,39154890.78,40486997.44,37.54,298892.31,349,12,Bogotá,cop,Low,4.67541,-74.08644,142650
abnb_1281241200091842385,1281241200091842385,,entire_place,2,1.0,6.0,5.0,16.0,Impeccable 2 bedroom apartment with balcony,39132775.62,44726989.63,72.96,168675.75,318,12,Bogotá,cop,Low,4.670690585,-74.085162537,142650
abnb_872398247703336344,872398247703336344,,entire_place,1,1.0,3.0,4.9,7.0,Confort and Experiences at a °Club House°,39084859.44,39221752.28,71.51,155716.58,351,12,Bogotá,cop,High,4.6634,-74.068,142650
abnb_1241526541589074649,1241526541589074649,,entire_place,1,1.0,3.0,4.8,25.0,Cozy studio apartment in Polo with city view,38465634.96,38545876.13,76.37,138365.6,364,12,Bogotá,cop,Low,4.67754,-74.0605,142650
abnb_1250229996042366338,1250229996042366338,4437675,entire_place,1,1.5,3.0,4.9,12.0,Exclusive with Private Terrace | Location 10/10,38414032.92,38414032.92,84.93,123916.23,365,12,Bogotá,cop,Low,4.687058162,-74.06135212,142650
abnb_771151255838545315,771151255838545315,,entire_place,1,1.0,3.0,5.0,39.0,Modern Studio Apartment,38167080.3,41753643.23,84.21,140320.16,323,12,Bogotá,cop,Low,4.6632,-74.06834,142650
abnb_1143627738455464434,1143627738455464434,,entire_place,1,1.0,2.0,4.8,44.0,Loft 5 Star+Laundry+WiFi+Rooftop @Bogot,38038075.2,38779854.52,75.63,140881.75,357,12,Bogotá,cop,Low,4.68652,-74.06169,142650
abnb_1213329446032773639,1213329446032773639,,entire_place,2,2.5,4.0,5.0,6.0,A beautiful apartment in Bogotá!,37975415.58,39185520.28,62.1,279231.0,219,12,Bogotá,cop,Low,4.66791,-74.08337,142650
abnb_1281129352770796743,1281129352770796743,,entire_place,2,1.0,6.0,5.0,6.0,Impeccably lit 2 bedroom apartment,37724777.1,44408531.33,72.99,166188.44,311,12,Bogotá,cop,Low,4.672066711,-74.085517334,142650
abnb_43133952,43133952,,entire_place,1,1.0,3.0,5.0,4.0,"Andes Floresta, excellent, comfortable, unique style.",37205070.84,37294674.1,89.56,114125.98,364,12,Bogotá,cop,High,4.6888,-74.067,142650
abnb_1126027906518177619,1126027906518177619,,entire_place,2,1.0,4.0,4.8,99.0,Cozy central apartment,37201384.98,38721654.8,79.71,133338.31,350,12,Bogotá,cop,Medium,4.6502,-74.0674,142650
vrbo_11572114ha,,11572114ha,entire_place,1,0.5,2.0,,,Loft Zona Financiera,36548987.76,36773161.77,75.09,180935.58,269,12,Bogotá,cop,Low,4.65897,-74.070786,142650
abnb_1176798374990705404,1176798374990705404,,entire_place,3,1.0,5.0,4.8,37.0,"Cozy private apartment in Chapinero, Bogotá",36243061.38,37995134.93,70.11,148537.14,348,12,Bogotá,cop,Medium,4.6524,-74.0643,142650
abnb_1032840115235227235,1032840115235227235,,entire_place,2,1.0,5.0,4.5,104.0,"Spacious apartment, beautiful view in the north",36224632.08,37229692.38,55.49,188669.96,346,12,Bogotá,cop,Medium,4.6772,-74.0602,142650
abnb_1163631398440775970,1163631398440775970,,entire_place,1,1.0,4.0,5.0,5.0,Gran Vista Bogota 72 Hub,36206202.78,36374830.88,85.91,116418.66,362,12,Bogotá,cop,Low,4.66199,-74.06718,142650
abnb_46337736,46337736,,entire_place,1,1.0,2.0,4.8,265.0,Trendy apartment with breathtaking Andes view,36154600.74,39105426.54,81.25,146374.9,304,12,Bogotá,cop,Medium,4.663165092,-74.06816864,142650
abnb_1425504394245535034,1425504394245535034,,entire_place,2,2.0,5.0,5.0,16.0,Modern apartment near Movistar Arena and El Campín,36010852.2,46060570.64,48.15,346258.2,216,12,Bogotá,cop,Low,4.652743298,-74.081583154,142650
abnb_1145827861387944609,1145827861387944609,,entire_place,1,1.0,2.0,4.7,37.0,Modern duplex with terrace and city view,35926077.42,36019477.11,73.08,135060.44,364,12,Bogotá,cop,Medium,4.6772,-74.0602,142650
abnb_27627879,27627879,,entire_place,3,2.0,6.0,4.9,96.0,Beautiful apartment in great location in Bogota,35642266.2,40085238.7,64.84,177324.7,310,12,Bogotá,cop,Medium,4.6891,-74.069,142650
abnb_1145758065323580545,1145758065323580545,,entire_place,1,1.0,3.0,4.5,48.0,Beautiful apartment close to zona T,35255250.9,36212653.04,64.1,156690.01,351,12,Bogotá,cop,Medium,4.6771531,-74.0602248,142650
abnb_1075535395739313456,1075535395739313456,,entire_place,1,1.0,2.0,5.0,7.0,"Ohh, A508. Nice and modern in the Andes neighborhood",35041471.02,35226206.32,87.33,110540.92,363,12,Bogotá,cop,Medium,4.689,-74.067,142650
abnb_1241622189830116243,1241622189830116243,,entire_place,4,2.0,8.0,4.7,28.0,Apartment in Bogota's financial and tourism sector,34919837.64,35888113.06,48.03,204209.57,356,12,Bogotá,cop,Medium,4.6586,-74.0627,142650
abnb_1038646309663778249,1038646309663778249,,entire_place,2,1.0,4.0,4.8,120.0,Cozy apartment in downtown Bogotá,34809261.84,36256293.62,78.57,126579.14,350,12,Bogotá,cop,Medium,4.6503,-74.0674,142650
abnb_1248586296580017953,1248586296580017953,,entire_place,1,1.5,4.0,4.8,38.0,SkyLife Condo Bogota,34805575.98,35572787.74,80.11,121697.82,357,12,Bogotá,cop,Low,4.657791258,-74.062725821,142650
abnb_53431342,53431342,,entire_place,2,2.5,4.0,4.5,19.0,Comfortable apartment on the Castellana,34565995.08,35952615.61,75.43,132436.76,346,12,Bogotá,cop,Low,4.68684,-74.06005,142650
abnb_1130454670899790013,1130454670899790013,,entire_place,1,1.0,2.0,4.5,29.0,Loft with Balcony Near Parque el Virrey,34554937.5,34701487.29,59.33,162229.75,359,12,Bogotá,cop,Low,4.67665,-74.05997,142650
abnb_15274787,15274787,,entire_place,1,1.0,4.0,4.9,56.0,Ideal Modern Loft near Zona T & Parque 93,34547565.78,34669567.75,62.91,150862.73,364,12,Bogotá,cop,High,4.6771531,-74.0602248,142650
abnb_735573619588345167,735573619588345167,,entire_place,2,2.0,4.0,,,"Mountain View, 2 Bedrooms. Heated Pool.",34495963.74,36736045.16,70.09,219719.51,224,12,Bogotá,cop,Low,4.66287,-74.06708,142650
abnb_810973993498200283,810973993498200283,,entire_place,2,2.0,4.0,4.9,67.0,"Edificio Bolívar, Apt. 401",34400131.38,34953194.67,82.4,116610.62,358,12,Bogotá,cop,Medium,4.6805,-74.0672,142650
abnb_948106960859876876,948106960859876876,,entire_place,1,1.0,4.0,4.9,54.0,Cozy Modern Loft near El Virrey Park,34175293.92,34175293.92,86.85,107808.5,365,12,Bogotá,cop,Low,4.67605,-74.06011,142650
abnb_1241495298393698385,1241495298393698385,,entire_place,4,4.0,15.0,,,Bamuka Hostel,34120006.02,37286233.48,50.88,296695.7,226,12,Bogotá,cop,Low,4.66732,-74.08467,142650
abnb_1178578564372469527,1178578564372469527,,entire_place,2,2.0,6.0,4.9,43.0,Apartment with the best Location and Comfort,34083147.42,34732853.96,74.3,128132.13,358,12,Bogotá,cop,Medium,4.6628,-74.0817,142650
abnb_897344986010150500,897344986010150500,,entire_place,3,2.0,6.0,5.0,26.0,Comfortable and cozy apartment on Av. Calle 100!,33979943.34,53041405.19,44.09,276259.7,279,12,Bogotá,cop,Medium,4.6880346,-74.0629986,142650
abnb_52009296,52009296,,entire_place,1,1.0,2.0,5.0,27.0,"Ohh A503 - Complete, bright. 500mbps Wifi!",33902540.28,34977115.9,86.36,111521.51,352,12,Bogotá,cop,Low,4.68862,-74.06712,142650
abnb_35548677,35548677,,entire_place,2,3.0,10.0,4.9,108.0,Perfect location and close to everything!  5 Min Zone T,33755105.88,33804017.24,32.26,337551.06,310,12,Bogotá,cop,Low,4.66047,-74.063,142650
abnb_766800838833801433,766800838833801433,,entire_place,1,1.0,2.0,4.6,40.0,Cozy apartment in a central location,33578184.6,34353726.4,77.25,122102.49,356,12,Bogotá,cop,Medium,4.6634,-74.068,142650
abnb_1041377818558893849,1041377818558893849,3751486,entire_place,1,1.0,2.0,4.8,60.0,w* | Lovely loft in Parque Virrey,33508153.26,34215727.8,78.21,119671.98,358,12,Bogotá,cop,Medium,4.6772,-74.0602,142650
abnb_1150679617348917352,1150679617348917352,,entire_place,1,1.0,2.0,4.3,11.0,U-GO Studio Apartment in Bogotá with Forest View,33268572.36,33791706.47,73.45,127956.05,354,12,Bogotá,cop,Low,4.65669,-74.07879,142650
abnb_874536769869068950,874536769869068950,,entire_place,1,1.0,2.0,4.9,114.0,"Great loft, near Virrey Park. flexible entry time",33228027.9,33561671.95,84.21,109302.73,361,12,Bogotá,cop,High,4.6772,-74.0603,142650
abnb_984052762101756545,984052762101756545,3751478,entire_place,1,1.0,2.0,4.6,68.0,w* | Unique loft in Parque Virrey,33157996.56,33157996.56,78.63,115533.09,365,12,Bogotá,cop,Medium,4.6772,-74.0602,142650
abnb_1281249330677085844,1281249330677085844,,entire_place,2,1.0,5.0,3.9,9.0,Impeccable 2-bedroom apartment with balcony,33128509.68,36041924.0,60.9,162394.65,335,12,Bogotá,cop,Low,4.67266945,-74.084817282,142650
abnb_33903106,33903106,,entire_place,1,1.0,2.0,4.8,84.0,"Ohh, A308. Modern and stylish apartment!",33121137.96,33659642.11,82.02,113428.56,356,12,Bogotá,cop,Low,4.68801,-74.06594,142650
abnb_34070693,34070693,,entire_place,1,1.0,2.0,4.8,72.0,"Ohh. A209. Comfortable, cozy and central",33091651.08,33571070.89,90.78,101820.46,358,12,Bogotá,cop,Medium,4.6889,-74.067,142650
abnb_1122506862183063835,1122506862183063835,,entire_place,1,1.0,3.0,4.9,85.0,"Central and modern apartment, fully equipped",33058478.34,34768827.96,83.29,114389.19,347,12,Bogotá,cop,Medium,4.6564,-74.0786,142650
abnb_1280632347094570333,1280632347094570333,,entire_place,1,1.0,2.0,4.9,100.0,Nice apartment in the North Bogotá area,32741494.38,32931758.47,81.22,111365.62,362,12,Bogotá,cop,Low,4.6703,-74.06425,142650
abnb_1131895342822974962,1131895342822974962,,entire_place,1,1.0,4.0,4.9,24.0,"Duplex with great location, city view and balcony",32542457.94,32949708.61,69.21,132826.36,354,12,Bogotá,cop,Medium,4.6772,-74.0602,142650
abnb_1278500046276448112,1278500046276448112,,entire_place,2,1.0,6.0,4.9,7.0,Impeccable 2 bedroom apartment with lots of light,32516656.92,36422194.18,59.02,168480.08,327,12,Bogotá,cop,Medium,4.6717,-74.0858,142650
abnb_1257536184870965604,1257536184870965604,,entire_place,1,1.0,2.0,5.0,23.0,U-GO Apartamento Vista a Ciudad,32302877.04,34349893.11,76.68,122824.62,343,12,Bogotá,cop,Low,4.657937915,-74.078761037,142650
abnb_1400249417999166999,1400249417999166999,4605514,entire_place,1,1.0,2.0,5.0,23.0,Modern Luxury Loft near El Virrey – Top Floor,31230291.78,31589220.83,81.3,156151.46,246,12,Bogotá,cop,High,4.6772,-74.0602,142650
abnb_1142230773011668734,1142230773011668734,,entire_place,1,1.0,2.0,4.9,41.0,Duplex loft on the 7th floor with a panoramic view and balcony,30861705.78,31694783.86,57.3,151282.87,356,12,Bogotá,cop,Medium,4.6772,-74.0602,142650
abnb_947992945120666246,947992945120666246,3536366,entire_place,1,1.0,2.0,4.7,44.0,w* | Great loft in Parque Virrey,30736386.54,31007739.55,70.08,121487.7,361,12,Bogotá,cop,Medium,4.6772,-74.0603,142650
abnb_1137602530099751376,1137602530099751376,,entire_place,1,1.0,2.0,5.0,13.0,"Ohh A407 - Unique, design, comfort and view",30673726.92,30772139.38,74.44,115749.91,356,12,Bogotá,cop,Medium,4.6889,-74.067,142650
abnb_1082008478720723671,1082008478720723671,,entire_place,2,2.0,5.0,4.2,6.0,|Ahead| Classic 2BR @AntiguoCountry,30618439.02,34212152.52,60.0,152330.54,335,12,Bogotá,cop,Low,4.67308,-74.0614,142650
abnb_739962674085636804,739962674085636804,11931053ha,entire_place,3,1.0,6.0,5.0,45.0,Elegance and Comfort in Bogotá | 3 Hab Chapinero,30600009.72,30600009.72,52.2,161052.68,364,12,Bogotá,cop,High,4.654,-74.0676,142650
abnb_1394399893184897549,1394399893184897549,,entire_place,1,1.0,3.0,4.2,13.0,Modern duplex 7th floor/parking/laundry area,30555779.4,38263649.83,86.07,145503.71,244,12,Bogotá,cop,Medium,4.6771519,-74.060214,142650
abnb_1262467699303287717,1262467699303287717,,entire_place,1,1.0,2.0,5.0,11.0,Duplex - Your retreat near Parque El Virrey,30552093.54,30861079.18,55.97,155086.76,352,12,Bogotá,cop,High,4.6772,-74.0602,142650
abnb_974063965987703970,974063965987703970,3751475,entire_place,0,1.0,2.0,4.8,16.0,w* | Unique loft in Parque Virrey,30471004.62,33776741.88,70.97,125913.24,341,12,Bogotá,cop,Medium,4.6772,-74.0603,142650
abnb_1241984263090748868,1241984263090748868,,entire_place,3,2.0,6.0,4.5,87.0,Cozy central apartment,30441517.74,33181106.9,76.19,118912.18,336,12,Bogotá,cop,Medium,4.6745,-74.0858,142650
abnb_51453734,51453734,,entire_place,2,2.0,4.0,4.6,74.0,New Castellana apartment 95 m2 luxurious 2 bedrooms,30330941.94,39775921.33,75.64,145821.84,275,12,Bogotá,cop,Low,4.68224,-74.06064,142650
abnb_1034729907527414423,1034729907527414423,,entire_place,1,1.0,2.0,4.6,150.0,|HF| New and Cozy Loft   Close to Virrey,30290397.48,31139656.48,79.78,106656.33,356,12,Bogotá,cop,Medium,4.6772,-74.0602,142650
abnb_1109754446093141072,1109754446093141072,,entire_place,1,1.0,3.0,4.8,55.0,New Movistar Arena Apartment,30242481.3,30901807.94,60.45,141320.0,354,12,Bogotá,cop,Medium,4.6562,-74.0786,142650
abnb_985604823431453848,985604823431453848,,entire_place,1,1.5,2.0,4.8,12.0,Beautiful and cozy full apartment,30032387.28,30081409.22,77.19,113759.04,342,12,Bogotá,cop,Low,4.66199,-74.07017,142650
abnb_1216713894993338636,1216713894993338636,4167205,entire_place,1,1.0,3.0,4.5,31.0,NOK Amazing Duplex with Terrace and City View,29980785.24,29980785.24,69.86,117571.71,365,12,Bogotá,cop,High,4.6772,-74.0602,142650
abnb_1182038830418205379,1182038830418205379,,entire_place,2,1.0,2.0,4.7,66.0,|HF| Cozy Loft in Polo! Close to Virrey,29943926.64,33525218.79,88.44,105808.93,320,12,Bogotá,cop,Low,4.67693,-74.05925,142650
abnb_762112082158518409,762112082158518409,,entire_place,3,2.0,7.0,4.6,76.0,3BDR apartment in Chapinero w/ parking,29925497.34,34695884.79,54.48,204969.16,268,12,Bogotá,cop,Low,4.65694,-74.06364,142650
abnb_966629150380041788,966629150380041788,,entire_place,1,1.0,3.0,4.8,80.0,"Exclusive El Polo Apartment, Bogotá",29877581.16,29877581.16,73.7,111069.08,365,12,Bogotá,cop,High,4.6772,-74.0602,142650
abnb_1181304643576855818,1181304643576855818,,entire_place,1,1.0,2.0,4.7,95.0,|HF| Art And Design. Duplex next to Virrey,29870209.44,32707695.04,72.89,123430.61,332,12,Bogotá,cop,Medium,4.6772,-74.0602,142650
abnb_11456824,11456824,,entire_place,1,1.0,2.0,5.0,67.0,"Modern loft, great view, in Club house",29848094.28,34694594.74,85.33,116594.12,300,12,Bogotá,cop,Medium,4.6626,-74.0681,142650
abnb_970852063457142027,970852063457142027,3641582,entire_place,1,1.0,2.0,4.9,85.0,Loft in Polo Bogotá,29623256.82,29623256.82,72.88,111365.62,365,12,Bogotá,cop,High,4.6772,-74.0602,142650
abnb_40367313,40367313,,entire_place,2,2.0,5.0,4.7,736.0,72Hub By Jalo | 2BR Apartment with Balcony & Pool,29379990.06,31462242.95,27.9,330112.26,319,12,Bogotá,cop,Low,4.66375,-74.06705,142650
abnb_1395831112979640648,1395831112979640648,,entire_place,6,6.0,16.0,,,Huge house near Zona T and Parque 93,29284157.7,53228020.28,34.7,385317.87,219,12,Bogotá,cop,Medium,4.673718,-74.061928,142650
abnb_1042730930786569764,1042730930786569764,,entire_place,1,1.0,2.0,4.7,120.0,|HF|  Brilliant Loft with Industrial Design in Polo,29206754.64,29206754.64,73.42,108980.42,365,12,Bogotá,cop,Low,4.67822,-74.05908,142650
abnb_974064021142888934,974064021142888934,3751480,entire_place,1,1.0,2.0,4.6,15.0,w* | Unique loft in Parque Virrey,29158838.46,29378183.99,68.06,119015.66,360,12,Bogotá,cop,Medium,4.6772,-74.0603,142650
abnb_1281134358765070522,1281134358765070522,,entire_place,2,1.0,6.0,4.9,9.0,Impeccable 2 bedroom apartment,28948744.44,32452264.95,53.56,167333.79,323,12,Bogotá,cop,Low,4.671200519,-74.085112887,142650
abnb_1037690818164123657,1037690818164123657,,entire_place,1,1.0,2.0,4.7,147.0,|HF| Charming/Elegant 1bed in Polo,28934001.0,29249584.33,72.22,111284.62,360,12,Bogotá,cop,Low,4.67688,-74.06086,142650
abnb_1353709422074976964,1353709422074976964,,entire_place,1,1.0,2.0,4.9,36.0,Cozy apartment in the north of Bogotá,28838168.64,30142963.08,90.65,99100.24,321,12,Bogotá,cop,Low,4.672399396,-74.064462136,142650
abnb_989387617974462631,989387617974462631,,entire_place,1,1.0,3.0,4.9,44.0,Cozy loft apartment near El Virrey park,28661247.36,29199567.21,75.77,105372.24,359,12,Bogotá,cop,Low,4.67813,-74.05924,142650
abnb_1303828381091460795,1303828381091460795,,entire_place,1,1.0,2.0,,,Beautiful Toki Bogotá apartment.,28613331.18,29464248.82,46.29,176625.5,350,12,Bogotá,cop,Low,4.684645839,-74.05811779,142650
abnb_785656797201463202,785656797201463202,,private_room,2,1.5,6.0,5.0,25.0,Private Room Quinta Seis Tres 211,28524870.54,28524870.54,26.87,294070.85,361,12,Bogotá,cop,Medium,4.6527,-74.0696,142650
abnb_1324068159987648870,1324068159987648870,,entire_place,1,1.0,2.0,4.9,38.0,"Private Patio, Queen bed loft with self check-in!",28178399.7,28693388.06,70.2,115013.88,349,12,Bogotá,cop,Medium,4.6857,-74.0726,142650
abnb_1371253944671958332,1371253944671958332,,entire_place,2,2.0,4.0,4.7,18.0,New penthouse in San Felipe,27887216.76,34091661.76,58.21,171087.23,280,12,Bogotá,cop,Low,4.666322579,-74.064111281,142650
abnb_1242016520958384333,1242016520958384333,11724022ha,entire_place,1,1.0,2.0,4.9,36.0,Bright loft with washer-dryer and WiFi + Smart TV,27769269.24,27769269.24,74.52,102092.9,365,12,Bogotá,cop,Low,4.68585,-74.06124,142650
abnb_52655327,52655327,,entire_place,1,1.0,2.0,4.9,50.0,Loft thought for you,27503887.32,29899106.58,61.04,146297.28,308,12,Bogotá,cop,Low,4.6622,-74.06685,142650
abnb_1343749120701824221,1343749120701824221,,entire_place,1,1.0,2.0,4.9,20.0,Centric-modern flat fast wi fi calle 100 Bogota,27422798.4,29281467.02,76.54,110575.8,324,12,Bogotá,cop,Medium,4.6874,-74.0611,142650
abnb_1229138487787784690,1229138487787784690,,entire_place,1,1.0,2.0,4.8,23.0,"NEW Apt Parking+Laundry+WiFi 700MB, @Bogota",27172159.92,29558643.69,60.14,152652.58,296,12,Bogotá,cop,Medium,4.6868,-74.0619,142650
abnb_1213137946646536177,1213137946646536177,,entire_place,1,1.0,2.0,5.0,17.0,Modern apartment overlooking the mountains. A307,27061584.12,28031039.02,66.19,117149.72,349,12,Bogotá,cop,Low,4.68739,-74.06798,142650
abnb_1410218735941748112,1410218735941748112,,entire_place,3,2.0,5.0,4.7,12.0,Modern Castilian apartment,27054212.4,33792664.79,71.24,168038.58,226,12,Bogotá,cop,Low,4.683283258,-74.062371323,142650
abnb_1311527650348595558,1311527650348595558,,entire_place,1,1.0,3.0,4.9,28.0,Cozy loft/Gym/Coworking/Terrace/Block 3,27046840.68,27852864.54,63.17,121286.28,353,12,Bogotá,cop,Medium,4.6564,-74.0786,142650
abnb_724824239094228584,724824239094228584,,entire_place,2,2.0,3.0,4.7,47.0,"Spectacular View, Balcony, Centrally Located, With Parking",27032097.24,29603132.02,72.34,113580.24,329,12,Bogotá,cop,Low,4.66292,-74.08261,142650
abnb_984060744990689594,984060744990689594,,entire_place,1,1.0,2.0,4.7,32.0,w* | Unique loft in Parque Virrey,26984181.06,27086426.82,63.46,116814.63,364,12,Bogotá,cop,Medium,4.6772,-74.0602,142650
abnb_12540559,12540559,,entire_place,3,2.0,6.0,4.4,352.0,"Great location, convenient and wifi.",26958380.04,27207839.04,61.88,120349.92,362,12,Bogotá,cop,Low,4.66293,-74.08202,142650
abnb_20361402,20361402,,entire_place,1,1.0,5.0,4.9,117.0,Duplex apartment. 100Mbps Internet! 80m2,26899406.28,27095309.74,69.89,106321.76,362,12,Bogotá,cop,Low,4.6729,-74.06384,142650
abnb_40734702,40734702,,entire_place,1,1.0,2.0,4.9,30.0,"Apartment with Office, View and Fast WiFi in Bogotá",26704055.7,26759085.59,70.66,107677.64,351,12,Bogotá,cop,Medium,4.6889,-74.067,142650
abnb_846185,846185,,entire_place,2,2.0,5.0,4.8,187.0,"900Mb Best Location Front To Biggest Park, Salitre",26637710.22,34874059.26,90.2,115816.13,255,12,Bogotá,cop,Low,4.66202,-74.08274,142650
abnb_1091577041749426498,1091577041749426498,,entire_place,1,1.0,2.0,4.8,23.0,U-GO Comfortable Studio Apartment in Bogotá,26626652.64,27788583.15,67.82,112824.8,348,12,Bogotá,cop,Low,4.65663,-74.07878,142650
abnb_1222444138158427953,1222444138158427953,,entire_place,2,1.0,5.0,4.8,41.0,Spacious apartment near Héroes 201,26597165.76,26928229.71,61.84,119807.05,359,12,Bogotá,cop,High,4.6685,-74.0653,142650
abnb_832527386236926090,832527386236926090,,entire_place,1,1.0,2.0,4.9,15.0,"Ohh, A501. Studio apartment Calle 100",26376014.16,27938671.37,67.07,119890.96,328,12,Bogotá,cop,Medium,4.6892,-74.067,142650
abnb_1220350731942417799,1220350731942417799,,entire_place,1,1.0,2.0,4.8,12.0,U-GO Apartaestudio de Lujo en Bogota,26376014.16,26963466.53,66.67,111762.78,354,12,Bogotá,cop,Low,4.65779,-74.07888,142650
abnb_994139658309746334,994139658309746334,,entire_place,1,1.0,2.0,4.9,45.0,Modern and cozy studio apartment on 100th Street,26339155.56,26768337.1,78.43,94068.42,357,12,Bogotá,cop,Medium,4.6889,-74.067,142650
abnb_1146565751105923248,1146565751105923248,,entire_place,1,1.0,2.0,4.9,44.0,studio with private terrace,26298611.1,26409739.78,66.94,108224.74,363,12,Bogotá,cop,Low,4.68506,-74.05765,142650
abnb_1100290932825135208,1100290932825135208,,entire_place,1,1.0,2.0,4.8,27.0,U-GO Studio Apartment in Bogotá with Park View,26258066.64,26665759.61,70.75,103378.22,359,12,Bogotá,cop,Low,4.65635,-74.07801,142650
abnb_993735630325041355,993735630325041355,,entire_place,1,1.0,4.0,4.9,114.0,"A nice, central studio apartment in Bogotá",26180663.58,27124059.45,73.01,101870.29,352,12,Bogotá,cop,Low,4.65003,-74.0665,142650
abnb_1177088740297203711,1177088740297203711,11723921ha,entire_place,1,1.0,2.0,5.0,29.0,Stylish Loft - 800mb WIFI-Smart TV-Washing Machine,26173291.86,26247635.66,73.9,97298.48,364,12,Bogotá,cop,Low,4.68741,-74.06119,142650
abnb_810982285649092182,810982285649092182,,entire_place,2,1.0,4.0,4.7,51.0,"Bolivar Building, apartment 501",26033229.18,26924396.41,63.07,117266.8,352,12,Bogotá,cop,Medium,4.681,-74.0672,142650
abnb_19981126,19981126,,entire_place,2,2.0,4.0,4.9,197.0,"6. Apartment-Near Movistar, Campin",25930025.1,26630338.5,67.89,107593.47,355,12,Bogotá,cop,Medium,4.652,-74.0692,142650
abnb_835594215595933664,835594215595933664,,entire_place,0,1.0,2.0,4.7,9.0,Fh ~ Splendid studio with balcony. Fully equipped.,25819449.3,26109194.75,77.65,92875.72,358,12,Bogotá,cop,High,4.684427815,-74.058259308,142650
abnb_1231432541824627239,1231432541824627239,,entire_place,1,1.0,2.0,5.0,3.0,El Lugar de Paz Apartment,25812077.58,25812077.58,94.28,92185.99,297,12,Bogotá,cop,Medium,4.686180792,-74.061753116,142650
abnb_1262941006398679735,1262941006398679735,,entire_place,1,1.0,3.0,,,"Luxury apt 5 stars+WiFi+cowork+gym+parking,@Bogota",25543009.8,34377094.76,79.55,243266.76,132,12,Bogotá,cop,Medium,4.6869,-74.062,142650
abnb_1304660286370648757,1304660286370648757,,entire_place,1,1.0,3.0,4.9,33.0,"Queen bed Loft w/ 500mb WiFi, self check in",25520894.64,25763792.81,62.75,113932.57,357,12,Bogotá,cop,Medium,4.6857,-74.0726,142650
abnb_1020451820892951923,1020451820892951923,,entire_place,1,1.0,2.0,4.8,43.0,Park Studio in Bogotá Art District,25502465.34,25990620.64,74.51,95873.93,357,12,Bogotá,cop,Low,4.66527,-74.06609,142650
abnb_1239136127443378044,1239136127443378044,,entire_place,1,1.0,8.0,4.5,62.0,New and central for groups or families 8p,25476664.32,25913401.87,75.56,93664.2,360,12,Bogotá,cop,Low,4.65064,-74.06662,142650
abnb_1359571023677837740,1359571023677837740,11830395ha,entire_place,1,1.0,4.0,4.9,13.0,Blessing House,25472978.46,25472978.46,81.64,102301.12,305,12,Bogotá,cop,High,4.6807,-74.0635,142650
abnb_1110269417197689475,1110269417197689475,,entire_place,1,1.0,2.0,4.5,82.0,|HF| Spectacular Loft Next to Virrey with balcony,25362402.66,25362402.66,66.58,104372.03,365,12,Bogotá,cop,Medium,4.6772,-74.0602,142650
abnb_1254446528564329972,1254446528564329972,,entire_place,1,1.0,3.0,4.6,41.0,Studio apartment with coworking and city view,25355030.94,26196181.05,62.71,114211.85,354,12,Bogotá,cop,Low,4.676339839,-74.059069309,142650
abnb_974064473371337403,974064473371337403,3751473,entire_place,1,1.0,2.0,4.7,31.0,w* | Unique loft in Parque Virrey,25026989.4,29661479.19,60.76,143011.37,288,12,Bogotá,cop,Medium,4.6771553,-74.0603166,142650
abnb_1358864796770615705,1358864796770615705,,entire_place,1,1.0,2.0,5.0,31.0,Sophisticated luxury loft north of Bogotá,25019617.68,26324412.12,85.35,93356.78,314,12,Bogotá,cop,Low,4.679044183,-74.063204334,142650
abnb_730287579558771961,730287579558771961,,entire_place,1,1.0,2.0,4.8,15.0,"WH New apartment, financial area, city view.",24909041.88,24909041.88,37.01,190145.36,354,12,Bogotá,cop,High,4.65982,-74.06324,142650
abnb_1281247655246640660,1281247655246640660,,entire_place,1,1.0,2.0,4.9,28.0,"Stylish Queen bed Loft, near mall - self check-in",24886926.72,25147590.74,59.44,117947.52,355,12,Bogotá,cop,Low,4.68646,-74.07362,142650
abnb_1118810461620710274,1118810461620710274,,private_room,1,1.0,3.0,4.8,37.0,Modern Loft / Gym/ Coworking Block 3,24757921.62,25472204.43,62.25,114620.0,347,12,Bogotá,cop,Medium,4.6569,-74.0784,142650
abnb_1334130079324231140,1334130079324231140,11724050ha,entire_place,1,1.0,2.0,5.0,10.0,The Castellana Loft WiFi + Smart TV,24698947.86,24946932.52,76.95,96104.86,334,12,Bogotá,cop,Low,4.68737,-74.0626,142650
abnb_1147773981596687327,1147773981596687327,,entire_place,1,1.0,2.0,4.7,126.0,|HF| Beautiful Duplex near Virrey,24407764.92,28180205.77,63.12,120830.51,320,12,Bogotá,cop,Low,4.67797,-74.06105,142650
abnb_780504872615948460,780504872615948460,,entire_place,1,1.0,3.0,5.0,31.0,Enjoy comfort with everything nearby,24123953.7,27255570.93,73.38,112204.43,293,12,Bogotá,cop,Medium,4.6687,-74.0849,142650
abnb_886838968111101903,886838968111101903,,entire_place,2,2.0,4.0,4.4,72.0,Castellana apartment 85m 2/2 Modern Beautiful,24013377.9,41209057.42,74.74,165609.5,194,12,Bogotá,cop,Medium,4.6826888,-74.0614754,142650
abnb_1353942650534731848,1353942650534731848,,entire_place,1,1.0,2.0,5.0,91.0,Nice apartment in the north of Bogotá,23729566.68,25107562.3,74.43,103172.03,309,12,Bogotá,cop,Medium,4.6713,-74.0649,142650
abnb_1149500229876166055,1149500229876166055,,entire_place,1,1.0,2.0,4.9,33.0,"Complete apartment, new building, central location",23663221.2,25042691.16,62.05,114870.01,332,12,Bogotá,cop,Medium,4.6562,-74.0789,142650
abnb_1327923370359381268,1327923370359381268,,entire_place,1,1.0,3.0,4.9,25.0,"Centric Loft across malls/ Queen bed, Self checkin",23596875.72,24051563.41,65.55,109752.91,328,12,Bogotá,cop,Medium,4.6857,-74.0726,142650
abnb_1046963490300977415,1046963490300977415,,entire_place,1,1.0,4.0,4.8,21.0,Loft en Bogotá,23589504.0,23950681.42,63.72,109210.67,339,12,Bogotá,cop,Medium,4.6625,-74.0687,142650
abnb_813986353318245891,813986353318245891,,entire_place,1,1.0,2.0,5.0,21.0,"Central, safe, very complete",23537901.96,24239136.82,63.28,105079.92,354,12,Bogotá,cop,Medium,4.6889,-74.067,142650
abnb_655904971123108302,655904971123108302,11842855ha,entire_place,1,1.0,4.0,4.9,66.0,Ideal comfort near Parque El Virrey and 93,23515786.8,23785149.45,83.89,77866.84,360,12,Bogotá,cop,High,4.6795,-74.0595,142650
abnb_1295145280515084998,1295145280515084998,,entire_place,1,1.0,2.0,4.8,88.0,Great apartment in a great location,23482614.06,23623819.36,58.68,110247.02,363,12,Bogotá,cop,Low,4.65316,-74.08243,142650
abnb_1039449684148654803,1039449684148654803,,entire_place,1,1.0,4.0,4.8,52.0,Studio Apartment in Bogotá's Financial and Tourist Sector,23442069.6,23837451.8,80.5,81114.43,359,12,Bogotá,cop,Low,4.65707,-74.06266,142650
abnb_33640921,33640921,,entire_place,1,1.0,3.0,4.8,105.0,Modern loft-stunning views- convenient location,23383095.84,24185728.71,41.57,169442.73,332,12,Bogotá,cop,Medium,4.6631,-74.0682,142650
abnb_47197062,47197062,,entire_place,1,1.0,2.0,4.9,7.0,Classic Style Apart-Studio - North Zone,23320436.22,23387887.46,62.36,102733.2,364,12,Bogotá,cop,Low,4.68756,-74.06904,142650
abnb_1144436465149504286,1144436465149504286,,private_room,1,,3.0,,,Private Room Quinta Seis Tres 208,23165630.1,23165630.1,35.62,178197.15,365,12,Bogotá,cop,Medium,4.6527,-74.0696,142650
abnb_1111509640458391806,1111509640458391806,,entire_place,1,1.0,2.0,5.0,11.0,"Nice, cozy in Andes, Calle 100.",23058740.16,23430496.0,62.25,106753.43,347,12,Bogotá,cop,Medium,4.6889,-74.067,142650
abnb_745764939477074762,745764939477074762,11199496ha,entire_place,1,1.0,2.0,4.9,16.0,Beautiful Loft Calle 100 Bogotá,23051368.44,23051368.44,77.47,81742.44,364,12,Bogotá,cop,Medium,4.6859,-74.0576,142650
abnb_836210453354342025,836210453354342025,,entire_place,2,2.0,4.0,5.0,52.0,"7. Apt-Near Movistar, Campin",22948164.36,23407680.53,56.15,114169.97,358,12,Bogotá,cop,Medium,4.6519,-74.0691,142650
abnb_1218393005043760582,1218393005043760582,,entire_place,1,1.0,2.0,5.0,46.0,Spectacular and comfortable loft!,22867075.44,22867075.44,59.94,105378.22,362,12,Bogotá,cop,Low,4.67658754,-74.059129811,142650
abnb_1421088488769191059,1421088488769191059,,entire_place,1,1.0,3.0,4.8,18.0,renteo | Chic Loft 3min MovistarArena | Pool&Views,22844960.28,32810641.11,84.31,132819.54,204,12,Bogotá,cop,Medium,4.6564,-74.0786,142650
abnb_1344389913918447352,1344389913918447352,,entire_place,1,1.0,2.0,4.8,57.0,Modern Studio Close to Everything,22797044.1,24778857.3,77.48,97423.26,302,12,Bogotá,cop,Medium,4.6806,-74.0635,142650
abnb_51616709,51616709,,entire_place,1,1.0,2.0,4.3,7.0,Apartaestudio302 Alcazares,442303.2,442303.2,22.86,55287.9,35,12,Bogotá,cop,Low,4.66875,-74.06809,142650
abnb_1103017205867767796,1103017205867767796,11320145ha,entire_place,1,1.0,2.0,,,Oasis Urbano: Descanso Seguro.,442303.2,442303.2,18.18,73717.2,33,12,Bogotá,cop,High,4.650521292,-74.066680817,142650
abnb_1508780511309501631,1508780511309501631,,private_room,1,1.0,1.0,4.0,1.0,Juan’s apartment,420188.04,538135.56,12.77,70031.34,47,12,Bogotá,cop,Medium,4.67458,-74.08603,142650
abnb_702089173883479554,702089173883479554,,entire_place,1,1.0,2.0,4.6,5.0,Apartaestudio401 Alcazares,412816.32,9762626.81,53.33,51602.04,15,12,Bogotá,cop,Low,4.66756,-74.06725,142650
abnb_47950726,47950726,,entire_place,0,1.0,2.0,5.0,2.0,Studio apartment 202 San Felipe Calle 74 # 222-69,412816.32,412816.32,20.59,58973.76,34,12,Bogotá,cop,Low,4.66298,-74.06465,142650
abnb_1077477526351704850,1077477526351704850,,private_room,1,1.0,2.0,,,Room in the heart of Bogotá,412816.32,412816.32,15.56,58973.76,45,12,Bogotá,cop,Medium,4.6796,-74.0627,142650
abnb_1567739914334616934,1567739914334616934,,private_room,1,1.0,2.0,4.0,1.0,Room in Bogotá's Cultural District,405444.6,572635.21,100.0,50680.58,8,12,Bogotá,cop,Medium,4.661,-74.0632,142650
abnb_40718182,40718182,,entire_place,1,1.0,3.0,4.6,27.0,Wonderful private apartment in a great location!,401758.74,4659959.08,25.0,50219.84,32,12,Bogotá,cop,Low,4.65316,-74.07173,142650
abnb_47940410,47940410,,entire_place,1,1.0,2.0,4.3,13.0,Apartaestudio 101 San Felipe Street 74 # 22-69,387015.3,387015.3,11.48,55287.9,61,12,Bogotá,cop,Low,4.66357,-74.06395,142650
abnb_1462476891329030275,1462476891329030275,,entire_place,1,1.0,3.0,4.3,3.0,Studio apartment in La Castellana,375957.72,9257590.27,8.47,75191.54,59,12,Bogotá,cop,Low,4.68042,-74.06316,142650
abnb_1582624369784541127,1582624369784541127,,entire_place,1,1.0,2.0,5.0,2.0,Centrally located and comfortable for couples,368586.0,368586.0,100.0,73717.2,5,12,Bogotá,cop,Low,4.65032,-74.06544,142650
abnb_1571135352407441650,1571135352407441650,,entire_place,1,1.0,2.0,5.0,5.0,Urban Studio | By Oasis,361214.28,20187049.78,14.29,120404.76,21,12,Bogotá,cop,Low,4.68105,-74.06378,142650
abnb_1385458460338904531,1385458460338904531,,private_room,0,1.0,2.0,5.0,1.0,Everything is within walking distance,353842.56,468104.22,6.41,70768.51,78,12,Bogotá,cop,Medium,4.6550393,-74.0787969,142650
abnb_1429890160727506641,1429890160727506641,,private_room,1,,2.0,4.7,3.0,"Room, bathroom, private garage in green area.",350156.7,958876.48,7.46,70031.34,67,12,Bogotá,cop,Low,4.67112,-74.08367,142650
abnb_1569219430148196992,1569219430148196992,,entire_place,1,1.0,2.0,4.7,3.0,Loft Studio Apartment in Cultural House,335413.26,13361611.09,21.74,67082.65,23,12,Bogotá,cop,Low,4.66066,-74.06442,142650
abnb_38486620,38486620,,private_room,1,1.0,2.0,,,Chapinero Cozy Studio Apartment,335413.26,357049.26,20.59,47916.18,34,12,Bogotá,cop,Low,4.65858,-74.06756,142650
abnb_800626114690989727,800626114690989727,,private_room,1,1.0,2.0,,,Cozy country room,331727.4,331727.4,13.89,66345.48,36,12,Bogotá,cop,Medium,4.6597,-74.0791,142650
abnb_1305756780296711046,1305756780296711046,,private_room,1,1.0,1.0,5.0,1.0,El Paso Del Movistar,324355.68,324355.68,9.41,40544.46,85,12,Bogotá,cop,Low,4.653261995,-74.075579064,142650
abnb_45878344,45878344,,private_room,1,1.0,3.0,,,Chapinero Bello Studio Apartment,309612.24,309612.24,20.59,44230.32,34,12,Bogotá,cop,Low,4.65783,-74.06684,142650
abnb_1327874023551307379,1327874023551307379,,entire_place,1,1.0,2.0,,,Loft near medplus coliseum- Front of CC Cafam,298554.66,298554.66,10.0,99518.22,30,12,Bogotá,cop,Medium,4.6857,-74.0726,142650
abnb_1375551904924572497,1375551904924572497,,private_room,1,1.0,,,,Room in Polo club - Virrey,291182.94,723460.6,12.9,72795.74,31,12,Bogotá,cop,High,4.6771,-74.0607,142650
abnb_1239130662561127231,1239130662561127231,,entire_place,1,1.0,3.0,4.2,5.0,Apartaestudio two-room,280125.36,280125.36,4.92,93375.12,61,12,Bogotá,cop,Low,4.65011,-74.06747,142650
abnb_1571192394146966604,1571192394146966604,,entire_place,1,1.0,2.0,5.0,1.0,Comfy Studio | By Oasis,265381.92,265381.92,33.33,132690.96,6,12,Bogotá,cop,Low,4.68001,-74.06382,142650
abnb_1566311738351067181,1566311738351067181,,private_room,1,1.0,2.0,5.0,1.0,02 - Private room in the heart of Bogotá,265381.92,1276671.33,21.43,44230.32,28,12,Bogotá,cop,Medium,4.6511,-74.0701,142650
abnb_1064707936057614952,1064707936057614952,,entire_place,1,1.0,2.0,3.5,2.0,Apartaestudio San Fernando,265381.92,265381.92,12.9,66345.48,31,12,Bogotá,cop,Medium,4.6755158,-74.0829183,142650
abnb_50526785,50526785,,entire_place,1,1.0,2.0,4.7,45.0,Comfortable and versatile apartment in Bogotá.,265381.92,1404496.95,7.41,66345.48,54,12,Bogotá,cop,Low,4.67141,-74.08592,142650
abnb_617602591954183612,617602591954183612,,private_room,1,1.0,3.0,,,The Hannah's place,258010.2,258010.2,12.9,64502.55,31,12,Bogotá,cop,Low,4.65207,-74.07003,142650
abnb_1553236841944128413,1553236841944128413,,private_room,1,1.0,2.0,5.0,1.0,Orchid Room 101 - Private Bathroom,235895.04,235895.04,10.0,117947.52,20,12,Bogotá,cop,Medium,4.6759,-74.0857,142650
abnb_1487956414620254458,1487956414620254458,,entire_place,1,1.0,2.0,5.0,1.0,Exclusive apartment in La Castellana - 4991 Loft,235895.04,12407231.36,7.41,117947.52,27,12,Bogotá,cop,Medium,4.6796549,-74.0621982,142650
abnb_701603247356710904,701603247356710904,,entire_place,0,1.0,2.0,4.4,7.0,Fh ~ Delightful studio in Chicó ~ Bogotá,210094.02,210094.02,3.57,210094.02,28,12,Bogotá,cop,Low,4.68477,-74.05797,142650
abnb_761058123997111611,761058123997111611,,entire_place,0,1.0,2.0,4.4,7.0,Fh ~ Cool studio in Chicó ~ Bogota,206408.16,344001.31,2.5,206408.16,40,12,Bogotá,cop,Low,4.68359,-74.05794,142650
abnb_878393883845907311,878393883845907311,,private_room,1,1.0,2.0,,,total rest.,187978.86,187978.86,6.9,93989.43,29,12,Bogotá,cop,Medium,4.6745,-74.0774,142650
abnb_1235806745815460984,1235806745815460984,,entire_place,1,1.0,2.0,3.0,2.0,Apartamento Completo en Bogota 3,184293.0,2665798.25,15.62,36858.6,32,12,Bogotá,cop,Low,4.66435,-74.06536,142650
abnb_897771972419525712,897771972419525712,,entire_place,1,1.0,2.0,4.5,6.0,Studio Apartment 203 74-1,176921.28,10116211.36,10.0,88460.64,20,12,Bogotá,cop,Low,4.66481,-74.06408,142650
abnb_637454053223319858,637454053223319858,,entire_place,1,1.0,2.0,4.6,39.0,Beautiful apartment 18th floor 72nd street zone G zone T,165863.7,165863.7,3.57,165863.7,28,12,Bogotá,cop,Low,4.65779,-74.06248,142650
abnb_984049306623241234,984049306623241234,,entire_place,0,1.0,2.0,3.2,9.0,Aparta studio 102 Heroes,154806.12,9162937.38,22.22,77403.06,9,12,Bogotá,cop,Low,4.66722,-74.06123,142650
abnb_1448153163928137020,1448153163928137020,,entire_place,1,1.0,2.0,,,Apt 66. Chapinero,151120.26,151120.26,6.9,75560.13,29,12,Bogotá,cop,Low,4.65617,-74.06531,142650
abnb_1586367875651741484,1586367875651741484,,entire_place,1,1.0,3.0,4.2,4.0,|HF| Cozy 1BED with Balcony in Polo Club,140062.68,140062.68,100.0,140062.68,1,12,Bogotá,cop,Low,4.67611,-74.0612,142650
abnb_1239132828283954217,1239132828283954217,,entire_place,1,1.0,3.0,4.0,4.0,601 For Couples,140062.68,1754469.36,6.9,70031.34,29,12,Bogotá,cop,Low,4.65056,-74.06694,142650
abnb_1569115501672772151,1569115501672772151,,entire_place,1,1.0,2.0,5.0,2.0,Brand new divine condo studio in a good location,136376.82,136376.82,9.52,68188.41,21,12,Bogotá,cop,Low,4.67274641,-74.064185495,142650
abnb_1582561159707182136,1582561159707182136,,entire_place,1,1.0,2.0,4.0,1.0,New Year's Eve Special for Couples,132690.96,132690.96,100.0,44230.32,3,12,Bogotá,cop,Low,4.65004,-74.06693,142650
abnb_1582020875163267768,1582020875163267768,,entire_place,1,1.0,2.0,3.0,1.0,Perfect for couples,129005.1,129005.1,33.33,64502.55,6,12,Bogotá,cop,Low,4.65041,-74.0671,142650
abnb_1318988563651505642,1318988563651505642,,private_room,1,1.0,2.0,,,Room 2 neighborhoods United,125319.24,125319.24,3.57,125319.24,28,12,Bogotá,cop,Medium,4.6720491,-74.0872547,142650
abnb_1003905482344672868,1003905482344672868,,entire_place,2,1.0,6.0,4.5,2.0,Spectacular & Insurance*Protocols*ParkWay*Embassy,114261.66,6246353.22,100.0,114261.66,1,12,Bogotá,cop,Low,4.65905,-74.06877,142650
abnb_1525272077934163401,1525272077934163401,,entire_place,1,1.0,15.0,,,Studio apartment in Salitre Greco Bogotá.,110575.8,110575.8,3.57,110575.8,28,12,Bogotá,cop,Medium,4.6662,-74.081,142650
abnb_1028893916163289135,1028893916163289135,,private_room,1,1.0,2.0,4.0,1.0,Very private double room,106889.94,106889.94,3.57,106889.94,28,12,Bogotá,cop,Low,4.68858,-74.07137,142650
abnb_1579079463185558859,1579079463185558859,,private_room,1,1.0,1.0,,,Simple house room in central Chapinero,103204.08,103204.08,100.0,25801.02,4,12,Bogotá,cop,Low,4.65274,-74.06688,142650
abnb_1022625354012417541,1022625354012417541,,private_room,1,1.0,2.0,,,Comfortable room,92146.5,92146.5,3.57,92146.5,28,12,Bogotá,cop,Low,4.68746,-74.07013,142650
abnb_1491294813415669923,1491294813415669923,,entire_place,1,1.0,3.0,,,Studio apartment in La Castellana,81088.92,81088.92,9.09,81088.92,11,12,Bogotá,cop,Low,4.681645939,-74.062749886,142650
abnb_1385613682548616057,1385613682548616057,,private_room,1,2.0,2.0,,,Nice room,73717.2,73717.2,6.9,36858.6,29,12,Bogotá,cop,Medium,4.652906148,-74.06845931,142650
abnb_940701234721552715,940701234721552715,,shared_room,3,3.5,10.0,4.2,12.0,CQ Lourdes,73717.2,73717.2,4.0,36858.6,50,12,Bogotá,cop,Low,4.65209,-74.06677,142650
abnb_756571784905155764,756571784905155764,,private_room,1,1.0,1.0,,,Private room in Bogotá. Perfect location,73717.2,73717.2,3.57,73717.2,28,12,Bogotá,cop,Low,4.67501,-74.08173,142650
abnb_1582614521337949711,1582614521337949711,,entire_place,1,1.0,2.0,5.0,2.0,In a central and strategic area of Bogotá,66345.48,66345.48,20.0,66345.48,5,12,Bogotá,cop,Low,4.65054,-74.06561,142650
abnb_1128446647339328877,1128446647339328877,,private_room,1,4.5,2.0,5.0,1.0,Furnished room,44230.32,44230.32,3.57,44230.32,28,12,Bogotá,cop,Medium,4.6649,-74.069,142650
abnb_1130566478585741626,1130566478585741626,,private_room,1,1.0,1.0,,,Minimalist Room 11,0.0,753021.2,0.0,0.0,7,12,Bogotá,cop,Medium,4.6586,-74.0683,142650
abnb_1077808393159975217,1077808393159975217,,entire_place,1,1.0,2.0,3.0,2.0,Studio apartment 301 Gaitán,0.0,14250861.67,0.0,0.0,9,12,Bogotá,cop,Medium,4.6743336,-74.070305,142650
abnb_944927323216378489,944927323216378489,3536368,entire_place,1,1.0,2.0,4.8,4.0,w* | Perfect Loft in Virrey,0.0,0.0,0.0,0.0,25,12,Bogotá,cop,Low,4.6778,-74.06137,142650
abnb_40194646,40194646,,private_room,1,1.0,2.0,5.0,7.0,Suite room 15 minutes from Zona T,0.0,1648058.58,0.0,0.0,27,12,Bogotá,cop,Low,4.67968,-74.07547,142650
abnb_974064445462631762,974064445462631762,3751476,entire_place,1,1.0,2.0,4.6,10.0,w* | Unique loft in Virrey,0.0,1438480.58,0.0,0.0,26,12,Bogotá,cop,Low,4.6772,-74.0603,142650
abnb_1261753345416500728,1261753345416500728,,entire_place,1,1.0,2.0,4.2,5.0,Moderno Apartaestudio,0.0,0.0,0.0,0.0,23,12,Bogotá,cop,Medium,4.6807,-74.0635,142650
abnb_24632491,24632491,,private_room,1,1.0,1.0,4.8,17.0,Big private room. Polo club Bogotá,0.0,0.0,0.0,0.0,27,12,Bogotá,cop,Low,4.67507,-74.0644,142650
abnb_1006486493260471720,1006486493260471720,,entire_place,1,1.0,2.0,4.3,7.0,DG* Duplex en el virrey con Wiffi 300 Megas!,0.0,21112937.81,0.0,0.0,21,12,Bogotá,cop,High,4.6771531,-74.0602248,142650
abnb_1102863628787838839,1102863628787838839,,entire_place,1,1.0,3.0,4.7,29.0,"Comfortable, Central and with Balcony.",0.0,9823296.06,0.0,0.0,21,12,Bogotá,cop,Low,4.650311207,-74.066695427,142650
abnb_1243744770893006305,1243744770893006305,,entire_place,1,1.0,2.0,4.3,15.0,gA°Apt-estudio en el Chico exterior con Balcón,0.0,1795013.82,0.0,0.0,8,12,Bogotá,cop,Medium,4.684,-74.0603,142650
abnb_847422358559691310,847422358559691310,,entire_place,1,1.0,2.0,4.4,133.0,Beautiful luxury loft in north of the city,0.0,3443330.41,0.0,0.0,6,12,Bogotá,cop,Low,4.68548,-74.05798,142650
abnb_1226980349384681303,1226980349384681303,,private_room,0,1.0,2.0,5.0,1.0,"Central and cozy TV, wifi",0.0,0.0,0.0,0.0,8,12,Bogotá,cop,Medium,4.6525,-74.0688,142650
abnb_1115874574967374587,1115874574967374587,,entire_place,2,2.0,4.0,4.7,10.0,"2 bedroom apartment, great location!",0.0,14646538.74,0.0,0.0,10,12,Bogotá,cop,Low,4.66894,-74.06755,142650
abnb_16814243,16814243,,entire_place,1,1.0,2.0,5.0,1.0,Beautiful studio apartment,0.0,86949.44,0.0,0.0,5,12,Bogotá,cop,Low,4.66269,-74.06732,142650
abnb_897948039214265942,897948039214265942,,entire_place,1,1.0,2.0,3.7,3.0,beautiful apartment to stretch,0.0,2481505.25,0.0,0.0,24,12,Bogotá,cop,Medium,4.6527,-74.073,142650
abnb_1115247618675374953,1115247618675374953,,private_room,1,1.0,1.0,5.0,1.0,Minimalist Room 4,0.0,0.0,0.0,0.0,12,12,Bogotá,cop,Medium,4.6586,-74.0683,142650
abnb_700934540484355937,700934540484355937,,entire_place,1,1.0,2.0,4.3,36.0,"SFL301: Warm Loft, 15min from Zona Rosa",22723326.9,22723326.9,74.52,83541.65,365,12,Bogotá,cop,Low,4.66775,-74.06137,142650
abnb_1222463137807162081,1222463137807162081,,entire_place,1,1.0,2.0,,,Loft-style studio apartment,22590635.94,24487084.63,97.39,75807.5,306,12,Bogotá,cop,Low,4.66531,-74.07196,142650
abnb_10296198,10296198,,entire_place,2,1.0,4.0,4.8,35.0,Furnished apartment near Héroes 302,22568520.78,22911821.78,64.89,97699.22,356,12,Bogotá,cop,High,4.6685,-74.0653,142650
abnb_1464127618683635792,1464127618683635792,,entire_place,1,1.0,2.0,5.0,7.0,New and furnished apartment with an ideal location,22494803.58,37029034.17,40.58,401692.91,138,12,Bogotá,cop,Low,4.651676933,-74.076127054,142650
abnb_1265517117068570261,1265517117068570261,,entire_place,2,1.0,5.0,4.6,23.0,Apt 102,22469002.56,22731693.8,69.81,89162.7,361,12,Bogotá,cop,Medium,4.6755,-74.0661,142650
abnb_947998813552798062,947998813552798062,3536367,entire_place,1,1.0,2.0,4.8,27.0,w* | Lovely loft in Parque Virrey,22443201.54,27523053.79,67.03,120017.12,279,12,Bogotá,cop,Medium,4.6772,-74.0603,142650
abnb_621012839019030790,621012839019030790,,entire_place,1,1.0,2.0,4.8,24.0,"Cozy  loft in club house (pool, sauna gym)",22424772.24,28022819.55,91.25,93436.55,263,12,Bogotá,cop,Medium,4.6629,-74.0682,142650
abnb_1400713924512467733,1400713924512467733,,entire_place,1,1.0,2.0,5.0,58.0,Modern apartment in Bogotá,22424772.24,27534369.38,77.73,112687.3,256,12,Bogotá,cop,Low,4.670691411,-74.064213754,142650
abnb_1143520113182529888,1143520113182529888,,entire_place,0,1.0,3.0,4.9,14.0,Light-Filled Studio. Great Location.,22332625.74,26875337.61,91.5,83020.92,294,12,Bogotá,cop,Low,4.66489,-74.06448,142650
abnb_1131917260065487595,1131917260065487595,,entire_place,1,1.0,2.0,4.7,3.0,"Safe and well-lit near Movistar Arena, Wi-Fi",22177819.62,22177819.62,69.72,97271.14,327,12,Bogotá,cop,Low,4.65054,-74.06899,142650
abnb_1203924669323389138,1203924669323389138,,entire_place,1,1.0,4.0,4.6,76.0,VIP Suite for couples or families,21901380.12,22793947.98,66.38,93997.34,351,12,Bogotá,cop,Low,4.65049,-74.06716,142650
abnb_35468941,35468941,,entire_place,2,2.0,4.0,4.8,93.0,My home is your home - Bogota Colombia,21868207.38,22136427.41,63.89,95079.16,360,12,Bogotá,cop,Low,4.67174,-74.08625,142650
abnb_1470431833747677391,1470431833747677391,,entire_place,1,1.5,4.0,5.0,8.0,Studio91/ Luxury/ Netflix/ Fast WiFi/ La Castellana,21798176.04,47270343.61,75.54,207601.68,139,12,Bogotá,cop,Medium,4.6797,-74.0596,142650
abnb_1398567647409731414,1398567647409731414,,entire_place,1,1.0,3.0,5.0,34.0,Cozy Loft in La Castellana * AboHaus,21765003.3,27505914.54,80.62,104639.44,258,12,Bogotá,cop,Low,4.67847,-74.06302,142650
abnb_1247976874253607921,1247976874253607921,,entire_place,1,1.0,2.0,5.0,3.0,U-GO Studio in Bogotá with City View,21724458.84,28869830.18,84.48,92839.57,277,12,Bogotá,cop,Medium,4.6569032,-74.078357,142650
abnb_51795399,51795399,,entire_place,2,2.0,4.0,4.9,12.0,"Nice, new and comfortable apartment",21676542.66,23378857.1,78.14,83051.89,334,12,Bogotá,cop,Low,4.66191,-74.07975,142650
abnb_52666473,52666473,,entire_place,1,1.0,3.0,4.7,57.0,"SFL204: Elegant Loft, near the T Zone",21543851.7,21543851.7,68.68,86175.41,364,12,Bogotá,cop,Medium,4.6668,-74.062,142650
abnb_35463182,35463182,,entire_place,1,1.0,4.0,4.8,63.0,Apartaestudio en San Luis - Chapinero 4 people,21492249.66,21908530.69,87.01,69780.03,354,12,Bogotá,cop,Medium,4.6527,-74.068,142650
abnb_1415118559485182438,1415118559485182438,,entire_place,1,1.0,3.0,4.9,29.0,Charming Loft in La Castellana * AboHaus,21448019.34,28800609.73,86.08,105137.35,237,12,Bogotá,cop,Medium,4.6797,-74.0622,142650
abnb_1198617,1198617,,entire_place,3,2.0,5.0,4.8,86.0,Conveniently located apartment. Free Parking,21418532.46,29271810.07,83.77,112138.91,228,12,Bogotá,cop,Low,4.68807,-74.06717,142650
abnb_1370336035396593269,1370336035396593269,,entire_place,1,1.0,2.0,5.0,6.0,U-GO Modern Studio Movistar Arena,21307956.66,25360228.0,63.07,117723.52,287,12,Bogotá,cop,Low,4.657327555,-74.078671606,142650
abnb_589376903872608140,589376903872608140,,entire_place,1,1.0,2.0,4.9,47.0,Comfortable apartment in an excellent area of Bogotá,21293213.22,21429000.3,76.31,76870.81,363,12,Bogotá,cop,Low,4.6805,-74.05862,142650
abnb_1358212861452950912,1358212861452950912,,entire_place,0,1.0,2.0,5.0,2.0,"Central, comfortable and spacious loft",21223181.88,22682966.73,78.16,85923.81,316,12,Bogotá,cop,Medium,4.6667,-74.0618,142650
abnb_681828870576460240,681828870576460240,,entire_place,0,1.0,2.0,5.0,22.0,"FH ~ Cozy studio: Balcony, central+ fully equipped",21164208.12,21229668.99,70.4,93646.94,321,12,Bogotá,cop,Low,4.685275844,-74.05754319,142650
abnb_1382083136900491859,1382083136900491859,,entire_place,1,1.0,3.0,5.0,35.0,Cozy Luxury Loft with beautiful sunset,21083119.2,24767689.15,82.35,94121.07,272,12,Bogotá,cop,Low,4.679301034,-74.061917569,142650
abnb_1443127938831156577,1443127938831156577,,entire_place,1,1.0,3.0,4.8,26.0,Modern loft in northern Bogotá fiber WiFi and gym,21057318.18,30927240.37,90.21,120327.53,194,12,Bogotá,cop,Medium,4.6831,-74.0587,142650
abnb_1375464782613651566,1375464782613651566,11828249ha,entire_place,1,1.0,3.0,4.8,7.0,"Beautiful Executive Suite, Near Parque de la 93",21042574.74,21042574.74,76.71,93940.07,292,12,Bogotá,cop,High,4.683619752,-74.058478734,142650
abnb_716196776383680970,716196776383680970,3195202,entire_place,0,1.0,2.0,4.8,26.0,FH~ Stylish smart studio. Central & fully equipped,20976229.26,24597402.42,71.75,94915.06,308,12,Bogotá,cop,High,4.684990636,-74.058226224,142650
abnb_1074767328487222406,1074767328487222406,,entire_place,1,1.0,2.0,3.5,2.0,The heart of Bogotá,20939370.66,20989940.66,88.94,100188.38,235,12,Bogotá,cop,High,4.65838,-74.06304,142650
abnb_1230815924587876660,1230815924587876660,,entire_place,1,2.0,4.0,5.0,13.0,"Private Studio | Chapinero Area, Bogotá",20909883.78,20909883.78,78.08,73368.02,365,12,Bogotá,cop,Medium,4.6566,-74.063,142650
abnb_835594470338428394,835594470338428394,3388667,entire_place,0,1.0,2.0,4.6,12.0,FH ~ Stunning studio with balcony. Amazing view!,20876711.04,23639889.71,81.88,88837.07,287,12,Bogotá,cop,High,4.68564,-74.05772,142650
abnb_1387053802728984413,1387053802728984413,,entire_place,1,1.0,2.0,4.9,17.0,Duplex deluxe vista urbana,20467580.58,29497679.57,78.54,127127.84,205,12,Bogotá,cop,Medium,4.6772,-74.0602,142650
abnb_774628427694368262,774628427694368262,,private_room,1,1.5,2.0,5.0,59.0,Private Room Quinta Seis Tres 101,20404920.96,20404920.96,51.23,109117.23,365,12,Bogotá,cop,Medium,4.6527,-74.0696,142650
abnb_700956335288674206,700956335288674206,,entire_place,1,1.0,3.0,4.6,65.0,"SFL401: Magnificent Loft, 15 minutes from Zona Rosa",20360690.64,20360690.64,50.14,111260.61,365,12,Bogotá,cop,Low,4.66635,-74.06273,142650
abnb_1034004378415329797,1034004378415329797,11842569ha,entire_place,1,1.0,4.0,4.9,51.0,New and warm private apartment in Bogotá.,20357004.78,20357004.78,67.12,83089.81,365,12,Bogotá,cop,High,4.6776,-74.0809,142650
abnb_1148648980876981253,1148648980876981253,,entire_place,1,1.0,2.0,4.7,41.0,|HF| Cozy Loft near El Virrey - Long Term,20320146.18,24634150.44,99.29,72571.95,282,12,Bogotá,cop,Low,4.67609,-74.06083,142650
abnb_1379327004349178331,1379327004349178331,,entire_place,1,1.0,2.0,5.0,2.0,Duplex Premium - The Block,20305402.74,24255244.03,45.68,182931.55,243,12,Bogotá,cop,Medium,4.6713,-74.0648,142650
abnb_1318461505746365356,1318461505746365356,,entire_place,1,1.0,2.0,,,"Brand New Loft on 85th Street, Zona T, Andino Mall",20305402.74,20456154.41,33.81,170633.63,352,12,Bogotá,cop,Low,4.671866742,-74.064300636,142650
abnb_1166042115725156209,1166042115725156209,,entire_place,2,1.0,2.0,4.5,80.0,|HF| Wonderful Duplex Close to Virrey,20294345.16,22580426.11,71.15,137123.94,208,12,Bogotá,cop,Low,4.67636,-74.05926,142650
abnb_881655719926693970,881655719926693970,,entire_place,1,1.0,2.0,4.8,106.0,[Chicó District] Elegant Business Apartment,20279601.72,20279601.72,52.6,105622.93,365,12,Bogotá,cop,Low,4.68326,-74.05821,142650
abnb_1040040094336001358,1040040094336001358,,entire_place,2,1.0,4.0,4.8,84.0,Independent and spacious apartment,20268544.14,20268544.14,80.55,68940.63,365,12,Bogotá,cop,Medium,4.6665,-74.0673,142650
abnb_1290194065542806073,1290194065542806073,,entire_place,1,1.0,2.0,5.0,21.0,P3. Luxury Coworking Loft - 3rd Floor,20213256.24,21720404.39,62.27,99572.69,326,12,Bogotá,cop,High,4.687517873,-74.062851505,142650
abnb_1371235365478712174,1371235365478712174,,entire_place,2,1.5,4.0,4.5,6.0,New apartment in San Felipe,20198512.8,23917140.1,51.0,157800.88,251,12,Bogotá,cop,Low,4.665662484,-74.06638078,142650
abnb_1071216763326414165,1071216763326414165,,entire_place,1,1.0,3.0,4.7,9.0,Brand new Home Office,20187455.22,21312084.82,66.05,94333.9,324,12,Bogotá,cop,High,4.6653754,-74.0652258,142650
abnb_1303819797285827620,1303819797285827620,,entire_place,1,1.0,2.0,4.7,3.0,Cozy and centrally located studio apartment 203,20169025.92,20248271.91,81.66,70768.51,349,12,Bogotá,cop,Low,4.686881162,-74.06536096,142650
abnb_785640688063186228,785640688063186228,,private_room,1,1.5,2.0,4.9,103.0,Private Room Quinta Seis Tres 210,20006848.08,20118713.93,47.11,116999.11,363,12,Bogotá,cop,Medium,4.6527,-74.0696,142650
abnb_37862149,37862149,,entire_place,2,2.0,4.0,4.9,44.0,Home Sweet Home Bogotá,19988418.78,21276405.7,63.45,92112.53,342,12,Bogotá,cop,Low,4.67108,-74.08833,142650
abnb_1193714260113214737,1193714260113214737,,entire_place,0,1.0,2.0,4.9,42.0,Loft-style apartment 102 Movistar Arena,19981047.06,20028336.64,67.86,80894.93,364,12,Bogotá,cop,Medium,4.6624,-74.0793,142650
abnb_1242602757559351178,1242602757559351178,,entire_place,1,1.0,3.0,5.0,1.0,Spacious and central studio apartment Andes201,19973675.34,22919377.79,82.77,90378.63,267,12,Bogotá,cop,Medium,4.6866,-74.0659,142650
abnb_1335102600618809790,1335102600618809790,,entire_place,1,1.0,2.0,5.0,22.0,P4. Luxury Coworking Loft - 4th Floor,19958931.9,21198781.49,59.19,105047.01,321,12,Bogotá,cop,High,4.687958529,-74.062864065,142650
abnb_1381329937704265596,1381329937704265596,,entire_place,0,1.0,2.0,4.8,12.0,Modern Studio Apartment Castellana,19936816.74,24152592.83,76.59,103299.57,252,12,Bogotá,cop,Low,4.683885794,-74.059118306,142650
abnb_1430490295993876852,1430490295993876852,,entire_place,1,1.0,2.0,5.0,7.0,"Ohh A406 Exterior, bright",19804125.78,26631296.82,78.2,120025.01,211,12,Bogotá,cop,Medium,4.689,-74.067,142650
abnb_1373416094177976057,1373416094177976057,,entire_place,1,1.0,4.0,4.4,7.0,Stylish & Central | San Felipe Loft Retreat,19785696.48,26695799.37,73.28,103050.5,262,12,Bogotá,cop,Medium,4.6654,-74.0651,142650
abnb_1417590892184803144,1417590892184803144,,entire_place,1,1.0,3.0,4.7,6.0,Exclusive Loft4991; Private Washing Machine; La Castellana,19767267.18,28357974.8,67.39,127530.76,230,12,Bogotá,cop,High,4.680696245,-74.061339442,142650
abnb_1295111149780069432,1295111149780069432,,entire_place,1,1.0,2.0,4.6,44.0,"Loft an 10 min parque 93,  20% mensual",19719351.0,19719351.0,52.05,103786.06,365,12,Bogotá,cop,Low,4.685109522,-74.058173318,142650
abnb_956840500595017204,956840500595017204,,entire_place,1,1.5,2.0,5.0,6.0,Charming Loft - Bogotá North,19704607.56,19874120.26,52.96,104811.74,355,12,Bogotá,cop,Low,4.68934,-74.06949,142650
abnb_700924761743919816,700924761743919816,,entire_place,1,1.0,3.0,4.6,37.0,"Fantastic exterior loft, very central",19619832.78,19689237.52,60.16,89588.28,364,12,Bogotá,cop,Low,4.66747,-74.0624,142650
abnb_1300307404887931782,1300307404887931782,,entire_place,1,1.0,2.0,,,"Brand New Loft, 85th Street, Zona T, Andino Mall",19594031.76,19745778.62,32.0,174946.72,350,12,Bogotá,cop,Low,4.673086348,-74.062341077,142650
abnb_50574946,50574946,,private_room,1,,2.0,5.0,8.0,Room for 2 people in Bonzo House,19531372.14,19531372.14,60.27,88778.96,365,12,Bogotá,cop,Medium,4.6685,-74.0616,142650
abnb_924024200969708716,924024200969708716,,private_room,1,1.5,2.0,5.0,7.0,Private room Quinta Six Three 207,19435539.78,19435539.78,47.4,112344.16,365,12,Bogotá,cop,Medium,4.6527,-74.0696,142650
abnb_1069506030468006380,1069506030468006380,,entire_place,1,1.0,3.0,4.7,31.0,303 Loft 15 min from Zona Rosa,19365508.44,20025387.96,58.03,94007.32,355,12,Bogotá,cop,Low,4.66551,-74.06101,142650
abnb_1348569143864426372,1348569143864426372,,entire_place,3,1.0,4.0,5.0,23.0,Muequetá Bogotá 201 Apartment,19313906.4,22619717.38,68.38,103838.21,272,12,Bogotá,cop,High,4.652976399,-74.07035576,142650
abnb_575945084496189895,575945084496189895,,entire_place,1,1.0,2.0,4.8,85.0,Heroes Independent Studio Apartment,19247560.92,19375423.4,48.21,109986.06,363,12,Bogotá,cop,Medium,4.673352,-74.06115,142650
abnb_42774638,42774638,,entire_place,1,1.5,2.0,4.9,8.0,Apartment - Exclusive Duplex Loft North Zone!,18952692.12,21950475.78,60.12,96697.41,326,12,Bogotá,cop,Low,4.68849,-74.06944,142650
abnb_1256646437847499331,1256646437847499331,,entire_place,1,1.0,3.0,4.8,9.0,"Apartamento en La castellana Edificio Klik, Bogota",18923205.24,19065221.43,70.94,75996.8,351,12,Bogotá,cop,Medium,4.6807,-74.0635,142650
abnb_42510855,42510855,,entire_place,1,1.0,3.0,4.9,65.0,"Well-lit,★ remodeled★ apartment with Wi-Fi and Netflix✔",18856859.76,18975655.03,91.74,56627.21,363,12,Bogotá,cop,Medium,4.6534,-74.0701,142650
abnb_785616827360725626,785616827360725626,,private_room,1,1.5,2.0,4.9,29.0,Private Room Quinta Seis Tres 102,18834744.6,18834744.6,48.49,106410.98,365,12,Bogotá,cop,Medium,4.6527,-74.0696,142650
abnb_776135520059365924,776135520059365924,,entire_place,0,1.0,3.0,4.6,79.0,SFL 402: Esplendido loft 15 min from the zona rosa,18786828.42,18804999.71,51.92,99401.21,364,12,Bogotá,cop,Medium,4.6666,-74.0619,142650
abnb_906588158659742075,906588158659742075,,private_room,1,1.0,2.0,4.8,59.0,Double room with natural light and private bathroom 201,18749969.82,18749969.82,60.82,84459.33,365,12,Bogotá,cop,Low,4.67243,-74.05996,142650
abnb_53782975,53782975,,entire_place,1,1.0,2.0,4.5,44.0,Comfortable Loft-style Studio Apartment in Bogotá!,18646765.74,18646765.74,98.36,51940.85,365,12,Bogotá,cop,Low,4.65966,-74.06816,142650
abnb_1196244121020757961,1196244121020757961,,entire_place,1,1.0,2.0,4.8,37.0,[Chicó District] Blue Comfort Tokyo Apartment,18643079.88,18643079.88,49.86,102434.5,365,12,Bogotá,cop,Low,4.68361,-74.05818,142650
abnb_1396381142009303612,1396381142009303612,,entire_place,1,1.0,2.0,4.9,19.0,New Loft with Washer - Wi-Fi - Smart TV,18632022.3,24293024.1,81.5,90009.77,254,12,Bogotá,cop,Low,4.68657,-74.06282,142650
abnb_1303901881994817570,1303901881994817570,,entire_place,1,1.0,2.0,,,! Cozy Apartamento Polo87 !,18469844.46,20661825.4,81.15,72715.92,313,12,Bogotá,cop,High,4.675518152,-74.062262744,142650
abnb_1228990723693685348,1228990723693685348,,entire_place,1,1.0,3.0,4.9,9.0,"A cozy and impeccable loft, close to Virrey Park!",18469844.46,19270044.67,63.3,98243.85,297,12,Bogotá,cop,Low,4.67619,-74.05918,142650
abnb_716089721106849452,716089721106849452,,entire_place,1,1.0,2.0,4.7,32.0,"Holtz Smart Loft, Excellent Location",18440357.58,18637035.07,41.53,125444.6,354,12,Bogotá,cop,Low,4.68553,-74.05797,142650
abnb_1137773586136608456,1137773586136608456,,entire_place,1,1.0,2.0,4.9,44.0,"Stunning Loft in Bogotá – Manzana 3, Apt. 810",18344525.22,18465089.7,44.48,116844.11,353,12,Bogotá,cop,High,4.65545,-74.07851,142650
abnb_902911454416098162,902911454416098162,,entire_place,0,1.0,2.0,5.0,5.0,Beautiful new studio apartment!,18337153.5,20215357.18,74.17,74239.49,333,12,Bogotá,cop,Medium,4.677,-74.0602,142650
abnb_16301258,16301258,,entire_place,1,1.0,2.0,4.9,45.0,Comfortable Studio Apartment in the North Zone,18311352.48,18599513.01,93.87,54336.35,359,12,Bogotá,cop,Low,4.66621,-74.06835,142650
abnb_903145226978447507,903145226978447507,,entire_place,1,1.0,5.0,4.7,24.0,"Cozy, modern, comfortable, fast wifi",18303980.76,18426646.18,69.58,74105.18,355,12,Bogotá,cop,High,4.6779,-74.0745,142650
abnb_1444514887317336381,1444514887317336381,,entire_place,1,1.0,4.0,4.8,12.0,"72Hub modern apartment with city views, pool, gym",18292923.18,31860979.28,51.53,181118.06,196,12,Bogotá,cop,High,4.662330805,-74.067301709,142650
abnb_1081106219268409920,1081106219268409920,,entire_place,1,1.0,4.0,5.0,24.0,Bogota Movistar Arena,18215520.12,19186154.49,40.7,130110.86,344,12,Bogotá,cop,Low,4.65552,-74.07965,142650
abnb_1270699817215421871,1270699817215421871,,entire_place,0,1.0,2.0,4.7,6.0,Modern Studio with Balcony near Zona T and 93!,18134431.2,18166571.9,62.6,80240.84,361,12,Bogotá,cop,Medium,4.6808,-74.0635,142650
abnb_1414679588204474838,1414679588204474838,,entire_place,1,1.0,3.0,4.8,23.0,Well-lit apartment,18101258.46,26631444.26,64.14,119087.22,237,12,Bogotá,cop,High,4.6831175,-74.0587196,142650
abnb_11259340,11259340,,entire_place,1,1.0,4.0,4.9,35.0,✔Chapinero Spacious Studio Apartment WiFi✔ Netflix✔,18093886.74,18724353.09,89.24,57440.91,353,12,Bogotá,cop,Low,4.65244,-74.07108,142650
abnb_677625948196267397,677625948196267397,,entire_place,2,2.0,4.0,4.9,72.0,"“ Encantó” Private apartament, excellent location!",18079143.3,18897883.38,45.87,112292.82,351,12,Bogotá,cop,Low,4.66893,-74.08557,142650
abnb_1465374523325647252,1465374523325647252,,entire_place,2,2.0,3.0,5.0,14.0,"New, clean and nice",18031227.12,33554853.11,62.66,182133.61,158,12,Bogotá,cop,Low,4.68703,-74.06155,142650
abnb_700915825501568023,700915825501568023,,entire_place,1,1.0,2.0,4.5,65.0,"SFL102: Cozy Loft, 15 minutes from Zona Rosa",18001740.24,18058760.49,54.6,91845.61,359,12,Bogotá,cop,Low,4.66722,-74.06151,142650
abnb_1090150314490972798,1090150314490972798,,entire_place,1,1.0,2.0,4.8,13.0,"Apartaestudioloft, wifi quiet and safe Andes103",17887478.58,17923858.02,75.27,65282.77,364,12,Bogotá,cop,Medium,4.6867,-74.066,142650
abnb_726353620672493296,726353620672493296,3195183,entire_place,0,1.0,2.0,4.8,19.0,"FH ~ Smart studio: Terrace, central+fully equipped",17872735.14,21785164.95,74.05,92127.5,262,12,Bogotá,cop,Low,4.685583391,-74.057557894,142650
abnb_1210370724347398441,1210370724347398441,,private_room,1,1.0,2.0,4.9,48.0,Private Room Quinta Seis Tres 209,17861677.56,17861677.56,46.85,104454.26,365,12,Bogotá,cop,Medium,4.6527,-74.0696,142650
abnb_624391948261510566,624391948261510566,,entire_place,1,1.0,2.0,4.9,25.0,"Loft-Style Studio Apartments Bogotá Alcazares ""New""",17813761.38,18163512.64,86.24,58025.28,356,12,Bogotá,cop,Low,4.66461,-74.07191,142650
abnb_629932938942127740,629932938942127740,,entire_place,1,1.0,2.0,4.9,14.0,"Loft-Style Studio Apartments Bogotá Alcazares ""New""",17795332.08,18208148.4,92.18,53925.25,358,12,Bogotá,cop,Low,4.66487,-74.07068,142650
abnb_1440637465783120845,1440637465783120845,,entire_place,1,1.0,2.0,5.0,4.0,New apartment with a unique design. Quiet location,17776902.78,26163340.04,77.66,121759.62,188,12,Bogotá,cop,Medium,4.6735,-74.0648,142650
abnb_14914093,14914093,,entire_place,1,0.0,2.0,4.9,41.0,Comfortable Apartment,17769531.06,17860276.93,95.59,51209.02,363,12,Bogotá,cop,Low,4.66707,-74.06736,142650
abnb_866636022958147975,866636022958147975,,private_room,1,1.0,2.0,4.8,52.0,"Bedroom, private bathroom 104",17622096.66,17622096.66,63.84,75631.32,365,12,Bogotá,cop,Medium,4.6702,-74.0605,142650
abnb_43169842,43169842,,entire_place,1,1.0,2.0,4.8,16.0,Cozy studio apartment in the Cafam Floresta sector,17603667.36,17603667.36,68.49,70414.67,365,12,Bogotá,cop,Low,4.68917,-74.06744,142650
abnb_1153000869332631832,1153000869332631832,,entire_place,1,1.0,2.0,4.8,56.0,Independent and comfortable apartment,17588923.92,17588923.92,82.19,58629.75,365,12,Bogotá,cop,Medium,4.6664,-74.0674,142650
abnb_1225985110553924598,1225985110553924598,,entire_place,0,1.0,2.0,4.8,40.0,Studio apartment Parque de los Novios,17555751.18,18047297.47,72.47,68045.55,356,12,Bogotá,cop,Medium,4.6549,-74.0793,142650
abnb_700990821720461177,700990821720461177,,entire_place,1,1.0,4.0,4.7,77.0,"SFL203: Amazing Loft, 15 minutes from Zona Rosa",17482033.98,24346579.64,65.93,98213.67,270,12,Bogotá,cop,Low,4.66767,-74.06228,142650
abnb_50997429,50997429,,entire_place,1,1.0,2.0,4.7,88.0,Private loft-style studio apartment - Bogotá!,17474662.26,17618926.82,90.61,53276.41,362,12,Bogotá,cop,Low,4.65983,-74.06822,142650
abnb_1204589995583663390,1204589995583663390,,entire_place,1,1.0,2.0,4.8,5.0,U-GO Urban Charm at Manzana 3,17456232.96,24769126.63,60.31,110482.49,262,12,Bogotá,cop,Low,4.65716,-74.07719,142650
abnb_1355852230171951872,1355852230171951872,,entire_place,0,1.0,2.0,5.0,2.0,"Very central, spacious and comfortable",17434117.8,18992794.28,76.04,79607.84,288,12,Bogotá,cop,Medium,4.6667,-74.0619,142650
abnb_779890898257053622,779890898257053622,11197042ha,entire_place,1,1.0,2.0,4.4,12.0,Technological Apartaestudio Calle 100 Bogotá,17434117.8,17434117.8,59.11,101361.15,291,12,Bogotá,cop,Medium,4.6862,-74.0576,142650
abnb_31121014,31121014,,entire_place,1,1.0,2.0,4.9,100.0,Beautiful and cozy studio apartment,17400945.06,17919803.57,92.37,53213.9,354,12,Bogotá,cop,Low,4.66531,-74.06702,142650
abnb_903161777655058426,903161777655058426,,private_room,1,1.0,2.0,4.8,78.0,"Bedroom, private bathroom 204",17323542.0,17323542.0,60.82,78033.97,365,12,Bogotá,cop,Medium,4.6712,-74.0604,142650
abnb_910199034404927833,910199034404927833,11325256ha,private_room,1,1.0,2.0,4.8,50.0,Double Room Private Bath 103,17224023.78,17312963.58,62.26,76212.49,363,12,Bogotá,cop,Medium,4.6713,-74.0604,142650
abnb_1200911053003583494,1200911053003583494,,entire_place,1,1.0,2.0,5.0,1.0,Muequetá Bogotá 102 Studio Apartment,17172421.74,17172421.74,81.1,58014.94,365,12,Bogotá,cop,High,4.6526,-74.0702,142650
abnb_807284645296771322,807284645296771322,,entire_place,1,1.0,3.0,4.8,55.0,Apto LOFT I,17124505.56,17335594.76,63.51,75107.48,359,12,Bogotá,cop,Medium,4.6754,-74.0661,142650
abnb_41525832,41525832,4871671,entire_place,1,1.0,2.0,5.0,41.0,Studio apartment close to everything!,17102390.4,17102390.4,59.45,78812.86,365,12,Bogotá,cop,High,4.68666,-74.06638,142650
abnb_1472042740086762133,1472042740086762133,,entire_place,1,1.0,4.0,4.6,11.0,Modern flat in 7° floor: 2 beds/ parking in Polo,17072903.52,33700850.02,54.17,218883.38,144,12,Bogotá,cop,Medium,4.6772,-74.0602,142650
abnb_1414523235022681994,1414523235022681994,,entire_place,1,1.0,2.0,4.3,19.0,Amazing Loft Bogotá Cozy Rental Retreat,17050788.36,23855217.65,73.19,99132.49,235,12,Bogotá,cop,Medium,4.6796,-74.0623,142650
abnb_1400237974260016774,1400237974260016774,,entire_place,1,1.0,2.0,4.8,24.0,Central Bogotá Cozy Rental Retreat,17021301.48,22678138.26,65.2,104425.17,250,12,Bogotá,cop,Medium,4.6796,-74.0623,142650
abnb_1110470620361707573,1110470620361707573,,entire_place,1,1.0,2.0,4.8,27.0,New and beautiful loft in a modern building,16977071.16,16977071.16,35.67,133677.72,356,12,Bogotá,cop,Medium,4.6579,-74.0782,142650
abnb_1394413774130893688,1394413774130893688,,entire_place,1,1.0,3.0,4.3,16.0,Minimalist 7th-floor duplex with views/ Polo area,16888610.52,32533538.16,80.61,126982.03,165,12,Bogotá,cop,Medium,4.6771519,-74.060214,142650
abnb_994395960294148677,994395960294148677,,entire_place,1,1.0,2.0,5.0,9.0,Everything is nearby!,16840694.34,19194005.37,61.17,94610.64,291,12,Bogotá,cop,Low,4.67792,-74.06142,142650
abnb_785656711557792773,785656711557792773,,private_room,1,,3.0,5.0,5.0,Private Room Quinta Seis Tres 103,16833322.62,16833322.62,27.95,165032.58,365,12,Bogotá,cop,Low,4.65331,-74.07012,142650
abnb_1381433085861192658,1381433085861192658,,entire_place,1,1.0,3.0,4.8,16.0,Urban & Chic Dúplex near to Movistar Arena,16766977.14,20388297.73,57.14,116437.35,252,12,Bogotá,cop,Low,4.652442756,-74.078728298,142650
abnb_1334412480377664316,1334412480377664316,,entire_place,1,1.0,2.0,5.0,8.0,Modern Loft in Virrey,16641657.9,27751134.81,88.21,96753.82,195,12,Bogotá,cop,High,4.6772,-74.0602,142650
abnb_1400258299004360674,1400258299004360674,,entire_place,1,1.0,2.0,4.9,34.0,Apartment in the north of Bogotá,16608485.16,21011613.52,67.83,94905.63,258,12,Bogotá,cop,Medium,4.6831,-74.0587,142650
abnb_48142809,48142809,2568747,entire_place,1,1.5,3.0,4.9,73.0,"5. Loft-Near Movistar, Campin",16604799.3,16716075.41,60.24,84288.32,327,12,Bogotá,cop,Low,4.65171,-74.06991,142650
abnb_904561160568120556,904561160568120556,,private_room,1,1.0,2.0,4.8,56.0,private bathroom room 101,16520024.52,16582942.15,58.79,77196.38,364,12,Bogotá,cop,Low,4.67206,-74.0612,142650
abnb_1232146671543335521,1232146671543335521,,entire_place,1,1.0,2.0,4.7,27.0,ViveClaro|MovistarArena|Stadium|Wifi|BBQ|Gym|Bar,16483165.92,17061256.2,41.69,123933.58,319,12,Bogotá,cop,High,4.6564,-74.0786,142650
abnb_918028864532720160,918028864532720160,,entire_place,1,1.0,2.0,4.6,22.0,Apartment with vintage industrial design in Chapinero,16468422.48,16800518.47,73.58,90985.76,246,12,Bogotá,cop,Medium,4.6544295,-74.0663286,142650
abnb_42763866,42763866,,entire_place,1,1.0,4.0,4.9,103.0,Cozy and beatiful appartment in Chapinero,16457364.9,23437093.69,50.45,146940.75,222,12,Bogotá,cop,Medium,4.6543,-74.0651,142650
abnb_1385920126120069047,1385920126120069047,,entire_place,2,2.0,4.0,4.9,14.0,Enjoy comfort and proximity in Bogota,16387333.56,28106378.0,63.3,137708.68,188,12,Bogotá,cop,Medium,4.6735,-74.0823,142650
abnb_1465515550762714496,1465515550762714496,,entire_place,1,1.0,2.0,5.0,43.0,Exclusive apartment in the north area,16298872.92,26375977.3,84.24,117258.08,165,12,Bogotá,cop,Low,4.67038,-74.06444,142650
abnb_1451807980477315899,1451807980477315899,,entire_place,1,1.0,2.0,4.8,4.0,Apartment 5 Calle 66. Chapinero,16228841.58,24503044.4,97.25,91688.37,182,12,Bogotá,cop,Medium,4.655,-74.066,142650
abnb_885550776815847623,885550776815847623,,private_room,1,1.0,2.0,4.6,22.0,Private bathroom room 102,16214098.14,16214098.14,59.45,74719.34,365,12,Bogotá,cop,Low,4.67103,-74.06146,142650
abnb_863063590657979019,863063590657979019,,private_room,1,1.0,2.0,4.8,23.0,"Private Room, MovistarArena Campín ViveClaro",16206726.42,16206726.42,44.66,99427.77,365,12,Bogotá,cop,Low,4.65092,-74.07003,142650
abnb_51265681,51265681,,entire_place,1,1.0,4.0,4.6,63.0,Spacious Duplex Great Location,16191982.98,16771916.19,68.58,71330.32,331,12,Bogotá,cop,Medium,4.6776,-74.0648,142650
abnb_1394259750689999325,1394259750689999325,,entire_place,1,1.0,2.0,4.7,22.0,Modern Apartment in Bogotá City,16107208.2,21464458.28,62.99,100670.05,254,12,Bogotá,cop,Medium,4.6796,-74.0623,142650
abnb_1356111949744190897,1356111949744190897,,entire_place,1,1.0,2.0,4.8,16.0,Apartment in La Castellana neighborhood,15956087.94,22526280.82,59.18,110041.99,245,12,Bogotá,cop,High,4.6807,-74.0635,142650
abnb_1368972061517179394,1368972061517179394,,entire_place,1,1.0,5.0,4.4,16.0,Elegant Duplex in Polo: 2 beds/parking/7th floor,15922915.2,21693829.34,42.21,244967.93,154,12,Bogotá,cop,Medium,4.6771519,-74.060214,142650
abnb_968872074648548677,968872074648548677,,entire_place,1,1.5,2.0,5.0,6.0,Nice furnished apartment,15897114.18,19053942.69,100.0,102562.03,155,12,Bogotá,cop,Medium,4.6877,-74.0608,142650
abnb_1208313357603667247,1208313357603667247,,entire_place,1,1.0,2.0,4.7,15.0,Comfortable and central studio apartment 104,15841826.28,19421017.49,70.1,77656.01,291,12,Bogotá,cop,Medium,4.6866,-74.0659,142650
abnb_1304601112195426373,1304601112195426373,,entire_place,2,2.0,4.0,5.0,1.0,Apt 2 bedrooms. Near T. Mountain View,15819711.12,16282433.98,62.5,85511.95,296,12,Bogotá,cop,Medium,4.6667,-74.0661,142650
abnb_32918842,32918842,,entire_place,1,1.0,3.0,5.0,82.0,"1. Apt-Near Movistar, Campin",15819711.12,16237171.62,50.56,87887.28,356,12,Bogotá,cop,Low,4.65085,-74.06948,142650
abnb_771503131917011463,771503131917011463,,entire_place,1,1.0,2.0,5.0,8.0,Furnished loft-style studio apartment,15771794.94,16664583.95,93.18,50228.65,337,12,Bogotá,cop,Low,4.66459,-74.07048,142650
abnb_1403717576024956884,1403717576024956884,,entire_place,1,1.0,2.0,5.0,1.0,New: Calle 94 & Autopista Norte,15771794.94,20185833.44,76.75,90124.55,228,12,Bogotá,cop,Medium,4.6831,-74.0587,142650
abnb_876049877855559563,876049877855559563,,entire_place,1,1.0,3.0,4.6,51.0,Charming Loft 15 minutes from the Zona Rosa,15734936.34,19040415.59,55.38,89913.92,316,12,Bogotá,cop,Medium,4.6667,-74.0618,142650
abnb_1244987508237754029,1244987508237754029,,entire_place,1,1.0,2.0,4.7,12.0,Comfortable and central apartment Movistar Arena 202,15734936.34,15734936.34,49.59,86933.35,365,12,Bogotá,cop,High,4.66175,-74.07987,142650
vrbo_3751479,,3751479,entire_place,1,1.0,2.0,4.8,0.0,w* | Unique loft in Parque Virrey,15731250.48,20228847.43,52.29,137993.42,218,12,Bogotá,cop,Low,4.67715,-74.06023,142650
abnb_1463240473493941931,1463240473493941931,,entire_place,1,1.0,2.0,4.3,3.0,|HF| Executive: Duplex with Balcony next to Virrey,15727564.62,28940672.41,83.09,139181.99,136,12,Bogotá,cop,Low,4.67787,-74.06058,142650
abnb_1422643284341185885,1422643284341185885,,entire_place,1,1.0,2.0,4.7,18.0,Cozy Loft with Kitchen in Bogotá,15668590.86,22618832.77,67.58,105868.86,219,12,Bogotá,cop,Medium,4.6796,-74.0623,142650
abnb_1347393807771288321,1347393807771288321,,entire_place,1,2.0,4.0,5.0,1.0,Charming Entire 2nd-Floor Apartment,15650161.56,17490916.9,86.01,94278.08,193,12,Bogotá,cop,High,4.681453673,-74.070240694,142650
abnb_1268845358665882605,1268845358665882605,,entire_place,2,2.5,4.0,5.0,1.0,Apartment CL 100 Autopista,15639103.98,15639103.98,82.0,127147.18,150,12,Bogotá,cop,Medium,4.6874,-74.0611,142650
abnb_22250183,22250183,,entire_place,1,1.0,2.0,4.8,210.0,Cozy Apart-Studio,15583816.08,16146868.05,82.52,54110.47,349,12,Bogotá,cop,Low,4.6672,-74.06862,142650
abnb_1215495775143348672,1215495775143348672,,entire_place,1,1.0,2.0,5.0,6.0,Studio Apartment Muequetá Bogotá 101,15554329.2,15668295.99,83.24,53086.45,352,12,Bogotá,cop,High,4.6526,-74.0701,142650
abnb_1360318829007040079,1360318829007040079,,entire_place,1,1.0,3.0,5.0,6.0,U-GO | Exclusive Studio Near Movistar Arena,15539585.76,27154578.37,70.0,116838.99,190,12,Bogotá,cop,Medium,4.6569032,-74.078357,142650
abnb_19403430,19403430,,entire_place,1,1.0,2.0,4.8,71.0,** Quiet Apartment **,15528528.18,15943703.45,83.94,52109.16,355,12,Bogotá,cop,Low,4.66594,-74.06785,142650
abnb_1054618233886770568,1054618233886770568,,entire_place,1,1.0,2.0,4.9,29.0,Apto LOFT III,15524842.32,15658712.76,61.36,71874.27,352,12,Bogotá,cop,Low,4.67427,-74.06684,142650
abnb_1485622897555492643,1485622897555492643,,entire_place,3,2.0,4.0,4.7,6.0,Castellana PH modern terrace,15473240.28,38950620.42,78.72,209097.84,94,12,Bogotá,cop,Low,4.68208,-74.06033,142650
abnb_700890306289283323,700890306289283323,,entire_place,1,1.0,3.0,4.3,24.0,"SFL101: Modern Loft, 15min from Zona Rosa",15447439.26,15447439.26,41.32,102982.93,363,12,Bogotá,cop,Low,4.66684,-74.06076,142650
abnb_49177106,49177106,,entire_place,0,1.0,3.0,4.8,72.0,Amazing with terrace near the pink area,15432695.82,20875273.55,93.69,74195.65,222,12,Bogotá,cop,Low,4.66796,-74.06244,142650
abnb_1186436585457955097,1186436585457955097,,entire_place,1,2.0,2.0,5.0,5.0,A spectacular apartment for your stay!,15384779.64,15504459.51,57.87,113123.38,235,12,Bogotá,cop,Medium,4.6797,-74.0596,142650
abnb_1176165364564912908,1176165364564912908,,entire_place,1,1.0,3.0,4.7,30.0,Modern cozy studio apartment,15340549.32,24711111.2,66.15,120791.72,192,12,Bogotá,cop,High,4.6588172,-74.0626331,142650
abnb_1071991344590663300,1071991344590663300,,private_room,1,1.0,2.0,4.0,2.0,Studio apartment 103 Calle 72,15300004.86,15300004.86,65.22,68000.02,345,12,Bogotá,cop,Medium,4.6653009,-74.0702551,142650
abnb_739953207970544767,739953207970544767,,private_room,1,1.0,3.0,5.0,1.0,Very spacious room with private bathroom,15277889.7,15323520.65,78.51,55758.72,349,12,Bogotá,cop,Medium,4.6863,-74.0718,142650
abnb_1384749923049900687,1384749923049900687,,entire_place,1,1.0,2.0,4.5,2.0,Parque de los Novios Apartment,15207858.36,19144172.55,51.0,118811.39,251,12,Bogotá,cop,Medium,4.6561,-74.0785,142650
abnb_1050672848635673070,1050672848635673070,,entire_place,1,1.0,2.0,4.8,120.0,Central and independent apartment,15189429.06,15189429.06,67.95,61247.7,365,12,Bogotá,cop,Medium,4.6667,-74.0673,142650
abnb_1057954091117619780,1057954091117619780,,entire_place,1,1.0,3.0,4.8,31.0,comfortable and quiet accommodation,15145198.74,15145198.74,46.3,89616.56,365,12,Bogotá,cop,Medium,4.6769,-74.0827,142650
abnb_47198579,47198579,,entire_place,2,2.0,4.0,4.2,4.0,Hotel-style apartment - North Zone,15119397.72,15789044.76,29.45,157493.73,326,12,Bogotá,cop,Low,4.68767,-74.06755,142650
abnb_1197809070948355672,1197809070948355672,,entire_place,1,1.0,2.0,4.7,18.0,Studio apartment near Cafam Theater,15097282.56,15897851.35,88.73,49176.81,346,12,Bogotá,cop,Medium,4.6868,-74.0706,142650
abnb_37314595,37314595,2568713,entire_place,1,1.0,3.0,5.0,70.0,"2. Apt-Near Movistar, Campin",15097282.56,16637345.44,53.59,84342.35,334,12,Bogotá,cop,Medium,4.6519,-74.0693,142650
abnb_1192958583916331238,1192958583916331238,,entire_place,1,1.0,2.0,4.3,21.0,Studio apartment near Cafam,15016193.64,15491190.42,86.32,49558.39,351,12,Bogotá,cop,Low,4.68552,-74.07083,142650
abnb_51233196,51233196,10922894ha,entire_place,1,1.0,3.0,4.8,103.0,Chapinero cozy studio apartment Comfortable/Modern,14979335.04,14979335.04,44.66,91897.76,365,12,Bogotá,cop,Low,4.65658,-74.06338,142650
abnb_15872568,15872568,,private_room,1,1.0,2.0,5.0,268.0,NEWLY REDESIGNED ROOM WITH OWN ENTRANCE (PRIVATE),14953534.02,15305644.23,67.05,63362.43,352,12,Bogotá,cop,Low,4.66934,-74.0626,142650
abnb_1417564147602556803,1417564147602556803,,entire_place,1,1.0,2.0,5.0,1.0,"Cozy Loft on 85th Street, Zona T, Andino Mall",14916675.42,22779720.56,36.7,186458.44,218,12,Bogotá,cop,Low,4.674107182,-74.062524741,142650
abnb_1305156823071355727,1305156823071355727,,entire_place,1,1.0,2.0,4.6,5.0,Cozy apartment,14865073.38,14865073.38,44.93,119879.62,276,12,Bogotá,cop,Low,4.659469246,-74.064206071,142650
abnb_923161508764999253,923161508764999253,,entire_place,1,1.5,2.0,4.5,6.0,Apartment with vintage industrial design in Chapinero,14861387.52,24292544.94,75.46,120824.29,163,12,Bogotá,cop,Medium,4.6550148,-74.0660237,142650
abnb_1488334754730518780,1488334754730518780,,entire_place,1,1.5,2.0,4.8,6.0,Spacious and comfortable apartment,14857701.66,29478328.8,82.81,140166.99,128,12,Bogotá,cop,Medium,4.6628,-74.0721,142650
abnb_829994356009641956,829994356009641956,,entire_place,2,1.0,4.0,4.9,18.0,Complete Apartment in Bogotá 1,14728696.56,15136647.54,64.37,65753.11,348,12,Bogotá,cop,Low,4.6641,-74.06652,142650
abnb_1007217479901889574,1007217479901889574,,entire_place,1,1.0,2.0,4.7,3.0,Studio apartment 105 74 ll,14721324.84,14721324.84,81.99,49734.2,361,12,Bogotá,cop,Low,4.66371,-74.06544,142650
abnb_1377794647879237141,1377794647879237141,,entire_place,1,1.0,2.0,,,Apartment in Bogotá - Excellent location,14702895.54,17086172.62,83.03,63925.64,277,12,Bogotá,cop,Medium,4.6705,-74.0652,142650
abnb_1415932437476896594,1415932437476896594,,entire_place,1,1.0,2.0,4.8,24.0,La Castellana Studio 2min Rionegro Station Fast WIFI,14662351.08,20872324.87,81.9,85246.23,210,12,Bogotá,cop,Medium,4.6808,-74.0635,142650
abnb_1426041290206011627,1426041290206011627,,entire_place,1,1.0,2.0,5.0,4.0,"Beautiful modern apartment with everything, good location",14654979.36,21258861.0,67.61,101770.69,213,12,Bogotá,cop,High,4.6712,-74.065,142650
abnb_1278197092564260037,1278197092564260037,,entire_place,1,1.0,4.0,5.0,5.0,Complete Chapinero Loft. Ideal for long stays.,14525974.26,14582257.34,61.98,89116.41,263,12,Bogotá,cop,Low,4.653652941,-74.065517252,142650
abnb_1244425400532759142,1244425400532759142,,entire_place,1,1.0,2.0,4.8,11.0,my luxury house 202,14507544.96,14507544.96,49.26,87394.85,337,12,Bogotá,cop,Medium,4.662462043,-74.079243131,142650
abnb_1308214525891505353,1308214525891505353,,entire_place,5,3.5,16.0,3.7,3.0,Spacious house on Calle 100,14448571.2,14802598.05,25.84,314099.37,178,12,Bogotá,cop,Medium,4.6873267,-74.0705593,142650
abnb_1328818257626037832,1328818257626037832,,entire_place,2,2.0,4.0,5.0,1.0,"Apartment, 2 bedrooms, equipped, close to zone T,",14326937.82,16237171.62,57.45,88437.89,282,12,Bogotá,cop,Low,4.66678,-74.06842,142650
abnb_729133847087576485,729133847087576485,,entire_place,1,1.0,3.0,4.4,26.0,"SFL302: Spacious Loft, 15 minutes from Zona Rosa",14323251.96,22181321.19,68.56,91230.91,229,12,Bogotá,cop,Low,4.66718,-74.06112,142650
abnb_1398717988635752923,1398717988635752923,,entire_place,1,1.0,4.0,4.9,17.0,Modern Loft in the Heart of the City,14208990.3,21333757.68,57.06,146484.44,170,12,Bogotá,cop,Medium,4.6688,-74.0847,142650
abnb_1149424283885388461,1149424283885388461,,private_room,1,1.0,4.0,4.8,68.0,Bright and cozy room,14150016.54,14150016.54,76.16,50899.34,365,12,Bogotá,cop,Medium,4.6665,-74.0671,142650
abnb_1281461916994749680,1281461916994749680,,entire_place,1,1.0,2.0,4.8,4.0,"Brand new apartment, 2 blocks from Virrey Park",14142644.82,14199149.05,56.55,93659.9,267,12,Bogotá,cop,High,4.6771519,-74.060214,142650
abnb_1090628384034601146,1090628384034601146,,entire_place,1,1.0,3.0,5.0,9.0,Polo Club Studio Apartment,14094728.64,26419986.47,72.09,90933.73,215,12,Bogotá,cop,Medium,4.6771,-74.0601,142650
abnb_1450910272391543816,1450910272391543816,,entire_place,1,1.0,2.0,5.0,10.0,Modern private loft | Fast Wi-Fi + Washing machine,14068927.62,22619127.64,81.42,94422.33,183,12,Bogotá,cop,Low,4.68002,-74.06313,142650
abnb_1361793287756227783,1361793287756227783,,private_room,1,1.0,2.0,4.7,17.0,"Single Room, Private Bathroom 203",14039440.74,14179503.42,71.06,63526.88,311,12,Bogotá,cop,Medium,4.6706,-74.0605,142650
abnb_1310288269390498767,1310288269390498767,,entire_place,1,1.0,2.0,4.8,17.0,Modern Apartment,14039440.74,14338806.29,49.71,81152.84,348,12,Bogotá,cop,Medium,4.6613,-74.0652,142650
abnb_1361922187476506485,1361922187476506485,,private_room,1,1.0,2.0,4.9,8.0,Comfort room 201,13969409.4,14232395.51,79.39,59444.29,296,12,Bogotá,cop,Low,4.660463919,-74.064140285,142650
abnb_778228566606610730,778228566606610730,,entire_place,3,2.0,4.0,4.6,84.0,Elegant new apartment Castellana 3 bedrooms,13965723.54,14172131.7,44.25,181373.02,174,12,Bogotá,cop,Low,4.68332,-74.06174,142650
abnb_1124911043870809787,1124911043870809787,,private_room,1,1.0,1.0,4.8,5.0,Book Now!,13943608.38,13943608.38,88.37,43710.37,361,12,Bogotá,cop,Medium,4.6736,-74.0639,142650
abnb_1491712037886079371,1491712037886079371,,entire_place,2,2.0,4.0,,,"Security, view, 2 bedrooms, sauna",13903063.92,33437753.33,49.5,278061.28,101,12,Bogotá,cop,Medium,4.6634,-74.068,142650
abnb_1355822032517239906,1355822032517239906,,entire_place,1,1.0,2.0,3.6,7.0,A very central and spacious loft,13880948.76,15185743.2,52.51,88413.68,299,12,Bogotá,cop,Medium,4.6667,-74.0618,142650
abnb_1382873173427515399,1382873173427515399,,entire_place,1,1.0,3.0,4.8,8.0,Loft Premium,13862519.46,17381004.56,61.65,84527.55,266,12,Bogotá,cop,Low,4.67587936,-74.065440446,142650
abnb_1420531544440731120,1420531544440731120,,entire_place,1,1.0,2.0,4.8,14.0,New Amazing Loft wifi and kitchen,13829346.72,21184517.21,61.82,101686.38,220,12,Bogotá,cop,Medium,4.6796,-74.0623,142650
abnb_1306527660012433948,1306527660012433948,,entire_place,2,1.0,3.0,4.8,5.0,Apartment near the Metropolis Shopping Center,13810917.42,14961274.33,74.47,65766.27,282,12,Bogotá,cop,Medium,4.6801,-74.079,142650
abnb_1536445753030043842,1536445753030043842,,entire_place,4,4.5,16.0,4.6,10.0,Spacious house near Zona T and Parque de la 93,13777744.68,67151983.03,55.0,417507.42,60,12,Bogotá,cop,Medium,4.6766,-74.0639,142650
abnb_1508102708640140999,1508102708640140999,,entire_place,2,2.0,4.0,5.0,1.0,"Modern and centrally located, ideal for your stay in Bogotá",13774058.82,47429720.2,73.63,205582.97,91,12,Bogotá,cop,Low,4.66502,-74.07715,142650
abnb_1490696607783160270,1490696607783160270,,entire_place,1,1.0,2.0,5.0,18.0,Modern apartment with an incredible view of the entire city.,13667168.88,26488359.17,84.92,127730.55,126,12,Bogotá,cop,High,4.6635,-74.0769,142650
abnb_1451799459824781643,1451799459824781643,,entire_place,1,2.0,3.0,4.5,2.0,Apartment 3 Calle 66. Chapinero.,13656111.3,25980410.81,79.78,96169.8,178,12,Bogotá,cop,Medium,4.655,-74.066,142650
abnb_1046480290508628972,1046480290508628972,,entire_place,1,1.0,2.0,4.9,34.0,Loft Amoblado • Iserra 100 • Free Parking • WiFi,13630310.28,13904538.26,56.73,87373.78,275,12,Bogotá,cop,Medium,4.6868514,-74.0619875,142650
abnb_1440866849971805385,1440866849971805385,,entire_place,1,1.0,2.0,4.7,34.0,Modern loft looking for the T zone,13582394.1,22040816.2,69.43,101361.15,193,12,Bogotá,cop,High,4.670990253,-74.065177785,142650
abnb_44099813,44099813,,entire_place,1,1.0,2.0,4.5,16.0,Exclusive new studio apartment in the north zone,13571336.52,15871792.32,34.77,120100.33,325,12,Bogotá,cop,Low,4.6873,-74.06795,142650
abnb_1447464713051356827,1447464713051356827,,entire_place,1,1.0,2.0,5.0,15.0,Modern luxury Loft north of Bogotá: Workation,13563964.8,22251463.1,89.17,96885.47,157,12,Bogotá,cop,Low,4.678738132,-74.061587505,142650
abnb_47134044,47134044,,entire_place,1,1.0,3.0,4.6,34.0,Comfortable and conveniently located - Bogotá,13523420.34,13523420.34,72.17,57302.63,327,12,Bogotá,cop,Low,4.67221,-74.08739,142650
abnb_1420388981526043801,1420388981526043801,,entire_place,1,1.0,2.0,4.2,6.0,New Loft near 93 Park  great view,13490247.6,21904033.94,66.5,102978.98,197,12,Bogotá,cop,Medium,4.67957,-74.06233,142650
abnb_1056587133632784847,1056587133632784847,,entire_place,2,1.0,3.0,4.9,9.0,Apartment in the Los Delfines Building,13442331.42,13442331.42,43.79,90826.56,338,12,Bogotá,cop,High,4.685,-74.0723,142650
abnb_1160808343747287800,1160808343747287800,,entire_place,1,2.0,2.0,,,"Cozy apartment, Chapinero.",13434959.7,24589404.1,75.63,90167.51,197,12,Bogotá,cop,Low,4.657895771,-74.064327818,142650
abnb_1457491364775929730,1457491364775929730,3751477,entire_place,1,1.0,2.0,4.8,5.0,w* | Marvelous Loft in Polo,13335441.48,13548668.48,63.68,104183.14,201,12,Bogotá,cop,Medium,4.6772,-74.0602,142650
abnb_959576589779478718,959576589779478718,11951524ha,entire_place,1,1.0,2.0,5.0,14.0,Aparta Estudio Andes,13331755.62,13331755.62,52.22,70913.59,360,12,Bogotá,cop,Medium,4.6872,-74.0644,142650
abnb_1147800564231757025,1147800564231757025,,entire_place,1,1.0,2.0,4.5,34.0,[Chicó District] Design Private Terrace Apartment,13324383.9,13324383.9,35.07,104096.75,365,12,Bogotá,cop,Low,4.68458,-74.05769,142650
abnb_1452112979961721468,1452112979961721468,,entire_place,1,1.0,2.0,4.8,11.0,Exclusive Loft near medical center Bogota,13313326.32,23248598.81,79.1,95095.19,177,12,Bogotá,cop,Medium,4.6796,-74.0623,142650
abnb_1377722165731068395,1377722165731068395,,entire_place,1,1.0,4.0,4.6,32.0,Apt for Families or Groups,13287525.3,15683334.3,69.1,66771.48,288,12,Bogotá,cop,Low,4.65013173,-74.065007432,142650
abnb_1492103884117932125,1492103884117932125,,entire_place,1,1.0,3.0,,,Modern loft with private terrace,13206436.38,28156100.25,90.6,124589.03,117,12,Bogotá,cop,Low,4.67054,-74.06378,142650
abnb_40616270,40616270,,entire_place,2,2.0,4.0,4.7,29.0,5 stars 807 sqft modern apartment at Hub 72,13169577.78,13196853.14,23.62,280203.8,199,12,Bogotá,cop,Low,4.662036083,-74.067818319,142650
abnb_1390039691752896672,1390039691752896672,,entire_place,1,2.0,4.0,5.0,12.0,Duplex Queen by Jalo,13140090.9,23292313.11,30.53,164251.14,262,12,Bogotá,cop,Low,4.681971506,-74.058033532,142650
abnb_1374714663597928411,1374714663597928411,,entire_place,1,1.0,3.0,4.9,58.0,Modern Loft in North Bogotá Near TransMilenio,13129033.32,18857044.05,48.63,105879.3,255,12,Bogotá,cop,Medium,4.6797,-74.0622,142650
abnb_912512976705801215,912512976705801215,,entire_place,1,1.0,2.0,3.3,3.0,Studio apartment 202 Calle 72,13125347.46,13208353.03,62.24,62205.44,339,12,Bogotá,cop,Low,4.66657,-74.06964,142650
abnb_673958083291859326,673958083291859326,,entire_place,1,1.0,2.0,4.8,343.0,American-style studio apartment.,13106918.16,13106918.16,40.55,88560.26,365,12,Bogotá,cop,Low,4.66639,-74.06198,142650
vrbo_4746732,,4746732,entire_place,1,1.0,2.0,,,Welcome to your urban oasis in Bogotá,13099546.44,18687826.22,84.06,112927.13,138,12,Bogotá,cop,Low,4.671107,-74.06769,142650
abnb_1363950884994376136,1363950884994376136,,entire_place,5,3.5,16.0,5.0,7.0,Family house in the north of Bogotá,13081117.14,20116207.55,29.63,327027.93,135,12,Bogotá,cop,Medium,4.68522,-74.0647444,142650
abnb_1278564710033127607,1278564710033127607,,entire_place,1,2.0,5.0,4.8,5.0,Spacious and safe flat in fantastic location,13036886.82,13036886.82,77.27,58990.43,286,12,Bogotá,cop,Low,4.652361906,-74.079132349,142650
abnb_1379020356239949998,1379020356239949998,,entire_place,1,1.0,4.0,4.4,9.0,"Apartment with digital access, central location in Bogotá",12922625.16,18505597.3,48.98,107688.54,245,12,Bogotá,cop,Low,4.671452,-74.076985536,142650
abnb_612427396058645742,612427396058645742,,entire_place,2,1.0,3.0,4.8,22.0,A beautiful apartment in Bogotá's artistic district,12845222.1,23712169.42,85.35,95859.87,157,12,Bogotá,cop,Low,4.66241,-74.06685,142650
abnb_1441680056103417592,1441680056103417592,,entire_place,1,1.0,2.0,4.8,6.0,Loft 4991.,12819421.08,21072356.49,82.05,80121.38,195,12,Bogotá,cop,Low,4.678833766,-74.061138613,142650
abnb_42279785,42279785,2568735,entire_place,1,1.0,3.0,4.9,63.0,"4. Apt-Near Movistar, Campin",12804677.64,12804677.64,40.83,87106.65,360,12,Bogotá,cop,Low,4.653010057,-74.070129166,142650
abnb_831155241363031252,831155241363031252,,private_room,1,1.0,2.0,4.9,18.0,Habitación cama doble Bogotá zona Chapinero,12771504.9,12921335.11,57.34,61698.09,361,12,Bogotá,cop,Low,4.65141,-74.06475,142650
abnb_700981732484621983,700981732484621983,,entire_place,1,1.0,3.0,4.7,116.0,"SFL404: Beautiful Loft, 15min from Zona Rosa",12742018.02,14542634.35,38.14,100330.85,333,12,Bogotá,cop,Low,4.66729,-74.06263,142650
abnb_1356557261059398207,1356557261059398207,,private_room,1,1.0,2.0,4.8,62.0,Comfort Room 208,12723588.72,12863651.4,61.74,66268.69,311,12,Bogotá,cop,Medium,4.6617,-74.0628,142650
abnb_549946397889457844,549946397889457844,,private_room,2,1.0,4.0,3.7,3.0,Bogotá Casa Grande for 4 people,12719902.86,12719902.86,85.67,50676.9,293,12,Bogotá,cop,Low,4.6628,-74.06558,142650
